{"version": 0.6, "generator": "Overpass API 0.7.62.5 1bd436f1", "osm3s": {"timestamp_osm_base": "2025-05-24T17:50:13Z", "copyright": "The data included in this document is from www.openstreetmap.org. The data is made available under ODbL."}, "elements": [{"type": "node", "id": 30917611, "lat": 15.7992317, "lon": 120.6073025, "tags": {"admin_level": "6", "designation": "municipality", "name": "San Manuel", "name:en": "San Manuel", "name:es": "San Manuel", "name:id": "San Manuel", "name:ilo": "San Manuel", "name:pag": "San Manuel", "name:pam": "San Manuel", "name:tl": "San Manuel", "official_name": "Municipality of San Manuel", "official_name:en": "Municipality of San Manuel", "official_name:ilo": "Ili ti San Manuel", "official_name:pag": "Baley na San Manuel", "official_name:pam": "Balen ning San Manuel", "official_name:tl": "Bayan ng San Manuel", "old_ref": "036914000", "place": "town", "population": "28387", "population:date": "2020-05-01", "postal_code": "2309", "ref": "0306914000", "source:population": "Philippine Statistics Authority", "website": "https://www.sanmanueltarlac.gov.ph/", "wikidata": "Q56481", "wikimedia_commons": "Category:San Manuel, Tarlac", "wikipedia": "en:San Manuel, Tarlac"}}, {"type": "node", "id": 30917614, "lat": 15.6686544, "lon": 120.5858177, "tags": {"admin_level": "6", "gns_classification": "ADM2", "is_in:province": "Tarlac", "name": "Paniqui", "name:es": "Paniqui", "name:fil": "Paniqui", "name:id": "Paniqui", "place": "town", "place:PH": "municipality", "population": "103003", "population:date": "2020-05-01", "ref": "036910000", "source:population": "Wikipedia", "website": "http://www.paniqui.gov.ph/", "wikidata": "Q56457", "wikimedia_commons": "Category:Paniqui", "wikipedia": "en:Paniqui"}}, {"type": "node", "id": 30917626, "lat": 15.6069315, "lon": 120.5985733, "tags": {"admin_level": "6", "gns_classification": "ADM2", "is_in:province": "Tarlac", "name": "Gerona", "name:es": "Gerona", "name:fil": "Gerona", "name:id": "Gerona", "place": "town", "place:PH": "municipality", "population": "94485", "population:date": "2020-05-01", "ref": "036906000", "source:population": "Wikipedia", "website": "https://geronatarlac.gov.ph/", "wikidata": "Q56439", "wikimedia_commons": "Category:Gerona, Tarlac", "wikipedia": "en:Gerona, Tarlac"}}, {"type": "node", "id": 198491614, "lat": 15.5536502, "lon": 120.8101793, "tags": {"admin_level": "6", "admin_type:PH": "municipality", "gns_classification": "ADM2", "gns_uni": "-3371709", "is_in:province": "Nueva Ecija", "name": "Quezon", "place": "town", "population": "40592", "population:date": "2015-08-01", "source": "GNS", "source:population": "Philippine Statistics Authority", "wikidata": "Q55569", "wikimedia_commons": "Category:Quezon, Nueva Ecija", "wikipedia": "en:Quezon, Nueva Ecija"}}, {"type": "node", "id": 198492654, "lat": 15.5403458, "lon": 120.7634483, "tags": {"admin_level": "6", "gns_classification": "ADM2", "gns_uni": "-3354104", "is_in:province": "Nueva Ecija", "name": "Licab", "place": "town", "place:PH": "municipality", "population": "28254", "population:date": "2015-08-01", "source": "GNS", "source:population": "Philippine Statistics Authority", "wikidata": "Q55557", "wikimedia_commons": "Category:Licab", "wikipedia": "en:Licab, Nueva Ecija"}}, {"type": "node", "id": 198492713, "lat": 15.6658597, "lon": 120.6397227, "tags": {"admin_level": "6", "admin_type:PH": "municipality", "gns_classification": "ADM2", "gns_uni": "-3372129", "is_in:province": "Tarlac", "name": "Ramos", "name:es": "Ramos", "name:fil": "Ramos", "name:id": "Ramos", "place": "town", "population": "22879", "population:date": "2020-05-01", "ref": "036912000", "source": "GNS", "source:population": "Wikipedia", "wikidata": "Q56465", "wikimedia_commons": "Category:Ramos, Tarlac", "wikipedia": "en:Ramos, Tarlac"}}, {"type": "node", "id": 198492736, "lat": 15.7336884, "lon": 120.5726987, "tags": {"admin_level": "6", "designation": "municipality", "name": "Moncada", "name:en": "Moncada", "name:es": "Moncada", "name:id": "Moncada", "name:ilo": "Moncada", "name:pag": "Moncada", "name:pam": "Moncada", "name:tl": "Moncada", "official_name": "Municipality of Moncada", "official_name:en": "Municipality of Moncada", "official_name:ilo": "Ili ti Moncada", "official_name:pag": "Baley na Moncada", "official_name:pam": "Balen ning Moncada", "official_name:tl": "Bayan ng Moncada", "old_ref": "036909000", "place": "town", "population": "28387", "population:date": "2020-05-01", "postal_code": "2308", "ref": "0306909000", "source:population": "Philippine Statistics Authority", "website": "https://moncadatarlac.gov.ph/", "wikidata": "Q56453", "wikimedia_commons": "Category:Moncada, Tarlac", "wikipedia": "en:Moncada, Tarlac"}}, {"type": "node", "id": 198493307, "lat": 15.9272139, "lon": 120.8407438, "tags": {"admin_level": "6", "admin_type:PH": "municipality", "name": "Umingan", "official_name": "Municipality of Umingan", "place": "town", "population": "73252", "population:date": "2015-08-01", "website": "http://www.umingan.gov.ph/", "wikidata": "Q43152", "wikimedia_commons": "Category:Umingan", "wikipedia": "en:Umingan"}}, {"type": "node", "id": 198493779, "lat": 15.878228, "lon": 120.5860753, "tags": {"admin_level": "6", "admin_type:PH": "municipality", "name": "Santo Tomas", "official_name": "Municipality of Santo Tomas", "place": "town", "population": "15022", "population:date": "2015-08-01", "short_name": "Sto. Tomas", "wikidata": "Q43140", "wikimedia_commons": "Category:Santo Tomas, Pangasinan", "wikipedia": "en:Santo Tomas, Pangasinan"}}, {"type": "node", "id": 198494317, "lat": 15.9015861, "lon": 120.5883085, "tags": {"admin_level": "6", "admin_type:PH": "municipality", "name": "Villasis", "official_name": "Municipality of Villasis", "place": "town", "population": "62333", "population:date": "2015-08-01", "website": "http://www.villasis.gov.ph/", "wikidata": "Q43157", "wikimedia_commons": "Category:Villasis", "wikipedia": "en:Villasis"}}, {"type": "node", "id": 198494353, "lat": 15.6603499, "lon": 120.7669137, "tags": {"admin_level": "6", "admin_type:PH": "municipality", "gns_classification": "ADM2", "gns_uni": "-3346501", "is_in:province": "Nueva Ecija", "name": "Guimba", "name:en": "Guimba", "name:ja": "\u30ae\u30f3\u30d0", "place": "town", "population": "118655", "population:date": "2015-08-01", "source": "GNS", "source:population": "Philippine Statistics Authority", "website": "http://guimba-ne.com/", "wikidata": "Q55552", "wikimedia_commons": "Category:Guimba", "wikipedia": "en:Guimba, Nueva Ecija"}}, {"type": "node", "id": 198495849, "lat": 15.7321724, "lon": 120.6386089, "tags": {"admin_level": "6", "admin_type:PH": "municipality", "gns_classification": "ADM2", "gns_uni": "-3364136", "is_in:province": "Nueva Ecija", "name": "Nampicuan", "place": "town", "population": "14954", "population:date": "2015-08-01", "source": "GNS", "source:population": "Philippine Statistics Authority", "wikidata": "Q55560", "wikimedia_commons": "Category:Nampicuan", "wikipedia": "en:Nampicuan"}}, {"type": "node", "id": 198499399, "lat": 15.778507, "lon": 120.6641376, "tags": {"admin_level": "6", "gns_classification": "ADM2", "gns_uni": "-3341612", "is_in:province": "Nueva Ecija", "name": "Cuyapo", "place": "town", "place:PH": "municipality", "population": "65039", "population:date": "2015-08-01", "postal_code": "3117", "source": "GNS", "source:population": "Philippine Statistics Authority", "website": "http://www.cuyapo.gov.ph/", "wikidata": "Q55547", "wikimedia_commons": "Category:Cuyapo", "wikipedia": "en:Cuyapo"}}, {"type": "node", "id": 198502087, "lat": 15.8977234, "lon": 120.67179, "tags": {"admin_level": "6", "admin_type:PH": "municipality", "name": "Balungao", "official_name": "Municipality of Balungao", "place": "town", "population": "31106", "population:date": "2015-08-01", "wikidata": "Q41725", "wikimedia_commons": "Category:Balungao", "wikipedia": "en:Balungao"}}, {"type": "node", "id": 198503234, "lat": 15.6864622, "lon": 120.414656, "tags": {"admin_level": "6", "admin_type:PH": "municipality", "gns_classification": "ADM2", "gns_uni": "-3337551", "name": "Camiling", "name:es": "Camiling", "name:fil": "Camiling", "name:id": "Camiling", "place": "town", "population": "83248", "population:date": "2015-08-01", "ref": "036903000", "source": "GNS, PSGC", "source:population": "Philippine Statistics Authority", "type": "boundary", "website": "http://www.camiling-lgu.gov.ph/", "wikidata": "Q56424", "wikimedia_commons": "Category:Camiling", "wikipedia": "en:Camiling"}}, {"type": "node", "id": 198503399, "lat": 15.6236937, "lon": 120.6469386, "tags": {"admin_level": "6", "designation": "municipality", "name": "Pura", "name:en": "Pura", "name:es": "Pura", "name:fil": "Pura", "name:id": "Pura", "name:ilo": "Pura", "name:pag": "Pura", "name:pam": "Pura", "official_name:en": "Municipality of Anao", "official_name:ilo": "Ili ti Pura", "official_name:pag": "Baley na Anao", "official_name:pam": "Balen ning Pura", "place": "town", "population": "25781", "population:date": "2020-05-01", "postal_code": "2312", "ref": "036911000", "source:population": "Philippine Statistics Authority", "source:ref": "PSGC", "website": "https://www.puratarlac.gov.ph/", "wikidata": "Q56461", "wikimedia_commons": "Category:Pura, Tarlac", "wikipedia": "en:Pura, Tarlac"}}, {"type": "node", "id": 198505949, "lat": 15.6161567, "lon": 120.4359327, "tags": {"admin_level": "6", "admin_type:PH": "municipality", "ele": "40", "is_in:province": "Tarlac", "name": "Santa Ignacia", "name:es": "Santa Ignacia", "name:fil": "Santa Ignacia", "name:id": "Santa Ignacia", "place": "town", "population": "51626", "population:date": "2020-05-01", "postal_code": "2303", "ref": "036915000", "short_name": "Sta. Ignacia", "source:population": "Philippine Statistics Authority", "website": "https://santaignaciatarlac.gov.ph/", "wikidata": "Q56486", "wikimedia_commons": "Category:Santa Ignacia, Tarlac", "wikipedia": "en:Santa Ignacia"}}, {"type": "node", "id": 198508284, "lat": 15.8443487, "lon": 120.5213759, "tags": {"admin_level": "6", "admin_type:PH": "municipality", "name": "Alcala", "official_name": "Municipality of Alcala", "place": "town", "population": "43402", "population:date": "2015-08-01", "wikidata": "Q41704", "wikimedia_commons": "Category:Alcala, Pangasinan", "wikipedia": "en:Alcala, Pangasinan"}}, {"type": "node", "id": 198510040, "lat": 15.7286873, "lon": 120.6266345, "tags": {"admin_level": "6", "admin_type:PH": "municipality", "name": "Anao", "name:en": "Anao", "name:es": "Anao", "name:id": "Anao", "name:ilo": "Anao", "name:pag": "Anao", "name:pam": "Anao", "name:tl": "Anao", "official_name": "Municipality of Anao", "official_name:en": "Municipality of Anao", "official_name:ilo": "Ili ti Anao", "official_name:pag": "Baley na Anao", "official_name:pam": "Balen ning Anao", "official_name:tl": "Bayan ng Anao", "old_ref": "036901000", "place": "town", "population": "12208", "population:date": "2020-05-01", "postal_code": "2310", "ref": "0306901000", "source:population": "Philippine Statistics Authority", "wikidata": "Q56414", "wikimedia_commons": "Category:Anao, Tarlac", "wikipedia": "en:Anao, Tarlac"}}, {"type": "node", "id": 198513683, "lat": 15.9199144, "lon": 120.4138181, "tags": {"admin_level": "6", "admin_type:PH": "municipality", "gns_classification": "ADM2", "gns_uni": "-3358406", "is_in:province": "Pangasinan", "name": "Malasiqui", "old_ref": "015524000", "place": "town", "population": "143094", "population:2015": "130275", "population:date": "2015-08-01", "ref": "0105524000", "source": "GNS", "source:population": "Philippine Statistics Authority", "website": "https://malasiqui.gov.ph/", "wikidata": "Q41985", "wikimedia_commons": "Category:Malasiqui", "wikipedia": "en:Malasiqui"}}, {"type": "node", "id": 198526964, "lat": 15.5770813, "lon": 120.6812475, "tags": {"admin_level": "6", "admin_type:PH": "municipality", "gns_classification": "ADM2", "gns_uni": "-3386406", "is_in:province": "Tarlac", "name": "Victoria", "name:es": "Victoria", "name:fil": "Victoria", "name:id": "Victoria", "place": "town", "population": "69370", "population:date": "2020-05-01", "postal_code": "2313", "ref": "036917000", "source": "Bing", "source:population": "Wikipedia", "website": "https://www.victoriatarlac.gov.ph/", "wikidata": "Q56493", "wikimedia_commons": "Category:Victoria, Tarlac", "wikipedia": "en:Victoria, Tarlac"}}, {"type": "node", "id": 1191016878, "lat": 15.5248034, "lon": 120.8683635, "tags": {"admin_level": "10", "designation": "barangay", "is_in:province": "Nueva Ecija", "is_in:town": "Aliaga", "name": "Bibiclat", "place": "village"}}, {"type": "node", "id": 1560161840, "lat": 15.7747741, "lon": 120.6250624, "tags": {"admin_level": "10", "admin_type:PH": "barangay", "name": "Piglisan", "place": "village", "ref": "034906038"}}, {"type": "node", "id": 1560175084, "lat": 15.7734763, "lon": 120.6074418, "tags": {"admin_level": "10", "admin_type:PH": "barangay", "name": "Pacpaco", "place": "village", "postal_code": "2309"}}, {"type": "node", "id": 1764142858, "lat": 15.9148183, "lon": 120.5029065, "tags": {"admin_level": "10", "admin_type:PH": "barangay", "name": "Lareg Lareg", "place": "village"}}, {"type": "node", "id": 1765743811, "lat": 15.6590628, "lon": 120.5876488}, {"type": "node", "id": 1765743820, "lat": 15.6565318, "lon": 120.5881986}, {"type": "node", "id": 1765743842, "lat": 15.6586289, "lon": 120.5855727}, {"type": "node", "id": 1765743849, "lat": 15.6581357, "lon": 120.5878285}, {"type": "node", "id": 1791697702, "lat": 15.5422544, "lon": 120.5962313, "tags": {"admin_level": "10", "admin_type:PH": "barangay", "alt_name": "Alvindia Primero", "is_in:city": "Tarlac", "is_in:province": "Tarlac", "name": "Santa Cruz", "place": "village", "postal_code": "2300"}}, {"type": "node", "id": 1791779471, "lat": 15.6561751, "lon": 120.5881803}, {"type": "node", "id": 1791779472, "lat": 15.6567386, "lon": 120.5904019}, {"type": "node", "id": 1791779473, "lat": 15.6567874, "lon": 120.5881396}, {"type": "node", "id": 1791779474, "lat": 15.6568304, "lon": 120.5882803}, {"type": "node", "id": 1791779475, "lat": 15.6581485, "lon": 120.5880715}, {"type": "node", "id": 1791779476, "lat": 15.6581832, "lon": 120.5880432}, {"type": "node", "id": 1791779477, "lat": 15.6587442, "lon": 120.589992}, {"type": "node", "id": 1791779478, "lat": 15.6626948, "lon": 120.5864243}, {"type": "node", "id": 1791779482, "lat": 15.6634404, "lon": 120.5890305}, {"type": "node", "id": 1792620186, "lat": 15.8556899, "lon": 120.6015731, "tags": {"name": "Salcedo", "place": "village", "postal_code": "2309"}}, {"type": "node", "id": 1792669164, "lat": 15.9649154, "lon": 120.5706771}, {"type": "node", "id": 1792669166, "lat": 15.9653404, "lon": 120.5706745}, {"type": "node", "id": 1794076965, "lat": 15.7946254, "lon": 120.6074443, "tags": {"admin_level": "10", "admin_type:PH": "barangay", "is_in:town": "San Manuel", "name": "Lanat", "place": "village", "postal_code": "2309"}}, {"type": "node", "id": 1794088453, "lat": 15.6829008, "lon": 120.580096, "tags": {"is_in:state": "Tarlac", "is_in:town": "Paniqui", "name": "Apulid", "place": "village", "postal_code": "2307"}}, {"type": "node", "id": 1794098227, "lat": 15.5557007, "lon": 120.600708, "tags": {"admin_level": "10", "admin_type:PH": "barangay", "is_in:state": "Tarlac", "is_in:town": "Gerona", "name": "Parsolingan", "place": "village", "postal_code": "2302"}}, {"type": "node", "id": 1954473635, "lat": 15.8924255, "lon": 120.6329883, "tags": {"admin_level": "6", "admin_type:PH": "municipality", "gns_classification": "ADM2", "is_in:province": "Pangasinan", "name": "Rosales", "place": "town", "population": "63081", "population:date": "2015-08-01", "postal_code": "2441", "source:population": "Philippine Statistics Authority", "website": "https://www.rosales.gov.ph/", "wikidata": "Q42024", "wikimedia_commons": "Category:Rosales, Pangasinan", "wikipedia": "en:Rosales, Pangasinan"}}, {"type": "node", "id": 2034728926, "lat": 15.7780706, "lon": 120.8080405, "tags": {"admin_level": "6", "admin_type:PH": "municipality", "gns_classification": "ADM2", "is_in:province": "Nueva Ecija", "name": "Talugtug", "place": "town", "population": "23817", "population:date": "2015-08-01", "source:population": "Philippine Statistics Authority", "website": "http://www.talugtug.gov.ph/", "wikidata": "Q55593", "wikimedia_commons": "Category:Talugtug", "wikipedia": "en:Talugtug, Nueva Ecija"}}, {"type": "node", "id": 2326630828, "lat": 15.6029289, "lon": 120.6240061, "tags": {"admin_level": "10", "admin_type:PH": "barangay", "is_in:town": "Gerona", "name": "Bawa", "place": "village"}}, {"type": "node", "id": 2397926280, "lat": 15.5988201, "lon": 120.7238651, "tags": {"is_in:state": "Tarlac", "is_in:town": "Victoria", "name": "Calibungan", "place": "village"}}, {"type": "node", "id": 2421399222, "lat": 15.5678222, "lon": 120.6688417}, {"type": "node", "id": 2421399224, "lat": 15.5681201, "lon": 120.6695994}, {"type": "node", "id": 2421399231, "lat": 15.5690732, "lon": 120.6680626}, {"type": "node", "id": 2421399233, "lat": 15.5691286, "lon": 120.6682161}, {"type": "node", "id": 2421399236, "lat": 15.5692862, "lon": 120.6662399}, {"type": "node", "id": 2421399242, "lat": 15.5694134, "lon": 120.6661762}, {"type": "node", "id": 2421399243, "lat": 15.5694154, "lon": 120.6660282}, {"type": "node", "id": 2421399253, "lat": 15.5696606, "lon": 120.6676964}, {"type": "node", "id": 2421399257, "lat": 15.5697777, "lon": 120.6655479}, {"type": "node", "id": 2421399258, "lat": 15.5697977, "lon": 120.6679993}, {"type": "node", "id": 2421399259, "lat": 15.569843, "lon": 120.6653436}, {"type": "node", "id": 2421399260, "lat": 15.5698679, "lon": 120.668124}, {"type": "node", "id": 2421399262, "lat": 15.5699092, "lon": 120.6654761}, {"type": "node", "id": 2421399263, "lat": 15.5699084, "lon": 120.6657704}, {"type": "node", "id": 2421399264, "lat": 15.5699308, "lon": 120.6679321}, {"type": "node", "id": 2421399265, "lat": 15.5699807, "lon": 120.668076}, {"type": "node", "id": 2421399272, "lat": 15.5701895, "lon": 120.6688434}, {"type": "node", "id": 2421399274, "lat": 15.5704036, "lon": 120.6686399}, {"type": "node", "id": 2421399275, "lat": 15.5707777, "lon": 120.6646803}, {"type": "node", "id": 2421399276, "lat": 15.5709794, "lon": 120.666498}, {"type": "node", "id": 2421399277, "lat": 15.5710704, "lon": 120.6651164}, {"type": "node", "id": 2421399278, "lat": 15.5711654, "lon": 120.6650837}, {"type": "node", "id": 2421399279, "lat": 15.5717152, "lon": 120.6659446}, {"type": "node", "id": 2421399280, "lat": 15.5719198, "lon": 120.6678277}, {"type": "node", "id": 2421445007, "lat": 15.77288, "lon": 120.6719619, "tags": {"is_in:state": "Nueva Ecija", "is_in:town": "Cuyapo", "name": "San Jose", "place": "village", "postal_code": "3117"}}, {"type": "node", "id": 2462909242, "lat": 15.6684041, "lon": 120.7676439}, {"type": "node", "id": 2462909246, "lat": 15.6671309, "lon": 120.7677619}, {"type": "node", "id": 2462909249, "lat": 15.6681304, "lon": 120.7679282}, {"type": "node", "id": 2462909251, "lat": 15.6684609, "lon": 120.7650582}, {"type": "node", "id": 2462909254, "lat": 15.6679057, "lon": 120.7676385}, {"type": "node", "id": 2462909257, "lat": 15.6679444, "lon": 120.7678477}, {"type": "node", "id": 2462909260, "lat": 15.6680503, "lon": 120.7678719}, {"type": "node", "id": 2462909263, "lat": 15.6679393, "lon": 120.7678933}, {"type": "node", "id": 2462909266, "lat": 15.6688896, "lon": 120.7651145}, {"type": "node", "id": 2462909269, "lat": 15.6680219, "lon": 120.7679067}, {"type": "node", "id": 2462909273, "lat": 15.66812, "lon": 120.7678799}, {"type": "node", "id": 2462909276, "lat": 15.6681717, "lon": 120.7678531}, {"type": "node", "id": 2462909287, "lat": 15.6672598, "lon": 120.7677717}, {"type": "node", "id": 2462909290, "lat": 15.667291, "lon": 120.7675795}, {"type": "node", "id": 2462909293, "lat": 15.6688612, "lon": 120.7665495}, {"type": "node", "id": 2462909296, "lat": 15.6685255, "lon": 120.7665817}, {"type": "node", "id": 2462909300, "lat": 15.6685304, "lon": 120.767549}, {"type": "node", "id": 2462909302, "lat": 15.6681536, "lon": 120.7679443}, {"type": "node", "id": 2462909305, "lat": 15.6682518, "lon": 120.7677592}, {"type": "node", "id": 2462909308, "lat": 15.6685304, "lon": 120.7676376}, {"type": "node", "id": 2462909311, "lat": 15.6679677, "lon": 120.7677216}, {"type": "node", "id": 2462909314, "lat": 15.6683367, "lon": 120.7676805}, {"type": "node", "id": 2462912676, "lat": 15.668466, "lon": 120.7650589}, {"type": "node", "id": 2462912677, "lat": 15.6653929, "lon": 120.7658951}, {"type": "node", "id": 2462912678, "lat": 15.6653438, "lon": 120.7659058}, {"type": "node", "id": 2462912679, "lat": 15.6653386, "lon": 120.767609}, {"type": "node", "id": 2462912680, "lat": 15.6671487, "lon": 120.7640917}, {"type": "node", "id": 2462912681, "lat": 15.6682957, "lon": 120.7642348}, {"type": "node", "id": 2462912682, "lat": 15.6654161, "lon": 120.7638673}, {"type": "node", "id": 2462912683, "lat": 15.6655891, "lon": 120.7638941}, {"type": "node", "id": 2462912684, "lat": 15.6649771, "lon": 120.7646639}, {"type": "node", "id": 2462912685, "lat": 15.6650158, "lon": 120.7643152}, {"type": "node", "id": 2462912686, "lat": 15.6685562, "lon": 120.7642687}, {"type": "node", "id": 2462912687, "lat": 15.665101, "lon": 120.7638351}, {"type": "node", "id": 2462912688, "lat": 15.6669398, "lon": 120.7677377}, {"type": "node", "id": 2462912689, "lat": 15.6654006, "lon": 120.7645861}, {"type": "node", "id": 2657607493, "lat": 15.936146, "lon": 120.4473857, "tags": {"admin_level": "10", "admin_type:PH": "barangay", "is_in:city": "Malasiqui", "is_in:province": "Pangasinan", "name": "Abonagan", "place": "village"}}, {"type": "node", "id": 2657607498, "lat": 15.9362332, "lon": 120.4713643, "tags": {"admin_level": "10", "admin_type:PH": "barangay", "is_in:city": "Malasiqui", "is_in:province": "Pangasinan", "name": "Agdao", "place": "village"}}, {"type": "node", "id": 2657607503, "lat": 15.9128854, "lon": 120.4122637, "tags": {"admin_level": "10", "admin_type:PH": "barangay", "is_in:municipality": "Malasiqui", "name": "Alacan", "place": "village"}}, {"type": "node", "id": 2657607508, "lat": 15.8892936, "lon": 120.4497444, "tags": {"admin_level": "10", "admin_type:PH": "barangay", "is_in:city": "Malasiqui", "is_in:province": "Pangasinan", "name": "Aliaga", "place": "village"}}, {"type": "node", "id": 2657607511, "lat": 15.8851161, "lon": 120.4416615, "tags": {"admin_level": "10", "admin_type:PH": "barangay", "is_in:city": "Malasiqui", "is_in:province": "Pangasinan", "name": "Amacalan", "place": "village"}}, {"type": "node", "id": 2657607513, "lat": 15.8901081, "lon": 120.4162815, "tags": {"admin_level": "10", "admin_type:PH": "barangay", "is_in:city": "Malasiqui", "is_in:province": "Pangasinan", "name": "Apaya", "place": "village"}}, {"type": "node", "id": 2657607515, "lat": 15.9643631, "lon": 120.4748274, "tags": {"admin_level": "10", "admin_type:PH": "barangay", "is_in:city": "Malasiqui", "is_in:province": "Pangasinan", "name": "Asin Weste", "place": "village"}}, {"type": "node", "id": 2657607516, "lat": 15.9323509, "lon": 120.498409, "tags": {"admin_level": "10", "admin_type:PH": "barangay", "is_in:city": "Malasiqui", "is_in:province": "Pangasinan", "name": "Bacundao Este", "place": "village"}}, {"type": "node", "id": 2657607517, "lat": 15.9241335, "lon": 120.4746061, "tags": {"admin_level": "10", "admin_type:PH": "barangay", "is_in:city": "Malasiqui", "is_in:province": "Pangasinan", "name": "Bacundao Weste", "place": "village"}}, {"type": "node", "id": 2657607518, "lat": 15.8782707, "lon": 120.4587843, "tags": {"admin_level": "10", "admin_type:PH": "barangay", "is_in:city": "Malasiqui", "is_in:province": "Pangasinan", "name": "Bakitiw", "place": "village"}}, {"type": "node", "id": 2657607519, "lat": 15.9569802, "lon": 120.481172, "tags": {"admin_level": "10", "admin_type:PH": "barangay", "is_in:city": "Malasiqui", "is_in:province": "Pangasinan", "name": "Balite", "place": "village"}}, {"type": "node", "id": 2657607520, "lat": 15.922827, "lon": 120.4243958, "tags": {"admin_level": "10", "admin_type:PH": "barangay", "is_in:municipality": "Malasiqui", "name": "Banawang", "place": "village"}}, {"type": "node", "id": 2657607521, "lat": 15.9357862, "lon": 120.4183314, "tags": {"admin_level": "10", "admin_type:PH": "barangay", "is_in:city": "Malasiqui", "is_in:province": "Pangasinan", "name": "Barang", "place": "village"}}, {"type": "node", "id": 2657607522, "lat": 15.9097656, "lon": 120.4573402, "tags": {"admin_level": "10", "admin_type:PH": "barangay", "is_in:city": "Malasiqui", "is_in:province": "Pangasinan", "name": "Bawer", "place": "village"}}, {"type": "node", "id": 2657607523, "lat": 15.9061042, "lon": 120.4306229, "tags": {"admin_level": "10", "admin_type:PH": "barangay", "is_in:city": "Malasiqui", "is_in:province": "Pangasinan", "name": "Binalay", "place": "village"}}, {"type": "node", "id": 2657607524, "lat": 15.9270668, "lon": 120.4422898, "tags": {"admin_level": "10", "admin_type:PH": "barangay", "is_in:city": "Malasiqui", "is_in:province": "Pangasinan", "name": "Bobon", "place": "village"}}, {"type": "node", "id": 2657607525, "lat": 15.9321445, "lon": 120.429414, "tags": {"admin_level": "10", "admin_type:PH": "barangay", "is_in:city": "Malasiqui", "is_in:province": "Pangasinan", "name": "Bolaoit", "place": "village"}}, {"type": "node", "id": 2657607526, "lat": 15.8923169, "lon": 120.5042039, "tags": {"admin_level": "10", "admin_type:PH": "barangay", "is_in:city": "Malasiqui", "is_in:province": "Pangasinan", "name": "Bongar", "place": "village"}}, {"type": "node", "id": 2657607527, "lat": 15.9057387, "lon": 120.462856, "tags": {"admin_level": "10", "admin_type:PH": "barangay", "is_in:city": "Malasiqui", "is_in:province": "Pangasinan", "name": "Butao", "place": "village"}}, {"type": "node", "id": 2657607528, "lat": 15.9192256, "lon": 120.436492, "tags": {"admin_level": "10", "admin_type:PH": "barangay", "is_in:city": "Malasiqui", "is_in:province": "Pangasinan", "name": "Cabatling", "place": "village"}}, {"type": "node", "id": 2657607530, "lat": 15.9546829, "lon": 120.4721967, "tags": {"admin_level": "10", "admin_type:PH": "barangay", "is_in:city": "Malasiqui", "is_in:province": "Pangasinan", "name": "Calbueg", "place": "village"}}, {"type": "node", "id": 2657607531, "lat": 15.9086351, "lon": 120.4819479, "tags": {"admin_level": "10", "admin_type:PH": "barangay", "is_in:city": "Malasiqui", "is_in:province": "Pangasinan", "name": "Canan Norte", "place": "village"}}, {"type": "node", "id": 2657607536, "lat": 15.9025897, "lon": 120.478748, "tags": {"admin_level": "10", "admin_type:PH": "barangay", "is_in:city": "Malasiqui", "is_in:province": "Pangasinan", "name": "Canan Sur", "place": "village"}}, {"type": "node", "id": 2657607540, "lat": 15.8872815, "lon": 120.4316991, "tags": {"admin_level": "10", "admin_type:PH": "barangay", "is_in:city": "Malasiqui", "is_in:province": "Pangasinan", "name": "Don Pedro", "place": "village"}}, {"type": "node", "id": 2657607544, "lat": 15.8641363, "lon": 120.4789388, "tags": {"admin_level": "10", "admin_type:PH": "barangay", "is_in:city": "Malasiqui", "is_in:province": "Pangasinan", "name": "Gatang", "place": "village"}}, {"type": "node", "id": 2657607552, "lat": 15.8618585, "lon": 120.4560771, "tags": {"admin_level": "10", "admin_type:PH": "barangay", "is_in:city": "Malasiqui", "is_in:province": "Pangasinan", "name": "Goliman", "place": "village"}}, {"type": "node", "id": 2657607557, "lat": 15.9118118, "lon": 120.4246796, "tags": {"admin_level": "10", "admin_type:PH": "barangay", "is_in:municipality": "Malasiqui", "name": "Gomez", "place": "village"}}, {"type": "node", "id": 2657607561, "lat": 15.9172247, "lon": 120.4108664, "tags": {"admin_level": "10", "admin_type:PH": "barangay", "is_in:municipality": "Malasiqui", "name": "Guilig", "place": "village"}}, {"type": "node", "id": 2657607566, "lat": 15.9497312, "lon": 120.4099985, "tags": {"admin_level": "10", "admin_type:PH": "barangay", "is_in:city": "Malasiqui", "is_in:province": "Pangasinan", "name": "Ican", "place": "village"}}, {"type": "node", "id": 2657607570, "lat": 15.9047334, "lon": 120.4384348, "tags": {"admin_level": "10", "admin_type:PH": "barangay", "is_in:city": "Malasiqui", "is_in:province": "Pangasinan", "name": "Ingalagala", "place": "village"}}, {"type": "node", "id": 2657607579, "lat": 15.9033853, "lon": 120.4508072, "tags": {"admin_level": "10", "admin_type:PH": "barangay", "is_in:city": "Malasiqui", "is_in:province": "Pangasinan", "name": "Lasip", "place": "village"}}, {"type": "node", "id": 2657607584, "lat": 15.8777602, "lon": 120.4494076, "tags": {"admin_level": "10", "admin_type:PH": "barangay", "is_in:city": "Malasiqui", "is_in:province": "Pangasinan", "name": "Lepa", "place": "village"}}, {"type": "node", "id": 2657607588, "lat": 15.9511389, "lon": 120.4591279, "tags": {"admin_level": "10", "admin_type:PH": "barangay", "is_in:city": "Malasiqui", "is_in:province": "Pangasinan", "name": "Loqueb Este", "place": "village"}}, {"type": "node", "id": 2657607593, "lat": 15.9496356, "lon": 120.4428941, "tags": {"admin_level": "10", "admin_type:PH": "barangay", "is_in:city": "Malasiqui", "is_in:province": "Pangasinan", "name": "Loqueb Norte", "place": "village"}}, {"type": "node", "id": 2657607598, "lat": 15.9437598, "lon": 120.4431665, "tags": {"admin_level": "10", "admin_type:PH": "barangay", "is_in:city": "Malasiqui", "is_in:province": "Pangasinan", "name": "Loqueb Sur", "place": "village"}}, {"type": "node", "id": 2657607603, "lat": 15.9611773, "lon": 120.4914967, "tags": {"admin_level": "10", "admin_type:PH": "barangay", "is_in:city": "Malasiqui", "is_in:province": "Pangasinan", "name": "Lunec", "place": "village"}}, {"type": "node", "id": 2657607612, "lat": 15.8935388, "lon": 120.461858, "tags": {"admin_level": "10", "admin_type:PH": "barangay", "is_in:city": "Malasiqui", "is_in:province": "Pangasinan", "name": "Malimpec", "place": "village"}}, {"type": "node", "id": 2657607617, "lat": 15.9521161, "lon": 120.4940145, "tags": {"admin_level": "10", "admin_type:PH": "barangay", "is_in:city": "Malasiqui", "is_in:province": "Pangasinan", "name": "Manggan-Dampay", "place": "village"}}, {"type": "node", "id": 2657607621, "lat": 15.8587728, "lon": 120.4422278, "tags": {"admin_level": "10", "admin_type:PH": "barangay", "is_in:city": "Malasiqui", "is_in:province": "Pangasinan", "name": "Nalsian Norte", "place": "village"}}, {"type": "node", "id": 2657607631, "lat": 15.8457501, "lon": 120.4499753, "tags": {"admin_level": "10", "admin_type:PH": "barangay", "is_in:province": "Pangasinan", "is_in:town": "Bayambang", "name": "Nalsian Norte", "place": "village"}}, {"type": "node", "id": 2657607635, "lat": 15.90615, "lon": 120.5072031, "tags": {"admin_level": "10", "admin_type:PH": "barangay", "is_in:city": "Malasiqui", "is_in:province": "Pangasinan", "name": "Nancapian", "place": "village"}}, {"type": "node", "id": 2657607640, "lat": 15.9117554, "lon": 120.474466, "tags": {"admin_level": "10", "admin_type:PH": "barangay", "is_in:city": "Malasiqui", "is_in:province": "Pangasinan", "name": "Nansangaan", "place": "village"}}, {"type": "node", "id": 2657607644, "lat": 15.8803858, "lon": 120.5179248, "tags": {"admin_level": "10", "admin_type:PH": "barangay", "is_in:municipality": "Malasiqui", "name": "Olea", "place": "village"}}, {"type": "node", "id": 2657607648, "lat": 15.8575478, "lon": 120.465013, "tags": {"admin_level": "10", "admin_type:PH": "barangay", "is_in:city": "Malasiqui", "is_in:province": "Pangasinan", "name": "Pacuan", "place": "village"}}, {"type": "node", "id": 2657607652, "lat": 15.8901921, "lon": 120.4898905, "tags": {"admin_level": "10", "admin_type:PH": "barangay", "is_in:city": "Malasiqui", "is_in:province": "Pangasinan", "name": "Palapar Norte", "place": "village"}}, {"type": "node", "id": 2657607657, "lat": 15.8873766, "lon": 120.4952033, "tags": {"admin_level": "10", "admin_type:PH": "barangay", "is_in:city": "Malasiqui", "is_in:province": "Pangasinan", "name": "Palapar Sur", "place": "village"}}, {"type": "node", "id": 2657607659, "lat": 15.8683233, "lon": 120.4457811, "tags": {"admin_level": "10", "admin_type:PH": "barangay", "is_in:city": "Malasiqui", "is_in:province": "Pangasinan", "name": "Palong", "place": "village"}}, {"type": "node", "id": 2657607660, "lat": 15.9010193, "lon": 120.4930624, "tags": {"admin_level": "10", "admin_type:PH": "barangay", "is_in:city": "Malasiqui", "is_in:province": "Pangasinan", "name": "Pamaranum", "name:uk": "\u041f\u0430\u043c\u0430\u0440\u0430\u043d\u0443\u043c", "place": "village"}}, {"type": "node", "id": 2657607662, "lat": 15.9060352, "lon": 120.4168824, "tags": {"admin_level": "10", "designation": "barangay", "is_in:city": "Malasiqui", "is_in:province": "Pangasinan", "name": "Payar", "place": "village"}}, {"type": "node", "id": 2657607663, "lat": 15.9211633, "lon": 120.4191207, "tags": {"admin_level": "10", "admin_type:PH": "barangay", "is_in:municipality": "Malasiqui", "name": "Poblacion", "place": "village"}}, {"type": "node", "id": 2657607664, "lat": 15.9014798, "lon": 120.4235534, "tags": {"admin_level": "10", "admin_type:PH": "barangay", "is_in:city": "Malasiqui", "is_in:province": "Pangasinan", "name": "Polong Norte", "place": "village"}}, {"type": "node", "id": 2657607665, "lat": 15.8941178, "lon": 120.4357962, "tags": {"admin_level": "10", "admin_type:PH": "barangay", "is_in:city": "Malasiqui", "is_in:province": "Pangasinan", "name": "Polong Sur", "place": "village"}}, {"type": "node", "id": 2657607666, "lat": 15.9533106, "lon": 120.4259468, "tags": {"admin_level": "10", "admin_type:PH": "barangay", "is_in:city": "Malasiqui", "is_in:province": "Pangasinan", "name": "Potiocan", "place": "village"}}, {"type": "node", "id": 2657607667, "lat": 15.8701572, "lon": 120.4363771, "tags": {"admin_level": "10", "admin_type:PH": "barangay", "is_in:city": "Malasiqui", "is_in:province": "Pangasinan", "name": "San Julian", "place": "village"}}, {"type": "node", "id": 2657607668, "lat": 15.9316882, "lon": 120.4486523, "tags": {"admin_level": "10", "admin_type:PH": "barangay", "is_in:city": "Malasiqui", "is_in:province": "Pangasinan", "name": "Tabo-Sili", "place": "village"}}, {"type": "node", "id": 2657607669, "lat": 15.917111, "lon": 120.454001, "tags": {"admin_level": "10", "admin_type:PH": "barangay", "is_in:city": "Malasiqui", "is_in:province": "Pangasinan", "name": "Talospatang", "place": "village"}}, {"type": "node", "id": 2657607671, "lat": 15.9470994, "lon": 120.4787339, "tags": {"admin_level": "10", "admin_type:PH": "barangay", "is_in:city": "Malasiqui", "is_in:province": "Pangasinan", "name": "Taloyan", "place": "village"}}, {"type": "node", "id": 2657607672, "lat": 15.9319728, "lon": 120.4099171, "tags": {"admin_level": "10", "admin_type:PH": "barangay", "is_in:municipality": "Malasiqui", "name": "Tambac", "place": "village"}}, {"type": "node", "id": 2657607673, "lat": 15.8953297, "lon": 120.5149759, "tags": {"admin_level": "10", "admin_type:PH": "barangay", "is_in:city": "Malasiqui", "is_in:province": "Pangasinan", "name": "Tobor", "place": "village"}}, {"type": "node", "id": 2657607674, "lat": 15.9609805, "lon": 120.4588049, "tags": {"admin_level": "10", "admin_type:PH": "barangay", "is_in:city": "Malasiqui", "is_in:province": "Pangasinan", "name": "Tolonguat", "old_ref": "015524079", "place": "village", "population": "1277", "population:2015": "890", "ref": "0105524079", "source:population": "Philippine Statistics Authority"}}, {"type": "node", "id": 2657607675, "lat": 15.8629434, "lon": 120.4488583, "tags": {"admin_level": "10", "admin_type:PH": "barangay", "is_in:city": "Malasiqui", "is_in:province": "Pangasinan", "name": "Tomling", "place": "village"}}, {"type": "node", "id": 2657607676, "lat": 15.8684527, "lon": 120.4622085, "tags": {"admin_level": "10", "admin_type:PH": "barangay", "is_in:city": "Malasiqui", "is_in:province": "Pangasinan", "name": "Umando", "place": "village"}}, {"type": "node", "id": 2657607678, "lat": 15.8672736, "lon": 120.5009437, "tags": {"admin_level": "10", "admin_type:PH": "barangay", "is_in:city": "Malasiqui", "is_in:province": "Pangasinan", "is_in:town": "Alcala", "name": "Waig", "place": "village"}}, {"type": "node", "id": 2657607679, "lat": 15.870321, "lon": 120.4301146, "tags": {"admin_level": "10", "admin_type:PH": "barangay", "is_in:city": "Malasiqui", "is_in:province": "Pangasinan", "name": "Warey", "place": "village"}}, {"type": "node", "id": 2798322301, "lat": 15.8972261, "lon": 120.6207818, "tags": {"is_in:city": "Rosales", "is_in:province": "Pangasinan", "name": "Tomana East", "place": "village"}}, {"type": "node", "id": 2802352140, "lat": 15.9581197, "lon": 120.6678874}, {"type": "node", "id": 2802352141, "lat": 15.9577721, "lon": 120.6678271}, {"type": "node", "id": 2802352142, "lat": 15.9578815, "lon": 120.6684633}, {"type": "node", "id": 2802352143, "lat": 15.9577914, "lon": 120.668557}, {"type": "node", "id": 2802352144, "lat": 15.9574888, "lon": 120.6681954}, {"type": "node", "id": 2802352145, "lat": 15.9573729, "lon": 120.6682624}, {"type": "node", "id": 2802352146, "lat": 15.9574566, "lon": 120.6686374}, {"type": "node", "id": 2802352147, "lat": 15.9571668, "lon": 120.6687646}, {"type": "node", "id": 2802352148, "lat": 15.9569351, "lon": 120.6683762}, {"type": "node", "id": 2802352149, "lat": 15.9569615, "lon": 120.6687667}, {"type": "node", "id": 2802352150, "lat": 15.9570767, "lon": 120.6688048}, {"type": "node", "id": 2802352151, "lat": 15.9573278, "lon": 120.6696285}, {"type": "node", "id": 2802352152, "lat": 15.9574759, "lon": 120.670278}, {"type": "node", "id": 2802352153, "lat": 15.9571926, "lon": 120.670566}, {"type": "node", "id": 2802352154, "lat": 15.9572312, "lon": 120.6707401}, {"type": "node", "id": 2802352155, "lat": 15.9577141, "lon": 120.6705928}, {"type": "node", "id": 2802352156, "lat": 15.9577404, "lon": 120.670962}, {"type": "node", "id": 2802352157, "lat": 15.9572892, "lon": 120.6711285}, {"type": "node", "id": 2802352158, "lat": 15.9573664, "lon": 120.6713495}, {"type": "node", "id": 2802352159, "lat": 15.9578622, "lon": 120.6711486}, {"type": "node", "id": 2802352160, "lat": 15.9583386, "lon": 120.6715571}, {"type": "node", "id": 2802352161, "lat": 15.9583065, "lon": 120.6716508}, {"type": "node", "id": 2802352162, "lat": 15.9581841, "lon": 120.6717178}, {"type": "node", "id": 2802352163, "lat": 15.9582871, "lon": 120.6719254}, {"type": "node", "id": 2802352164, "lat": 15.9586799, "lon": 120.671758}, {"type": "node", "id": 2802352165, "lat": 15.9585962, "lon": 120.6715638}, {"type": "node", "id": 2802352166, "lat": 15.9584545, "lon": 120.6715571}, {"type": "node", "id": 2802352167, "lat": 15.9579588, "lon": 120.6711419}, {"type": "node", "id": 2802352168, "lat": 15.9576111, "lon": 120.6701173}, {"type": "node", "id": 2802352169, "lat": 15.9577527, "lon": 120.6700437}, {"type": "node", "id": 2802352170, "lat": 15.9575467, "lon": 120.6689856}, {"type": "node", "id": 2802352171, "lat": 15.9576175, "lon": 120.6687378}, {"type": "node", "id": 2802352172, "lat": 15.9578751, "lon": 120.6686106}, {"type": "node", "id": 2803440281, "lat": 15.8088028, "lon": 120.4540746, "tags": {"admin_level": "6", "admin_type:PH": "municipality", "name": "Bayambang", "official_name": "Municipality of Bayambang", "place": "town", "population": "118205", "population:date": "2015-08-01", "website": "https://www.bayambang.gov.ph/", "wikidata": "Q41762", "wikimedia_commons": "Category:Bayambang", "wikipedia": "en:Bayambang"}}, {"type": "node", "id": 3261338630, "lat": 15.9611369, "lon": 120.606371, "tags": {"admin_level": "10", "admin_type:PH": "barangay", "is_in:city": "Urdaneta", "name": "Macalong", "place": "village", "population": "1553", "population:2015": "1515", "ref": "015546023", "source:name": "extrapolated from OSMaPaaralan, way/0"}}, {"type": "node", "id": 3261338632, "lat": 15.953929, "lon": 120.5988461, "tags": {"admin_level": "10", "admin_type:PH": "barangay", "is_in:city": "Urdaneta", "name": "Consolacion", "place": "village", "population": "1750", "population:2015": "1585", "ref": "015546017", "source:population": "Philippine Statistics Authority"}}, {"type": "node", "id": 3261341771, "lat": 15.9289651, "lon": 120.5613604, "tags": {"admin_level": "10", "admin_type:PH": "barangay", "is_in:town": "Villasis", "name": "Tombod", "place": "village", "population": "2365", "population:2015": "2322", "ref": "015547020", "source:name": "extrapolated from OSMaPaaralan, way/835654332", "source:population": "Philippine Statistics Authority"}}, {"type": "node", "id": 3268377232, "lat": 15.5280094, "lon": 120.5480001}, {"type": "node", "id": 3268377233, "lat": 15.5281798, "lon": 120.5411829}, {"type": "node", "id": 3268377234, "lat": 15.5285416, "lon": 120.5417367}, {"type": "node", "id": 3268377235, "lat": 15.5293433, "lon": 120.5440297}, {"type": "node", "id": 3268377236, "lat": 15.5293465, "lon": 120.5421309}, {"type": "node", "id": 3268377237, "lat": 15.5295092, "lon": 120.5393244}, {"type": "node", "id": 3268377238, "lat": 15.5296463, "lon": 120.5433117}, {"type": "node", "id": 3268377239, "lat": 15.5296463, "lon": 120.5448651}, {"type": "node", "id": 3268377240, "lat": 15.5300178, "lon": 120.5499819}, {"type": "node", "id": 3268377241, "lat": 15.5300533, "lon": 120.5430348}, {"type": "node", "id": 3268377242, "lat": 15.5301075, "lon": 120.5430864}, {"type": "node", "id": 3268377243, "lat": 15.5301075, "lon": 120.5453532}, {"type": "node", "id": 3268377244, "lat": 15.5319781, "lon": 120.5432385}, {"type": "node", "id": 3268377245, "lat": 15.5319505, "lon": 120.547986}, {"type": "node", "id": 3268377246, "lat": 15.5320324, "lon": 120.5424595}, {"type": "node", "id": 3268377247, "lat": 15.5322262, "lon": 120.5433525}, {"type": "node", "id": 3268377248, "lat": 15.5327005, "lon": 120.5475904}, {"type": "node", "id": 3268377249, "lat": 15.5334472, "lon": 120.5472056}, {"type": "node", "id": 3268377250, "lat": 15.5340201, "lon": 120.5469086}, {"type": "node", "id": 3268377251, "lat": 15.53458, "lon": 120.5422047}, {"type": "node", "id": 3268377252, "lat": 15.5346835, "lon": 120.5474128}, {"type": "node", "id": 3268377253, "lat": 15.5354852, "lon": 120.5474604}, {"type": "node", "id": 3268377254, "lat": 15.5371808, "lon": 120.5475361}, {"type": "node", "id": 3268377255, "lat": 15.5372323, "lon": 120.5473591}, {"type": "node", "id": 3536205920, "lat": 15.5884867, "lon": 120.5611964, "tags": {"is_in:town": "Gerona", "name": "Ayson", "place": "village"}}, {"type": "node", "id": 3536205921, "lat": 15.5742062, "lon": 120.588549, "tags": {"is_in:town": "Gerona", "name": "Cardona", "place": "village"}}, {"type": "node", "id": 3536205922, "lat": 15.5968055, "lon": 120.5716315, "tags": {"name": "Danzo", "place": "village"}}, {"type": "node", "id": 3536205924, "lat": 15.5471612, "lon": 120.5451168, "tags": {"name": "Laoang", "place": "village"}}, {"type": "node", "id": 3536205925, "lat": 15.5803189, "lon": 120.5739033, "tags": {"is_in:town": "Gerona", "name": "Malayep", "place": "village"}}, {"type": "node", "id": 3536205926, "lat": 15.5543028, "lon": 120.5212017, "tags": {"admin_level": "10", "admin_type:PH": "barangay", "is_in:city": "Santa Ignacia", "name": "Padapada", "place": "village"}}, {"type": "node", "id": 3536205927, "lat": 15.602586, "lon": 120.5915275, "tags": {"name": "Pinasling", "place": "village"}}, {"type": "node", "id": 3536205928, "lat": 15.5845203, "lon": 120.541678, "tags": {"admin_level": "10", "admin_type:PH": "barangay", "is_in:town": "Gerona", "name": "San Bartolome", "place": "village"}}, {"type": "node", "id": 3536205930, "lat": 15.557816, "lon": 120.5731703, "tags": {"admin_level": "10", "admin_type:PH": "barangay", "is_in:city": "Gerona", "name": "San Jose", "place": "village"}}, {"type": "node", "id": 3536205931, "lat": 15.5327186, "lon": 120.5303851, "tags": {"is_in:city": "Tarlac", "name": "San Juan de Mata", "place": "village"}}, {"type": "node", "id": 3536205933, "lat": 15.5729848, "lon": 120.5507574, "tags": {"admin_level": "10", "admin_type:PH": "barangay", "is_in:city": "Gerona", "name": "Santiago", "place": "village"}}, {"type": "node", "id": 3536205934, "lat": 15.5654424, "lon": 120.5900559, "tags": {"is_in:town": "Gerona", "name": "Villa Paz", "place": "neighbourhood", "place:PH": "village"}}, {"type": "node", "id": 3537303101, "lat": 15.8775936, "lon": 120.6301396, "tags": {"admin_level": "10", "admin_type:PH": "barangay", "is_in:town": "Rosales", "name": "Cabalaoangan Norte", "place": "village"}}, {"type": "node", "id": 3537303103, "lat": 15.8709662, "lon": 120.6125146, "tags": {"name": "San Bartolome", "place": "village"}}, {"type": "node", "id": 3537841077, "lat": 15.8367972, "lon": 120.4151761, "tags": {"admin_level": "10", "designation": "barangay", "name": "Alinggan", "place": "village"}}, {"type": "node", "id": 3537841078, "lat": 15.849767, "lon": 120.4759121, "tags": {"admin_level": "10", "admin_type:PH": "barangay", "name": "Atainan", "place": "village"}}, {"type": "node", "id": 3537841079, "lat": 15.8346585, "lon": 120.4685505, "tags": {"name": "Bacnono", "place": "village"}}, {"type": "node", "id": 3537841080, "lat": 15.8061197, "lon": 120.462909, "tags": {"admin_level": "10", "admin_type:PH": "barangay", "name": "Baluyot", "place": "village"}}, {"type": "node", "id": 3537841081, "lat": 15.8432257, "lon": 120.424945, "tags": {"admin_level": "10", "designation": "barangay", "is_in:town": "Basista", "name": "Banaban", "place": "village"}}, {"type": "node", "id": 3537841082, "lat": 15.823401, "lon": 120.4393079, "tags": {"admin_level": "10", "designation": "barangay", "name": "Bani", "place": "village"}}, {"type": "node", "id": 3537841083, "lat": 15.833046, "lon": 120.4735586, "tags": {"name": "Bongato East", "place": "village"}}, {"type": "node", "id": 3537841084, "lat": 15.8281098, "lon": 120.4686936, "tags": {"name": "Bongato West", "place": "village"}}, {"type": "node", "id": 3537841085, "lat": 15.8423741, "lon": 120.4766576, "tags": {"admin_level": "10", "admin_type:PH": "barangay", "name": "Caranglaan", "place": "village"}}, {"type": "node", "id": 3537841086, "lat": 15.840738, "lon": 120.4296029, "tags": {"admin_level": "10", "designation": "barangay", "is_in:town": "Basista", "name": "Duera", "place": "village"}}, {"type": "node", "id": 3537841087, "lat": 15.8252417, "lon": 120.4866002, "tags": {"admin_level": "10", "admin_type:PH": "barangay", "is_in:town": "Bautista", "name": "Anulid", "place": "village"}}, {"type": "node", "id": 3537841089, "lat": 15.8419682, "lon": 120.4672363, "tags": {"admin_level": "10", "admin_type:PH": "barangay", "is_in:town": "Bayambang", "name": "Mangayao", "place": "village"}}, {"type": "node", "id": 3537841090, "lat": 15.8427585, "lon": 120.4164884, "tags": {"name": "Nalneran", "place": "neighbourhood"}}, {"type": "node", "id": 3537841092, "lat": 15.8153001, "lon": 120.4784539, "tags": {"admin_level": "10", "admin_type:PH": "barangay", "name": "Nandacan", "place": "village"}}, {"type": "node", "id": 3537844996, "lat": 15.8358242, "lon": 120.4394449, "tags": {"name": "Sapang", "place": "village"}}, {"type": "node", "id": 3537844997, "lat": 15.8226337, "lon": 120.4618085, "tags": {"name": "Sinabaan", "place": "village"}}, {"type": "node", "id": 3537844998, "lat": 15.8242831, "lon": 120.4569895, "tags": {"name": "Tambac", "place": "village"}}, {"type": "node", "id": 3537844999, "lat": 15.8277479, "lon": 120.4106445, "tags": {"name": "Tococ East", "place": "village"}}, {"type": "node", "id": 3537884122, "lat": 15.8158926, "lon": 120.5543891, "tags": {"admin_level": "10", "admin_type:PH": "barangay", "name": "Bersamin", "place": "village"}}, {"type": "node", "id": 3537884123, "lat": 15.8334807, "lon": 120.5064611, "tags": {"name": "Laoac", "place": "village"}}, {"type": "node", "id": 3537884124, "lat": 15.8197617, "lon": 120.4954998, "tags": {"admin_level": "10", "admin_type:PH": "barangay", "name": "Pogo", "place": "village"}}, {"type": "node", "id": 3537884125, "lat": 15.809313, "lon": 120.5726962, "tags": {"admin_level": "10", "admin_type:PH": "barangay", "name": "Santa Monica", "place": "village"}}, {"type": "node", "id": 3537884126, "lat": 15.7946836, "lon": 120.4841756, "tags": {"name": "Vacante", "place": "village"}}, {"type": "node", "id": 3537961583, "lat": 15.7884543, "lon": 120.574007, "tags": {"admin_level": "10", "admin_type:PH": "barangay", "name": "San Roque", "place": "village"}}, {"type": "node", "id": 3537961585, "lat": 15.7935425, "lon": 120.5497077, "tags": {"name": "Primicias", "place": "village"}}, {"type": "node", "id": 3537961586, "lat": 15.7678461, "lon": 120.5491037, "tags": {"name": "Pantol", "place": "village"}}, {"type": "node", "id": 3538153336, "lat": 15.8815369, "lon": 120.5631049, "tags": {"admin_level": "10", "admin_type:PH": "barangay", "is_in:town": "Villasis", "name": "Barangobong", "place": "village"}}, {"type": "node", "id": 3538153337, "lat": 15.8437299, "lon": 120.5244978, "tags": {"admin_level": "10", "admin_type:PH": "barangay", "name": "Canarvacanan", "place": "village"}}, {"type": "node", "id": 3538153338, "lat": 15.8671422, "lon": 120.5339507, "tags": {"admin_level": "10", "admin_type:PH": "barangay", "name": "Amamperez", "place": "village"}}, {"type": "node", "id": 3538153339, "lat": 15.7981541, "lon": 120.594499, "tags": {"name": "Lanat", "place": "village"}}, {"type": "node", "id": 3538153340, "lat": 15.8194648, "lon": 120.6061882, "tags": {"admin_level": "10", "admin_type:PH": "barangay", "name": "Legaspi", "place": "village"}}, {"type": "node", "id": 3538153341, "lat": 15.8599678, "lon": 120.5493677, "tags": {"name": "Pigdangan Centro", "place": "village"}}, {"type": "node", "id": 3538153342, "lat": 15.824266, "lon": 120.5999536, "tags": {"admin_level": "10", "admin_type:PH": "barangay", "name": "San Felipe", "place": "village"}}, {"type": "node", "id": 3538153343, "lat": 15.8342422, "lon": 120.5675091, "tags": {"admin_level": "10", "admin_type:PH": "barangay", "is_in:town": "Alcala", "name": "San Pedro Apartado", "place": "village"}}, {"type": "node", "id": 3538153344, "lat": 15.8003741, "lon": 120.6235733, "tags": {"admin_level": "10", "name": "Ungab", "place": "village", "ref": "034906051"}}, {"type": "node", "id": 4323198590, "lat": 15.5635135, "lon": 120.8675594, "tags": {"admin_level": "10", "admin_type:PH": "barangay", "is_in:town": "Quezon", "name": "San Alejandro", "place": "village"}}, {"type": "node", "id": 4401153794, "lat": 15.6867199, "lon": 120.8562834, "tags": {"admin_level": "10", "admin_type:PH": "barangay", "gns_classification": "ADM3", "is_in:city": "Mu\u00f1oz", "name": "San Antonio", "name:en": "San Antonio", "old_ref": "034917033", "place": "village", "population": "2305", "ref": "0304917033", "source:population": "Philippine Statistics Authority"}}, {"type": "node", "id": 4427071923, "lat": 15.6533818, "lon": 120.8172528, "tags": {"admin_level": "10", "admin_type:PH": "barangay", "is_in:town": "Guimba", "name": "Triala", "place": "village"}}, {"type": "node", "id": 4427087647, "lat": 15.6348763, "lon": 120.815176, "tags": {"name": "Caballero", "place": "village"}}, {"type": "node", "id": 4427101248, "lat": 15.6180509, "lon": 120.8077524, "tags": {"admin_level": "10", "admin_type:PH": "barangay", "name": "Santa Cruz", "place": "village"}}, {"type": "node", "id": 4427101249, "lat": 15.6141187, "lon": 120.8005576, "tags": {"admin_level": "10", "admin_type:PH": "barangay", "name": "San Bernardino", "place": "village"}}, {"type": "node", "id": 4427101250, "lat": 15.6115945, "lon": 120.7899129, "tags": {"addr:city": "Guimba", "name": "Tampac II & III", "place": "village"}}, {"type": "node", "id": 4427101256, "lat": 15.6046635, "lon": 120.7826036, "tags": {"addr:city": "Guimba", "name": "Cardinal", "place": "village"}}, {"type": "node", "id": 4716886077, "lat": 15.9643434, "lon": 120.570665}, {"type": "node", "id": 4739287921, "lat": 15.6587778, "lon": 120.5830218, "tags": {"admin_level": "10", "admin_type:PH": "barangay", "name": "Samput", "place": "village"}}, {"type": "node", "id": 4871256621, "lat": 15.7565525, "lon": 120.8438099, "tags": {"admin_level": "10", "designation": "barangay", "name": "Saverona", "place": "village"}}, {"type": "node", "id": 4915826522, "lat": 15.6090922, "lon": 120.5333186, "tags": {"admin_level": "12", "name": "Pag-asa", "place": "neighbourhood"}}, {"type": "node", "id": 4972839526, "lat": 15.7741717, "lon": 120.5709851, "tags": {"admin_level": "10", "admin_type:PH": "barangay", "name": "Calamay", "place": "village"}}, {"type": "node", "id": 4972843643, "lat": 15.6457671, "lon": 120.548399, "tags": {"admin_level": "10", "is_in:town": "Paniqui", "name": "Nipaco", "place": "village", "place:PH": "barangay"}}, {"type": "node", "id": 4972843826, "lat": 15.6772801, "lon": 120.4804609, "tags": {"admin_level": "10", "admin_type:PH": "barangay", "is_in:town": "Paniqui", "name": "Burgos", "place": "village"}}, {"type": "node", "id": 5040198825, "lat": 15.6186628, "lon": 120.5965222, "tags": {"name": "Magaspac", "place": "village"}}, {"type": "node", "id": 5236953040, "lat": 15.8959043, "lon": 120.6333101, "tags": {"admin_level": "10", "admin_type:PH": "barangay", "name": "Carmay East", "place": "village"}}, {"type": "node", "id": 5238675265, "lat": 15.9426525, "lon": 120.6587297, "tags": {"admin_level": "10", "admin_type:PH": "barangay", "is_in:town": "Santa Maria", "name": "Cal-Litang", "place": "village", "ref": "015539004"}}, {"type": "node", "id": 5238675266, "lat": 15.9351535, "lon": 120.6533485, "tags": {"admin_level": "10", "admin_type:PH": "barangay", "is_in:town": "Santa Maria", "name": "Samon", "place": "village", "ref": "015539017"}}, {"type": "node", "id": 5238675267, "lat": 15.9477836, "lon": 120.6629296, "tags": {"admin_level": "10", "admin_type:PH": "barangay", "is_in:town": "Santa Maria", "name": "Pilar", "place": "village", "ref": "015539013"}}, {"type": "node", "id": 5238675269, "lat": 15.9661246, "lon": 120.6808152, "tags": {"admin_level": "10", "admin_type:PH": "barangay", "is_in:town": "Santa Maria", "name": "Paitan", "place": "village", "ref": "015539011"}}, {"type": "node", "id": 5238675270, "lat": 15.9518044, "lon": 120.6856667, "tags": {"admin_level": "10", "admin_type:PH": "barangay", "is_in:town": "Santa Maria", "name": "Namagbagan", "place": "village", "ref": "015539010"}}, {"type": "node", "id": 5238675271, "lat": 15.9635769, "lon": 120.6983454, "tags": {"name": "Bantog", "place": "village", "ref": "015539002"}}, {"type": "node", "id": 5238675272, "lat": 15.9555057, "lon": 120.6949152, "tags": {"name": "Capandanan", "place": "village", "ref": "015539005"}}, {"type": "node", "id": 5238675287, "lat": 15.9126604, "lon": 120.6334226, "tags": {"name": "Rizal", "place": "village"}}, {"type": "node", "id": 5238675288, "lat": 15.9081923, "lon": 120.6393106, "tags": {"name": "Carmay West", "place": "village"}}, {"type": "node", "id": 5238675289, "lat": 15.907666, "lon": 120.652181, "tags": {"name": "Capitan Tomas", "name:tl": "Kapitan Tomas", "place": "village", "population": "1608", "population:2015": "1411", "ref": "015531007", "source:name": "extrapolated from OSMaPaaralan, way/835544119", "source:population": "Philippine Statistics Authority"}}, {"type": "node", "id": 5238675290, "lat": 15.9231737, "lon": 120.6509444, "tags": {"name": "Casanicolasan", "place": "village"}}, {"type": "node", "id": 5238675291, "lat": 15.9271183, "lon": 120.6565257, "tags": {"name": "San Marcelino", "place": "village"}}, {"type": "node", "id": 5238675292, "lat": 15.9193762, "lon": 120.6633429, "tags": {"name": "San Miguel", "place": "village"}}, {"type": "node", "id": 5238675294, "lat": 15.9518349, "lon": 120.7013322, "tags": {"admin_level": "10", "admin_type:PH": "barangay", "is_in:town": "Santa Maria", "name": "Dalayap", "place": "village", "ref": "015539008"}}, {"type": "node", "id": 5238675295, "lat": 15.9655499, "lon": 120.7094352, "tags": {"admin_level": "10", "admin_type:PH": "barangay", "is_in:town": "Santa Maria", "name": "Bal-loy", "place": "village"}}, {"type": "node", "id": 5238675299, "lat": 15.9418324, "lon": 120.7047023, "tags": {"admin_level": "10", "admin_type:PH": "barangay", "is_in:town": "Santa Maria", "name": "San Pablo", "place": "village", "ref": "015539021"}}, {"type": "node", "id": 5238675301, "lat": 15.9545307, "lon": 120.7271712, "tags": {"admin_level": "10", "admin_type:PH": "barangay", "is_in:town": "Santa Maria", "name": "Libsong", "place": "village", "ref": "015539009"}}, {"type": "node", "id": 5238675302, "lat": 15.9592008, "lon": 120.7225958, "tags": {"admin_level": "10", "admin_type:PH": "barangay", "is_in:town": "Santa Maria", "name": "Caboluan", "place": "village", "ref": "015539003"}}, {"type": "node", "id": 5238675303, "lat": 15.9604737, "lon": 120.7374152, "tags": {"admin_level": "10", "admin_type:PH": "barangay", "alt_name": "Patacuid", "is_in:town": "Santa Maria", "name": "Pataquid", "place": "village", "ref": "015539012"}}, {"type": "node", "id": 5238675304, "lat": 15.9644546, "lon": 120.758653, "tags": {"admin_level": "10", "admin_type:PH": "barangay", "is_in:town": "San Quintin", "name": "Lumayao", "place": "village", "source:name": "extrapolated from OSMaPaaralan, way/833231733"}}, {"type": "node", "id": 5335007834, "lat": 15.8104339, "lon": 120.4761471, "tags": {"admin_level": "6", "admin_type:PH": "municipality", "name": "Bautista", "official_name": "Municipality of Bautista", "place": "town", "population": "32307", "population:date": "2015-08-01", "wikidata": "Q41757", "wikimedia_commons": "Category:Bautista, Pangasinan", "wikipedia": "en:Bautista, Pangasinan"}}, {"type": "node", "id": 5873436241, "lat": 15.8488057, "lon": 120.5329831}, {"type": "node", "id": 5873436242, "lat": 15.8493321, "lon": 120.5328275}, {"type": "node", "id": 5873436243, "lat": 15.8493876, "lon": 120.5327712}, {"type": "node", "id": 5873436244, "lat": 15.8496572, "lon": 120.532688}, {"type": "node", "id": 5873436245, "lat": 15.8518736, "lon": 120.5305476}, {"type": "node", "id": 5873436246, "lat": 15.8508338, "lon": 120.5306817}, {"type": "node", "id": 5873436247, "lat": 15.8509499, "lon": 120.5312825}, {"type": "node", "id": 5873436248, "lat": 15.8511821, "lon": 120.5319906}, {"type": "node", "id": 5873436249, "lat": 15.8503642, "lon": 120.5322481}, {"type": "node", "id": 5873436250, "lat": 15.8496078, "lon": 120.5325302}, {"type": "node", "id": 5873436252, "lat": 15.8524546, "lon": 120.5322614}, {"type": "node", "id": 5878809948, "lat": 15.8488242, "lon": 120.5331194}, {"type": "node", "id": 5878809962, "lat": 15.8519076, "lon": 120.5324838}, {"type": "node", "id": 5878809963, "lat": 15.8516754, "lon": 120.5326071}, {"type": "node", "id": 5878809964, "lat": 15.8512974, "lon": 120.532701}, {"type": "node", "id": 5878809965, "lat": 15.8509801, "lon": 120.5328164}, {"type": "node", "id": 5878809966, "lat": 15.8499415, "lon": 120.5331543}, {"type": "node", "id": 6329779152, "lat": 15.6706329, "lon": 120.8489817, "tags": {"admin_level": "10", "admin_type:PH": "barangay", "name": "Curva", "place": "village"}}, {"type": "node", "id": 6361074421, "lat": 15.5295482, "lon": 120.7063848, "tags": {"admin_level": "10", "admin_type:PH": "barangay", "name": "Palacpalac", "place": "village"}}, {"type": "node", "id": 6432912130, "lat": 15.75218, "lon": 120.6100399}, {"type": "node", "id": 6432912131, "lat": 15.7511049, "lon": 120.6102709}, {"type": "node", "id": 6432912132, "lat": 15.7482278, "lon": 120.6112832}, {"type": "node", "id": 6432912133, "lat": 15.7539645, "lon": 120.6138945}, {"type": "node", "id": 6432912135, "lat": 15.753505, "lon": 120.6086497}, {"type": "node", "id": 6432912136, "lat": 15.7440357, "lon": 120.6143916}, {"type": "node", "id": 6432912137, "lat": 15.7448735, "lon": 120.6155158}, {"type": "node", "id": 6432912138, "lat": 15.7497311, "lon": 120.6141729}, {"type": "node", "id": 6432912139, "lat": 15.7521419, "lon": 120.6141365}, {"type": "node", "id": 6432912140, "lat": 15.7543117, "lon": 120.6089361}, {"type": "node", "id": 6432912141, "lat": 15.7548451, "lon": 120.6095025}, {"type": "node", "id": 6432912142, "lat": 15.7548516, "lon": 120.6110227}, {"type": "node", "id": 6432912143, "lat": 15.7543063, "lon": 120.6115595}, {"type": "node", "id": 6432912144, "lat": 15.7540138, "lon": 120.6132852}, {"type": "node", "id": 6432919428, "lat": 15.7497729, "lon": 120.6044533}, {"type": "node", "id": 6432919429, "lat": 15.7470018, "lon": 120.6045798}, {"type": "node", "id": 6432919430, "lat": 15.7450429, "lon": 120.604781}, {"type": "node", "id": 6432919431, "lat": 15.7443038, "lon": 120.605037}, {"type": "node", "id": 6432919432, "lat": 15.7432363, "lon": 120.6056427}, {"type": "node", "id": 6432919433, "lat": 15.7427847, "lon": 120.605984}, {"type": "node", "id": 6432919434, "lat": 15.7411293, "lon": 120.6065369}, {"type": "node", "id": 6432919435, "lat": 15.7407482, "lon": 120.6046189}, {"type": "node", "id": 6432919436, "lat": 15.7446816, "lon": 120.6034928}, {"type": "node", "id": 6432919437, "lat": 15.7431298, "lon": 120.6058264}, {"type": "node", "id": 6432919438, "lat": 15.7469263, "lon": 120.6039316}, {"type": "node", "id": 6432919439, "lat": 15.7495983, "lon": 120.6049988}, {"type": "node", "id": 6432927244, "lat": 15.7522297, "lon": 120.6014205}, {"type": "node", "id": 6432927245, "lat": 15.7521224, "lon": 120.6022132}, {"type": "node", "id": 6432927246, "lat": 15.7514085, "lon": 120.6057785}, {"type": "node", "id": 6432927247, "lat": 15.7534702, "lon": 120.608558}, {"type": "node", "id": 6432927248, "lat": 15.7609713, "lon": 120.6024184}, {"type": "node", "id": 6432927249, "lat": 15.7607953, "lon": 120.5990204}, {"type": "node", "id": 6432927250, "lat": 15.7583092, "lon": 120.599897}, {"type": "node", "id": 6432927251, "lat": 15.7551622, "lon": 120.6019779}, {"type": "node", "id": 6432927252, "lat": 15.754745, "lon": 120.6001447}, {"type": "node", "id": 6432927253, "lat": 15.7528257, "lon": 120.5999094}, {"type": "node", "id": 6432927254, "lat": 15.7707146, "lon": 120.6024918}, {"type": "node", "id": 6432927255, "lat": 15.7667586, "lon": 120.598211}, {"type": "node", "id": 6457972056, "lat": 15.7361872, "lon": 120.6043733}, {"type": "node", "id": 6457972057, "lat": 15.7337324, "lon": 120.6075317}, {"type": "node", "id": 6457972058, "lat": 15.7335337, "lon": 120.6056421}, {"type": "node", "id": 6457972059, "lat": 15.7309494, "lon": 120.605995}, {"type": "node", "id": 6457972060, "lat": 15.7310066, "lon": 120.6072462}, {"type": "node", "id": 6457986048, "lat": 15.750375, "lon": 120.6046145}, {"type": "node", "id": 6457986049, "lat": 15.7505916, "lon": 120.60541}, {"type": "node", "id": 6457998768, "lat": 15.743212, "lon": 120.612273}, {"type": "node", "id": 6458065869, "lat": 15.7219062, "lon": 120.6060767}, {"type": "node", "id": 6458065870, "lat": 15.7224469, "lon": 120.607333}, {"type": "node", "id": 6458065871, "lat": 15.7195445, "lon": 120.6106364}, {"type": "node", "id": 6458065872, "lat": 15.7196512, "lon": 120.6042015}, {"type": "node", "id": 6458065873, "lat": 15.7200496, "lon": 120.6087297}, {"type": "node", "id": 6458065874, "lat": 15.7209246, "lon": 120.6109985}, {"type": "node", "id": 6458065875, "lat": 15.7223117, "lon": 120.6086595}, {"type": "node", "id": 6458065876, "lat": 15.7217213, "lon": 120.6039594}, {"type": "node", "id": 6458071343, "lat": 15.72134, "lon": 120.5972145}, {"type": "node", "id": 6458071344, "lat": 15.7191813, "lon": 120.5975492}, {"type": "node", "id": 6458071345, "lat": 15.7197371, "lon": 120.6039422}, {"type": "node", "id": 6458071346, "lat": 15.7222502, "lon": 120.6037832}, {"type": "node", "id": 6458071347, "lat": 15.7237323, "lon": 120.6024695}, {"type": "node", "id": 6458071348, "lat": 15.7234101, "lon": 120.5997499}, {"type": "node", "id": 6458071349, "lat": 15.7228463, "lon": 120.5984027}, {"type": "node", "id": 6635099286, "lat": 15.8838195, "lon": 120.5677611, "tags": {"admin_level": "11", "is_in:village": "Barangobong", "name": "Zone 4", "place": "hamlet"}}, {"type": "node", "id": 6770704051, "lat": 15.5432341, "lon": 120.6418025, "tags": {"admin_level": "10", "admin_type:PH": "barangay", "is_in:city": "Victoria", "name": "Baculong", "place": "village"}}, {"type": "node", "id": 6775124014, "lat": 15.5232734, "lon": 120.6777871, "tags": {"is_in:city": "Victoria", "is_in:province": "Tarlac", "name": "Lalapac", "place": "village"}}, {"type": "node", "id": 6775459856, "lat": 15.6092322, "lon": 120.6406545, "tags": {"is_in:city": "Pura", "is_in:province": "Tarlac", "name": "Naya", "place": "village"}}, {"type": "node", "id": 6775459857, "lat": 15.6247004, "lon": 120.6504714, "tags": {"is_in:city": "Pura", "is_in:province": "Tarlac", "name": "Poblacion 3", "place": "village"}}, {"type": "node", "id": 6775459858, "lat": 15.625186, "lon": 120.6470597, "tags": {"is_in:city": "Pura", "is_in:province": "Tarlac", "name": "Poblacion 2", "place": "village"}}, {"type": "node", "id": 6775459859, "lat": 15.621425, "lon": 120.6430578, "tags": {"is_in:city": "Pura", "is_in:province": "Tarlac", "name": "Poblacion 1", "place": "village"}}, {"type": "node", "id": 6775459860, "lat": 15.6170233, "lon": 120.6332517, "tags": {"is_in:city": "Pura", "is_in:province": "Tarlac", "name": "Singat", "note": "there are 2 similar-name barangays in 2 towns", "place": "village"}}, {"type": "node", "id": 6775459861, "lat": 15.6145163, "lon": 120.6243798, "tags": {"admin_level": "10", "admin_type:PH": "barangay", "is_in:city": "Gerona", "is_in:province": "Tarlac", "name": "Singat", "note": "there are 2 similar-name barangays in 2 towns", "place": "village", "population": "1528", "population:2015": "1695", "ref": "036906043"}}, {"type": "node", "id": 6779296893, "lat": 15.6685927, "lon": 120.6162465, "tags": {"admin_level": "10", "admin_type:PH": "barangay", "is_in:city": "Ramos", "is_in:province": "Tarlac", "name": "Guiteb", "place": "village"}}, {"type": "node", "id": 6779434125, "lat": 15.7247113, "lon": 120.6207076, "tags": {"admin_level": "10", "admin_type:PH": "barangay", "is_in:city": "Anao", "is_in:province": "Tarlac", "name": "San Jose South", "place": "village", "population": "462", "population:2015": "405", "ref": "036901019", "source:population": "Philippine Statistics Authority"}}, {"type": "node", "id": 6779434126, "lat": 15.7243835, "lon": 120.6205701, "tags": {"admin_level": "10", "admin_type:PH": "barangay", "name": "San Jose North", "place": "village", "population": "409", "population:2015": "411", "ref": "036901018"}}, {"type": "node", "id": 6779434127, "lat": 15.7227568, "lon": 120.6104743, "tags": {"admin_level": "10", "admin_type:PH": "barangay", "name": "Campos", "place": "village", "population": "387", "population:2015": "343", "ref": "036901006"}}, {"type": "node", "id": 6779434128, "lat": 15.7204165, "lon": 120.6076778, "tags": {"admin_level": "10", "admin_type:PH": "barangay", "is_in:city": "Anao", "is_in:province": "Tarlac", "name": "San Francisco East", "place": "village", "ref": "036901016"}}, {"type": "node", "id": 6848751921, "lat": 15.9098702, "lon": 120.6711352, "tags": {"name": "Capulaan", "place": "village"}}, {"type": "node", "id": 6968135093, "lat": 15.6454932, "lon": 120.5898482, "tags": {"name": "Cari\u00f1o", "place": "village"}}, {"type": "node", "id": 6968135094, "lat": 15.6219571, "lon": 120.5551726, "tags": {"name": "Dicolor", "place": "village"}}, {"type": "node", "id": 6968135095, "lat": 15.5987309, "lon": 120.5629295, "tags": {"name": "Tagumbao", "place": "village"}}, {"type": "node", "id": 6968135100, "lat": 15.6265033, "lon": 120.5824506, "tags": {"admin_level": "10", "admin_type:PH": "barangay", "name": "Buenlag", "place": "village"}}, {"type": "node", "id": 6968135131, "lat": 15.6271723, "lon": 120.5943657, "tags": {"name": "Caturay", "place": "village", "population": "1354", "population:2015": "1199", "ref": "036906012", "source:population": "Philippine Statistics Authority"}}, {"type": "node", "id": 6968135202, "lat": 15.6160675, "lon": 120.5868494, "tags": {"name": "Apsayan", "place": "village"}}, {"type": "node", "id": 7368300464, "lat": 15.6595046, "lon": 120.7673165, "tags": {"name": "Poblacion", "place": "suburb"}}, {"type": "node", "id": 7368333592, "lat": 15.6514866, "lon": 120.7686496, "tags": {"admin_level": "10", "name": "San Roque", "place": "village"}}, {"type": "node", "id": 7368333593, "lat": 15.6447467, "lon": 120.7617952, "tags": {"name": "Bantug", "place": "village"}}, {"type": "node", "id": 7561210792, "lat": 15.7772782, "lon": 120.6065369, "tags": {"admin_level": "10", "admin_type:PH": "barangay", "name": "San Vicente", "place": "village"}}, {"type": "node", "id": 7561225750, "lat": 15.773249, "lon": 120.6075668, "tags": {"name": "Bayanihan", "place": "neighbourhood"}}, {"type": "node", "id": 7651316419, "lat": 15.6561445, "lon": 120.5806214, "tags": {"name": "Alexannr\u00e8 Heights Subdivision", "place": "neighbourhood"}}, {"type": "node", "id": 7811406518, "lat": 15.6785146, "lon": 120.7724422, "tags": {"name": "Centro", "place": "neighbourhood", "source:name": "extrapolated from OSMaPaaralan, way/836972764"}}, {"type": "node", "id": 7811506831, "lat": 15.7314059, "lon": 120.7669866, "tags": {"name": "San Marcelino", "place": "village", "source:name": "extrapolated from OSMaPaaralan"}}, {"type": "node", "id": 7811527207, "lat": 15.7448382, "lon": 120.7774821, "tags": {"admin_level": "10", "admin_type:PH": "barangay", "name": "Cinense", "place": "village", "source:name": "extrapolated from OSMaPaaralan, way/836980971"}}, {"type": "node", "id": 7811548826, "lat": 15.6974841, "lon": 120.7492787, "tags": {"is_in:town": "Guimba", "name": "Narvacan \u2161", "place": "village", "source:name": "extrapolated from OSMaPaaralan, way/810361130"}}, {"type": "node", "id": 7811548827, "lat": 15.706222, "lon": 120.7646692, "tags": {"admin_level": "10", "admin_type:PH": "barangay", "is_in:town": "Guimba", "name": "Camiling", "place": "village", "source:name": "extrapolated from OSMaPaaralan, way/691316975"}}, {"type": "node", "id": 7811687063, "lat": 15.7303783, "lon": 120.7443756, "tags": {"is_in:town": "Cuyapo", "name": "Rizal", "place": "village", "source:name": "extrapolated from OSMaPaaralan, way/836984792"}}, {"type": "node", "id": 7889724836, "lat": 15.7704263, "lon": 120.6229893, "tags": {"admin_level": "10", "admin_type:PH": "barangay", "is_in:province": "Tarlac", "is_in:town": "Anao", "name": "Bantog", "place": "village", "postal_code": "2310", "ref": "036901003"}}, {"type": "node", "id": 7889729015, "lat": 15.7524368, "lon": 120.6120194, "tags": {"admin_level": "10", "admin_type:PH": "barangay", "name": "Casili", "place": "village"}}, {"type": "node", "id": 7889747377, "lat": 15.7321497, "lon": 120.6267118, "tags": {"admin_level": "10", "admin_type:PH": "barangay", "name": "San Roque", "place": "village"}}, {"type": "node", "id": 7889748085, "lat": 15.7428927, "lon": 120.605515, "tags": {"name": "Baguindoc", "place": "village"}}, {"type": "node", "id": 7889748086, "lat": 15.7543053, "lon": 120.6028665, "tags": {"admin_level": "10", "admin_type:PH": "barangay", "name": "Sinense", "place": "village"}}, {"type": "node", "id": 7889755550, "lat": 15.7260553, "lon": 120.623611, "tags": {"admin_level": "10", "admin_type:PH": "barangay", "name": "Santo Domingo", "place": "village", "population": "450", "population:2015": "387", "ref": "036901022"}}, {"type": "node", "id": 7892469002, "lat": 15.72889, "lon": 120.6278228, "tags": {"admin_level": "10", "admin_type:PH": "barangay", "is_in:town": "Anao", "name": "Do\u00f1a Carmen", "nat_name": "Carmen", "old_ref": "036901008", "place": "village", "population": "798", "population:2015": "725", "ref": "0306901008", "short_name": "Carmen", "source:population": "Philippine Statistics Authority"}}, {"type": "node", "id": 7892493410, "lat": 15.7207592, "lon": 120.6012201, "tags": {"admin_level": "10", "admin_type:PH": "barangay", "is_in:city": "Anao", "is_in:province": "Tarlac", "name": "San Francisco West", "place": "village", "ref": "036901016"}}, {"type": "node", "id": 7892496510, "lat": 15.7648244, "lon": 120.6222298, "tags": {"admin_level": "10", "admin_type:PH": "barangay", "gns_classification": "ADM3", "is_in:town": "Anao", "name": "Suaverdez", "old_ref": "036901024", "place": "village", "population": "1078", "ref": "0306901024", "source:population": "Philippine Statistics Authority"}}, {"type": "node", "id": 8186028533, "lat": 15.7195624, "lon": 120.5913457, "tags": {"admin_level": "10", "admin_type:PH": "barangay", "is_in:city": "Moncada", "is_in:province": "Tarlac", "name": "Santa Maria", "place": "village"}}, {"type": "node", "id": 8186028534, "lat": 15.7162984, "lon": 120.577961, "tags": {"is_in:city": "Moncada", "is_in:province": "Tarlac", "name": "San Julian", "place": "village"}}, {"type": "node", "id": 8186043634, "lat": 15.7002219, "lon": 120.6078821, "tags": {"admin_level": "10", "admin_type:PH": "barangay", "is_in:city": "Paniqui", "is_in:province": "Tarlac", "name": "Santa Ines", "place": "village"}}, {"type": "node", "id": 8186043635, "lat": 15.6846297, "lon": 120.5959675, "tags": {"is_in:city": "Paniqui", "is_in:province": "Tarlac", "name": "Canan", "place": "village"}}, {"type": "node", "id": 8186057275, "lat": 15.7320372, "lon": 120.6245346, "tags": {"admin_level": "10", "admin_type:PH": "barangay", "is_in:city": "Anao", "is_in:province": "Tarlac", "name": "Rizal", "place": "village"}}, {"type": "node", "id": 8186057276, "lat": 15.7302247, "lon": 120.6244982, "tags": {"admin_level": "10", "admin_type:PH": "barangay", "is_in:city": "Anao", "is_in:province": "Tarlac", "name": "San Juan", "place": "village"}}, {"type": "node", "id": 8186057277, "lat": 15.7266063, "lon": 120.6229376, "tags": {"admin_level": "10", "admin_type:PH": "barangay", "is_in:city": "Anao", "is_in:province": "Tarlac", "name": "Hernando", "place": "village", "population": "458", "population:2015": "449", "ref": "036901011"}}, {"type": "node", "id": 8186222658, "lat": 15.7761145, "lon": 120.6186436, "tags": {"admin_level": "10", "admin_type:PH": "barangay", "name": "Matarannoc", "place": "village"}}, {"type": "node", "id": 8304835725, "lat": 15.9447467, "lon": 120.7449254, "tags": {"admin_level": "10", "admin_type:PH": "barangay", "is_in:town": "San Quintin", "name": "Labuan", "place": "village", "source:name": "extrapolated from OSMaPaaralan, way/833210124"}}, {"type": "node", "id": 8311272748, "lat": 15.6811228, "lon": 120.6008184, "tags": {"name": "Manaois", "place": "village", "postal_code": "2307"}}, {"type": "node", "id": 8311285810, "lat": 15.6723339, "lon": 120.5977372, "tags": {"name": "Abogado", "place": "village", "postal_code": "2307"}}, {"type": "node", "id": 8318763132, "lat": 15.7013522, "lon": 120.5804202, "tags": {"admin_level": "10", "admin_type:PH": "barangay", "name": "San Isidro", "place": "village", "postal_code": "2307"}}, {"type": "node", "id": 8318860120, "lat": 15.6750283, "lon": 120.5878901, "tags": {"name": "Matalapitap", "place": "village", "postal_code": "2307"}}, {"type": "node", "id": 8318860129, "lat": 15.675772, "lon": 120.5874798}, {"type": "node", "id": 8318860130, "lat": 15.6757101, "lon": 120.5873698}, {"type": "node", "id": 8318860131, "lat": 15.6746693, "lon": 120.5877346}, {"type": "node", "id": 8318860136, "lat": 15.6743013, "lon": 120.5869916}, {"type": "node", "id": 8318860137, "lat": 15.675661, "lon": 120.5875468}, {"type": "node", "id": 8318860138, "lat": 15.6767585, "lon": 120.5899689}, {"type": "node", "id": 8318860139, "lat": 15.6749069, "lon": 120.5909331}, {"type": "node", "id": 8318860140, "lat": 15.6741528, "lon": 120.5887082}, {"type": "node", "id": 8318860141, "lat": 15.673391, "lon": 120.5890006}, {"type": "node", "id": 8318860142, "lat": 15.6731483, "lon": 120.5880564}, {"type": "node", "id": 8318860143, "lat": 15.6730191, "lon": 120.5880859}, {"type": "node", "id": 8318860144, "lat": 15.6728848, "lon": 120.5872773}, {"type": "node", "id": 8321374163, "lat": 15.6736079, "lon": 120.5850041, "tags": {"name": "Estacion", "place": "village", "postal_code": "2307"}}, {"type": "node", "id": 8321395425, "lat": 15.6715832, "lon": 120.5680954, "tags": {"admin_level": "10", "admin_type:PH": "barangay", "name": "Tablang", "place": "village", "postal_code": "2307"}}, {"type": "node", "id": 8321437621, "lat": 15.6652328, "lon": 120.5662581, "tags": {"admin_level": "10", "admin_type:PH": "barangay", "name": "Salomague", "place": "village", "postal_code": "2307"}}, {"type": "node", "id": 8322878110, "lat": 15.5456903, "lon": 120.6617314, "tags": {"admin_level": "10", "admin_type:PH": "barangay", "is_in:town": "Victoria", "name": "San Jacinto", "place": "village", "source:name": "extrapolated from OSMaPaaralan, way/895382287"}}, {"type": "node", "id": 8322903165, "lat": 15.563167, "lon": 120.6548354, "tags": {"admin_level": "10", "designation": "barangay", "is_in:town": "Victoria", "name": "Maluid", "place": "village"}}, {"type": "node", "id": 8330212940, "lat": 15.6642232, "lon": 120.5515792, "tags": {"admin_level": "10", "admin_type:PH": "barangay", "name": "Cabayaoasan", "place": "village", "postal_code": "2307"}}, {"type": "node", "id": 8334251828, "lat": 15.6727196, "lon": 120.5015069, "tags": {"admin_level": "10", "admin_type:PH": "barangay", "is_in:town": "Paniqui", "name": "Barang", "place": "village", "postal_code": "2307", "source:name": "extrapolated from OSMaPaaralan, way/896568442"}}, {"type": "node", "id": 8338962573, "lat": 15.6634172, "lon": 120.5129009, "tags": {"admin_level": "10", "admin_type:PH": "barangay", "name": "Balaoang", "place": "village", "postal_code": "2307"}}, {"type": "node", "id": 8516958353, "lat": 15.737707, "lon": 120.606984}, {"type": "node", "id": 8525788582, "lat": 15.7206869, "lon": 120.6038849}, {"type": "node", "id": 8525788583, "lat": 15.7207707, "lon": 120.6038756}, {"type": "node", "id": 8525788584, "lat": 15.7207563, "lon": 120.6038801}, {"type": "node", "id": 8525796910, "lat": 15.7196904, "lon": 120.6041954}, {"type": "node", "id": 8557251322, "lat": 15.7211962, "lon": 120.603849}, {"type": "node", "id": 8557251336, "lat": 15.7213866, "lon": 120.6038371}, {"type": "node", "id": 8557251337, "lat": 15.7213288, "lon": 120.6038407}, {"type": "node", "id": 8557251347, "lat": 15.7213647, "lon": 120.6040008}, {"type": "node", "id": 8557251625, "lat": 15.7216831, "lon": 120.6039627}, {"type": "node", "id": 8559214955, "lat": 15.7198396, "lon": 120.6061902}, {"type": "node", "id": 8559214967, "lat": 15.71983, "lon": 120.6060024}, {"type": "node", "id": 8572403767, "lat": 15.7501643, "lon": 120.6045169}, {"type": "node", "id": 8575452045, "lat": 15.7484842, "lon": 120.6042171}, {"type": "node", "id": 8581104427, "lat": 15.7213691, "lon": 120.6040006}, {"type": "node", "id": 8581104442, "lat": 15.7211592, "lon": 120.6040247}, {"type": "node", "id": 8581104448, "lat": 15.7210582, "lon": 120.6040364}, {"type": "node", "id": 8581193226, "lat": 15.719683, "lon": 120.6041966}, {"type": "node", "id": 8581460334, "lat": 15.7212767, "lon": 120.6038424}, {"type": "node", "id": 8581460364, "lat": 15.7213972, "lon": 120.6039959}, {"type": "node", "id": 8682703091, "lat": 15.7021991, "lon": 120.864442, "tags": {"name": "Calabalabaan", "place": "village"}}, {"type": "node", "id": 8741061434, "lat": 15.7305986, "lon": 120.5667981, "tags": {"name": "Capaoayan", "place": "village"}}, {"type": "node", "id": 8808859374, "lat": 15.7634956, "lon": 120.5933112, "tags": {"name": "San Pedro", "place": "village"}}, {"type": "node", "id": 8899499469, "lat": 15.6622473, "lon": 120.5892709}, {"type": "node", "id": 8915377434, "lat": 15.6600092, "lon": 120.589735}, {"type": "node", "id": 8918089595, "lat": 15.6367498, "lon": 120.5585646}, {"type": "node", "id": 8918089596, "lat": 15.6366459, "lon": 120.5586034}, {"type": "node", "id": 8918089597, "lat": 15.6367506, "lon": 120.5587687}, {"type": "node", "id": 8918089598, "lat": 15.6368026, "lon": 120.5587351}, {"type": "node", "id": 8918089599, "lat": 15.6367801, "lon": 120.5586976}, {"type": "node", "id": 8918089600, "lat": 15.6368098, "lon": 120.5586785}, {"type": "node", "id": 8920759274, "lat": 15.6596969, "lon": 120.5897993}, {"type": "node", "id": 9025739882, "lat": 15.5228178, "lon": 120.6210874, "tags": {"admin_level": "10", "admin_type:PH": "barangay", "alt_name": "Balibago-1", "is_in:city": "Tarlac", "name": "Balibago \u2160", "place": "village"}}, {"type": "node", "id": 9061471735, "lat": 15.6662982, "lon": 120.8347222, "tags": {"admin_level": "10", "admin_type:PH": "barangay", "name": "Bunol", "place": "village"}}, {"type": "node", "id": 9061926538, "lat": 15.8060092, "lon": 120.6523056, "tags": {"admin_level": "10", "admin_type:PH": "barangay", "is_in:town": "Cuyapo", "name": "Maycaban", "place": "village"}}, {"type": "node", "id": 9061931025, "lat": 15.7889648, "lon": 120.6358901, "tags": {"admin_level": "10", "name": "Calancuasan Sur", "place": "village"}}, {"type": "node", "id": 9065146759, "lat": 15.8180008, "lon": 120.6463763, "tags": {"admin_level": "10", "admin_type:PH": "barangay", "name": "Luna", "place": "village"}}, {"type": "node", "id": 9065171745, "lat": 15.8100789, "lon": 120.6220169, "tags": {"admin_level": "10", "name": "Villaflores", "place": "village", "ref": "034906052"}}, {"type": "node", "id": 9065171765, "lat": 15.8099749, "lon": 120.618102, "tags": {"name": "Datue", "place": "neighbourhood"}}, {"type": "node", "id": 9078526281, "lat": 15.835417, "lon": 120.5859198, "tags": {"name": "San Narciso", "place": "village"}}, {"type": "node", "id": 9085204908, "lat": 15.6596146, "lon": 120.5723105, "tags": {"name": "Coral", "place": "village"}}, {"type": "node", "id": 9085207301, "lat": 15.622635, "lon": 120.5332596, "tags": {"admin_level": "10", "admin_type:PH": "barangay", "name": "Santa Lucia", "place": "village"}}, {"type": "node", "id": 9085216153, "lat": 15.6771031, "lon": 120.5427584, "tags": {"name": "Ventenilla", "place": "village"}}, {"type": "node", "id": 9085268340, "lat": 15.6311234, "lon": 120.640742, "tags": {"admin_level": "10", "admin_type:PH": "barangay", "is_in:town": "Pura", "name": "Linao", "place": "village"}}, {"type": "node", "id": 9085271177, "lat": 15.5985174, "lon": 120.5173046, "tags": {"admin_level": "10", "admin_type:PH": "barangay", "name": "San Agustin", "place": "village"}}, {"type": "node", "id": 9085281459, "lat": 15.6360221, "lon": 120.5585216, "tags": {"name": "Dapdap Elementary School", "place": "village"}}, {"type": "node", "id": 9085315355, "lat": 15.710583, "lon": 120.5345538, "tags": {"name": "Banaoang West", "place": "village"}}, {"type": "node", "id": 9085324769, "lat": 15.7164669, "lon": 120.540592, "tags": {"name": "Banaoang East", "place": "village"}}, {"type": "node", "id": 9085330027, "lat": 15.7171431, "lon": 120.5546959, "tags": {"admin_level": "10", "admin_type:PH": "barangay", "name": "Baquero Norte", "place": "village"}}, {"type": "node", "id": 9085333470, "lat": 15.6754666, "lon": 120.4881072, "tags": {"admin_level": "10", "admin_type:PH": "barangay", "name": "Mabilang", "place": "village"}}, {"type": "node", "id": 9085559847, "lat": 15.6514283, "lon": 120.4240962, "tags": {"admin_level": "10", "admin_type:PH": "barangay", "name": "Cabanabaan", "place": "village"}}, {"type": "node", "id": 9089962083, "lat": 15.7244785, "lon": 120.4599474, "tags": {"name": "Carael", "place": "village"}}, {"type": "node", "id": 9089967650, "lat": 15.727591, "lon": 120.4475115, "tags": {"admin_level": "10", "admin_type:PH": "barangay", "name": "Caniag", "place": "village"}}, {"type": "node", "id": 9089977144, "lat": 15.7173307, "lon": 120.4294813, "tags": {"name": "Sawat", "place": "village"}}, {"type": "node", "id": 9089986395, "lat": 15.5672324, "lon": 120.5154479, "tags": {"admin_level": "10", "admin_type:PH": "barangay", "name": "Calayaan", "place": "village"}}, {"type": "node", "id": 9090027443, "lat": 15.6336547, "lon": 120.4945857, "tags": {"name": "Nagmisaan", "place": "village"}}, {"type": "node", "id": 9090030371, "lat": 15.5894116, "lon": 120.6384183, "tags": {"admin_level": "10", "admin_type:PH": "barangay", "is_in:town": "Pura", "name": "Estipona", "place": "village", "population": "4505", "population:2015": "4201", "ref": "036911004"}}, {"type": "node", "id": 9090173658, "lat": 15.5356399, "lon": 120.7794125, "tags": {"name": "Bantug na Munti", "place": "hamlet"}}, {"type": "node", "id": 9090224441, "lat": 15.5583782, "lon": 120.6891566, "tags": {"name": "Cruz", "place": "village"}}, {"type": "node", "id": 9090229087, "lat": 15.5470638, "lon": 120.6953598, "tags": {"admin_level": "10", "admin_type:PH": "barangay", "name": "Balayang", "place": "village", "population": "3713", "population:2015": "3257", "ref": "036917002", "source:population": "Philippine Statistics Authority"}}, {"type": "node", "id": 9093167416, "lat": 15.5461426, "lon": 120.5818621, "tags": {"name": "Santa Maria", "place": "village"}}, {"type": "node", "id": 9093312036, "lat": 15.5494367, "lon": 120.606693, "tags": {"admin_level": "10", "admin_type:PH": "barangay", "is_in:city": "Tarlac City", "name": "Alvindia Segundo", "place": "village"}}, {"type": "node", "id": 9093517476, "lat": 15.5475049, "lon": 120.4571798, "tags": {"name": "Pansiguan", "place": "hamlet"}}, {"type": "node", "id": 9099603395, "lat": 15.6077237, "lon": 120.6006922, "tags": {"admin_level": "10", "name": "Poblacion 3", "place": "neighbourhood"}}, {"type": "node", "id": 9120742707, "lat": 15.8124964, "lon": 120.5812758, "tags": {"admin_level": "10", "admin_type:PH": "barangay", "name": "Mangandingay", "place": "village"}}, {"type": "node", "id": 9120768406, "lat": 15.8387599, "lon": 120.6049222, "tags": {"admin_level": "10", "admin_type:PH": "barangay", "is_in:town": "San Manuel", "name": "San Agustin", "old_ref": "036914009", "place": "village", "population": "2238", "ref": "0306914009", "source:population": "Philippine Statistics Authority"}}, {"type": "node", "id": 9200427246, "lat": 15.8323424, "lon": 120.4230362, "tags": {"admin_level": "10", "designation": "barangay", "name": "Amanperez", "place": "village"}}, {"type": "node", "id": 9200427298, "lat": 15.8287761, "lon": 120.4294521, "tags": {"admin_level": "10", "designation": "barangay", "name": "Ligue", "place": "village"}}, {"type": "node", "id": 9200427309, "lat": 15.8282704, "lon": 120.441184, "tags": {"admin_level": "10", "designation": "barangay", "name": "Asin", "place": "village"}}, {"type": "node", "id": 9286332452, "lat": 15.6310702, "lon": 120.4122189, "tags": {"admin_level": "10", "admin_type:PH": "barangay", "name": "Pinpinas", "place": "village"}}, {"type": "node", "id": 9286332455, "lat": 15.6221121, "lon": 120.4270086, "tags": {"admin_level": "11", "designation": "purok", "name": "Centro", "place": "hamlet"}}, {"type": "node", "id": 9286332456, "lat": 15.6218951, "lon": 120.4285508, "tags": {"admin_level": "10", "designation": "barangay", "name": "San Vicente", "place": "village"}}, {"type": "node", "id": 9286438176, "lat": 15.663221, "lon": 120.4113954, "tags": {"admin_level": "10", "designation": "barangay", "name": "Tuec", "place": "village"}}, {"type": "node", "id": 9309753476, "lat": 15.5568261, "lon": 120.6241161, "tags": {"admin_level": "10", "admin_type:PH": "barangay", "is_in:town": "Victoria", "name": "San Francisco", "place": "village", "population": "1828", "population:2015": "1603", "ref": "036917020", "source:name": "extrapolated from OSMaPaaralan, way/773702169"}}, {"type": "node", "id": 9310798253, "lat": 15.6767869, "lon": 120.6306861, "tags": {"name": "Serrano", "place": "hamlet"}}, {"type": "node", "id": 9310798265, "lat": 15.674056, "lon": 120.6379737, "tags": {"admin_level": "10", "admin_type:PH": "barangay", "name": "Coral", "place": "village"}}, {"type": "node", "id": 9310840473, "lat": 15.6888233, "lon": 120.6222063, "tags": {"admin_level": "10", "admin_type:PH": "barangay", "name": "Pance", "place": "village"}}, {"type": "node", "id": 9361135601, "lat": 15.8033901, "lon": 120.7738477, "tags": {"admin_level": "10", "admin_type:PH": "barangay", "name": "Baloy", "place": "village"}}, {"type": "node", "id": 9361709219, "lat": 15.8241622, "lon": 120.6579494, "tags": {"admin_level": "10", "admin_type:PH": "barangay", "name": "Bued", "place": "village"}}, {"type": "node", "id": 9361709220, "lat": 15.8230628, "lon": 120.6752121, "tags": {"admin_level": "10", "designation": "barangay", "is_in:town": "Cuyapo", "name": "Sabit", "place": "village"}}, {"type": "node", "id": 9362217576, "lat": 15.7832793, "lon": 120.7766345, "tags": {"admin_level": "10", "admin_type:PH": "barangay", "name": "Santo Domingo", "place": "village"}}, {"type": "node", "id": 9362288921, "lat": 15.7753785, "lon": 120.6376773, "tags": {"admin_level": "10", "designation": "barangay", "name": "Loob", "place": "village"}}, {"type": "node", "id": 9362358391, "lat": 15.7183831, "lon": 120.8098, "tags": {"admin_level": "10", "admin_type:PH": "barangay", "name": "Tandoc", "place": "village"}}, {"type": "node", "id": 9362401342, "lat": 15.7208747, "lon": 120.7775143, "tags": {"admin_level": "10", "designation": "barangay", "name": "Guiset", "place": "village"}}, {"type": "node", "id": 9362401362, "lat": 15.7137976, "lon": 120.7767176, "tags": {"admin_level": "10", "admin_type:PH": "barangay", "name": "San Andres", "place": "village"}}, {"type": "node", "id": 9362404150, "lat": 15.7362905, "lon": 120.7808483, "tags": {"admin_level": "10", "admin_type:PH": "barangay", "name": "Baybayabas", "place": "village"}}, {"type": "node", "id": 9362446351, "lat": 15.7398738, "lon": 120.8062005, "tags": {"admin_level": "10", "designation": "barangay", "name": "Mayamot I", "place": "village"}}, {"type": "node", "id": 9362470812, "lat": 15.7524615, "lon": 120.7838094, "tags": {"admin_level": "10", "admin_type:PH": "barangay", "name": "Nangabulan", "place": "village"}}, {"type": "node", "id": 9362481237, "lat": 15.7105753, "lon": 120.8265477, "tags": {"admin_level": "10", "designation": "barangay", "name": "Faigal", "place": "village"}}, {"type": "node", "id": 9363980023, "lat": 15.86458, "lon": 120.7836492, "tags": {"admin_level": "10", "admin_type:PH": "barangay", "is_in:town": "Umingan", "name": "Luna Weste", "old_ref": "015544035", "place": "village", "population": "854", "ref": "0105544035", "source:population": "Philippine Statistics Authority"}}, {"type": "node", "id": 9363980024, "lat": 15.8638112, "lon": 120.7718655, "tags": {"admin_level": "10", "admin_type:PH": "barangay", "name": "Concepcion", "place": "village"}}, {"type": "node", "id": 9364022470, "lat": 15.8490662, "lon": 120.7659233, "tags": {"admin_level": "10", "admin_type:PH": "barangay", "is_in:town": "Umingan", "name": "San Juan", "old_ref": "015544052", "place": "village", "population": "1116", "ref": "0105544052", "source:population": "Philippine Statistics Authority"}}, {"type": "node", "id": 9364022471, "lat": 15.8302806, "lon": 120.7686469, "tags": {"admin_level": "10", "admin_type:PH": "barangay", "name": "San Juan", "place": "village"}}, {"type": "node", "id": 9364038582, "lat": 15.8624799, "lon": 120.7392847, "tags": {"admin_level": "10", "admin_type:PH": "barangay", "name": "Cadiz", "place": "village"}}, {"type": "node", "id": 9364045702, "lat": 15.8922672, "lon": 120.6991321, "tags": {"admin_level": "10", "admin_type:PH": "barangay", "name": "Angayan Sur", "place": "village"}}, {"type": "node", "id": 9364068275, "lat": 15.8804983, "lon": 120.7127416, "tags": {"admin_level": "10", "admin_type:PH": "barangay", "name": "Esmeralda", "place": "village"}}, {"type": "node", "id": 9364069277, "lat": 15.8404984, "lon": 120.6891388, "tags": {"admin_level": "10", "admin_type:PH": "barangay", "is_in:town": "Balungao", "name": "San Andres", "old_ref": "015531027", "place": "village", "population": "512", "ref": "0105531027", "source:population": "Philippine Statistics Authority"}}, {"type": "node", "id": 9364069278, "lat": 15.8361898, "lon": 120.6799664, "tags": {"admin_level": "10", "admin_type:PH": "barangay", "is_in:town": "Rosales", "name": "San Vicente", "old_ref": "015531027", "place": "village", "population": "512", "ref": "0105531027", "source:population": "Philippine Statistics Authority"}}, {"type": "node", "id": 9364069279, "lat": 15.8551162, "lon": 120.7023776, "tags": {"admin_level": "10", "designation": "barangay", "name": "Mabini", "place": "village"}}, {"type": "node", "id": 9364083555, "lat": 15.8709501, "lon": 120.6292579, "tags": {"admin_level": "10", "admin_type:PH": "barangay", "is_in:town": "Rosales", "name": "Cabalaoangan Sur", "place": "village"}}, {"type": "node", "id": 9364110549, "lat": 15.8062845, "lon": 120.7929209, "tags": {"admin_level": "10", "admin_type:PH": "barangay", "is_in:town": "Talugtug", "name": "Tibag", "old_ref": "034931029", "place": "village", "population": "729", "ref": "0304931029", "source:population": "Philippine Statistics Authority"}}, {"type": "node", "id": 9364113732, "lat": 15.7698293, "lon": 120.8148721, "tags": {"admin_level": "10", "designation": "barangay", "name": "Cabiangan", "place": "village"}}, {"type": "node", "id": 9364116608, "lat": 15.8217364, "lon": 120.7332981, "tags": {"admin_level": "10", "admin_type:PH": "barangay", "name": "Paitan Sur", "place": "village"}}, {"type": "node", "id": 9364116609, "lat": 15.8322082, "lon": 120.7410148, "tags": {"admin_level": "10", "designation": "barangay", "name": "Paitan Norte", "place": "village"}}, {"type": "node", "id": 9364163861, "lat": 15.8117949, "lon": 120.8711763, "tags": {"admin_level": "10", "designation": "barangay", "name": "Burgos", "place": "village"}}, {"type": "node", "id": 9365652787, "lat": 15.6440623, "lon": 120.6927109, "tags": {"admin_level": "10", "designation": "barangay", "name": "San Miguel", "place": "village"}}, {"type": "node", "id": 9365684753, "lat": 15.6680555, "lon": 120.6717575, "tags": {"admin_level": "10", "admin_type:PH": "barangay", "name": "Maybubon", "place": "village"}}, {"type": "node", "id": 9365700305, "lat": 15.671857, "lon": 120.697512, "tags": {"admin_level": "10", "designation": "barangay", "name": "San Agustin", "place": "village"}}, {"type": "node", "id": 9365702272, "lat": 15.6592282, "lon": 120.7248571, "tags": {"admin_level": "10", "designation": "barangay", "name": "Manggang Marikit", "place": "village"}}, {"type": "node", "id": 9365702273, "lat": 15.6517745, "lon": 120.7096839, "tags": {"admin_level": "10", "designation": "barangay", "name": "Galvan", "place": "village"}}, {"type": "node", "id": 9365705018, "lat": 15.6865044, "lon": 120.6949854, "tags": {"admin_level": "10", "designation": "barangay", "name": "Yuson", "place": "village"}}, {"type": "node", "id": 9365722169, "lat": 15.6580092, "lon": 120.6923112, "tags": {"admin_level": "10", "designation": "barangay", "name": "Lamorito", "place": "village"}}, {"type": "node", "id": 9365769977, "lat": 15.6342782, "lon": 120.7306373, "tags": {"admin_level": "10", "designation": "barangay", "name": "Subul", "place": "village"}}, {"type": "node", "id": 9365774361, "lat": 15.6854198, "lon": 120.7319676, "tags": {"admin_level": "10", "designation": "barangay", "is_in:town": "Guimba", "name": "Pacac", "place": "village"}}, {"type": "node", "id": 9365829104, "lat": 15.6257672, "lon": 120.7432061, "tags": {"admin_level": "10", "designation": "barangay", "name": "Balingog East", "place": "village"}}, {"type": "node", "id": 9365855319, "lat": 15.6982897, "lon": 120.7975262, "tags": {"admin_level": "10", "designation": "barangay", "name": "Santa Ana", "place": "village"}}, {"type": "node", "id": 9365871634, "lat": 15.689283, "lon": 120.8221435, "tags": {"admin_level": "10", "designation": "barangay", "name": "Sinulatan", "place": "village"}}, {"type": "node", "id": 9374787114, "lat": 15.7564798, "lon": 120.4623142, "tags": {"admin_level": "10", "admin_type:PH": "barangay", "is_in:town": "Bayambang", "name": "Paragos", "place": "village", "source:name": "extrapolated from OSMaPaaralan, way/1016425994"}}, {"type": "node", "id": 9374855388, "lat": 15.7666917, "lon": 120.4760075, "tags": {"fixme": "name", "place": "neighbourhood"}}, {"type": "node", "id": 9374861969, "lat": 15.7610948, "lon": 120.4758616, "tags": {"admin_level": "10", "admin_type:PH": "barangay", "alt_name": "San Gabrield Dos", "is_in:town": "Bayambang", "name": "San Gabriel 2nd", "place": "village", "population": "2281", "population:2015": "2194", "ref": "015511057", "source:population": "Philippine Statistics Authority"}}, {"type": "node", "id": 9382940151, "lat": 15.8968744, "lon": 120.647285, "tags": {"admin_level": "10", "admin_type:PH": "barangay", "is_in:town": "Rosales", "name": "San Pedro East", "place": "village", "population": "1924", "population:2015": "1785", "ref": "015531025", "source:name": "extrapolated from OSMaPaaralan, way/788082216", "source:population": "Philippine Statistics Authority"}}, {"type": "node", "id": 9382940152, "lat": 15.8978057, "lon": 120.6422867, "tags": {"admin_level": "10", "admin_type:PH": "barangay", "is_in:town": "Rosales", "name": "San Pedro West", "place": "village", "population": "4334", "population:2015": "1954", "ref": "015531026", "source:population": "Philippine Statistics Authority"}}, {"type": "node", "id": 9387582569, "lat": 15.9436409, "lon": 120.7203282, "tags": {"addr:village": "Santa Cruz", "admin_level": "12", "admin_type:PH": "purok", "is_in:province": "Pangasinan", "is_in:town": "Santa Maria", "is_in:village": "Santa Cruz", "name": "Zone 6", "place": "neighbourhood", "source:name": "extrapolated from OSMaPaaralan, way/833234407"}}, {"type": "node", "id": 9387582570, "lat": 15.9434494, "lon": 120.7193895, "tags": {"admin_level": "10", "admin_type:PH": "barangay", "is_in:town": "Santa Maria", "name": "Santa Cruz", "place": "village", "source:name": "extrapolated from OSMaPaaralan, way/833234407"}}, {"type": "node", "id": 9388401851, "lat": 15.6732645, "lon": 120.7075462, "tags": {"admin_level": "10", "designation": "barangay", "name": "Bagong Barrio", "place": "village"}}, {"type": "node", "id": 9388519746, "lat": 15.6173952, "lon": 120.7613647, "tags": {"admin_level": "10", "designation": "barangay", "name": "Catimon", "place": "village"}}, {"type": "node", "id": 9388547392, "lat": 15.61638, "lon": 120.821768, "tags": {"name": "Labong", "place": "hamlet"}}, {"type": "node", "id": 9388608360, "lat": 15.5994827, "lon": 120.8199549, "tags": {"admin_level": "10", "designation": "barangay", "name": "Santa Rita", "place": "village"}}, {"type": "node", "id": 9388652703, "lat": 15.5739518, "lon": 120.8318424, "tags": {"admin_level": "10", "designation": "barangay", "name": "Ilog Baliwag", "place": "village"}}, {"type": "node", "id": 9388697130, "lat": 15.5580044, "lon": 120.8443737, "tags": {"admin_level": "10", "designation": "barangay", "name": "Santo Tomas Feria", "place": "village"}}, {"type": "node", "id": 9388731072, "lat": 15.5878932, "lon": 120.8549309, "tags": {"admin_level": "10", "designation": "barangay", "name": "Mambarao", "place": "village"}}, {"type": "node", "id": 9390745172, "lat": 15.8879294, "lon": 120.7862891, "tags": {"admin_level": "10", "admin_type:PH": "barangay", "is_in:town": "Umingan", "name": "Prado", "place": "village", "population": "1288", "population:2015": "1112", "ref": "015544048", "source:name": "extrapolated from OSMaPaaralan, relation/13631807"}}, {"type": "node", "id": 9390757606, "lat": 15.9139535, "lon": 120.7670349, "tags": {"admin_level": "10", "admin_type:PH": "barangay", "is_in:town": "Umingan", "name": "Gonzales", "place": "village", "population": "1937", "population:2015": "1846", "ref": "015544030", "source:name": "extrapolated from OSMaPaaralan, way/813975937", "source:population": "Philippine Statistics Authority"}}, {"type": "node", "id": 9391112729, "lat": 15.9317919, "lon": 120.5747607, "tags": {"name": "Bacag West", "place": "neighbourhood", "source:name": "extrapolated from OSMaPaaralan, way/835648439"}},