{"version": 0.6, "generator": "Overpass API 0.7.62.5 1bd436f1", "osm3s": {"timestamp_osm_base": "2025-05-24T17:48:14Z", "copyright": "The data included in this document is from www.openstreetmap.org. The data is made available under ODbL."}, "elements": [{"type": "node", "id": 198503555, "lat": 10.5535521, "lon": 119.9891472, "tags": {"admin_level": "6", "admin_type:PH": "municipality", "name": "Araceli", "old_ref": "175303000", "place": "town", "population": "14434", "population:date": "2020-05-01", "postal_code": "5311", "ref": "1705303000", "wikidata": "Q111360", "wikimedia_commons": "Category:Araceli, Palawan", "wikipedia": "en:Araceli, Palawan"}}, {"type": "node", "id": 198521042, "lat": 10.5290452, "lon": 119.7692022, "tags": {"admin_level": "6", "gns_classification": "ADM2", "gns_uni": "-3344431", "is_in:province": "Palawan", "name": "Dumaran", "place": "town", "place:PH": "municipality", "population": "23734", "population:date": "2015-08-01", "postal_code": "5310", "source": "GNS", "source:population": "Philippine Statistics Authority", "wikidata": "Q111468", "wikimedia_commons": "Category:Dumaran", "wikipedia": "en:Dumaran"}}, {"type": "node", "id": 5253459624, "lat": 10.4988058, "lon": 119.6742538, "tags": {"name": "Sta. Teresita", "place": "hamlet"}}, {"type": "node", "id": 5877603613, "lat": 10.5601518, "lon": 119.6440869, "tags": {"name": "Culassian", "place": "village"}}, {"type": "node", "id": 5877603614, "lat": 10.6044835, "lon": 119.6490569, "tags": {"admin_level": "10", "name": "Calawag", "place": "village"}}, {"type": "node", "id": 7070739821, "lat": 10.4586013, "lon": 119.8490971, "tags": {"is_in:town": "Dumaran", "name": "Catep", "place": "village"}}, {"type": "node", "id": 7070779312, "lat": 10.4819463, "lon": 119.8922002, "tags": {"is_in:town": "Dumaran", "name": "Bohol", "place": "village"}}, {"type": "node", "id": 7078911161, "lat": 10.5487509, "lon": 119.6728706, "tags": {"admin_level": "11", "designation": "sitio", "is_in:quarter": "Danleg", "is_in:town": "Dumaran", "name": "Ilang-ilang", "place": "hamlet", "source:name": "extrapolated from OSMaPaaralan"}}, {"type": "node", "id": 7599547345, "lat": 10.4689172, "lon": 119.8282106, "tags": {"name": "Nagpadalan", "place": "neighbourhood"}}, {"type": "node", "id": 8858661171, "lat": 10.5772519, "lon": 119.9087796, "tags": {"admin_level": "10", "designation": "barangay", "is_in:town": "Araceli", "name": "Santo Ni\u00f1o", "place": "village", "source:name": "extrapolated from OSMaPaaralan, way/816452695"}}, {"type": "node", "id": 8861652067, "lat": 10.4993173, "lon": 119.6499691, "tags": {"admin_level": "11", "designation": "sitio", "is_in:town": "Dumaran", "name": "Nala", "place": "village", "source:name": "extrapolated from OSMaPaaralan, way/816767654"}}, {"type": "node", "id": 8861652072, "lat": 10.5088527, "lon": 119.6644462, "tags": {"admin_level": "10", "designation": "barangay", "is_in:quarter": "Santa Teresita", "is_in:town": "Dumaran", "name": "Magsasaka", "place": "village", "source:name": "extrapolated from OSMaPaaralan, way/625190557"}}, {"type": "node", "id": 8861660529, "lat": 10.4070379, "lon": 119.5798352, "tags": {"admin_level": "10", "designation": "barangay", "is_in:town": "Dumaran", "name": "Ilian", "place": "village", "source:name": "extrapolated from OSMaPaaralan"}}, {"type": "node", "id": 8861667298, "lat": 10.5421121, "lon": 119.6549205, "tags": {"admin_level": "11", "designation": "sitio", "is_in:quarter": "Danlig", "is_in:town": "Dumaran", "name": "Salban", "place": "hamlet", "source:name": "extrapolated from OSMaPaaralan, way/766813510"}}, {"type": "node", "id": 8861667307, "lat": 10.5042282, "lon": 119.5670935, "tags": {"admin_level": "11", "designation": "sitio", "is_in:quarter": "Ilian", "is_in:town": "Dumaran", "name": "Latongay", "place": "village", "source:name": "extrapolated from OSMaPaaralan, way/623353146"}}, {"type": "node", "id": 8861714168, "lat": 10.5475186, "lon": 119.6034319, "tags": {"admin_level": "10", "admin_type:PH": "barangay", "designation": "barangay", "is_in:town": "Dumaran", "name": "Santa Maria", "old_ref": "175311016", "place": "village", "population": "926", "population:2015": "891", "ref": "1705311016", "source:name": "extrapolated from OSMaPaaralan, way/819018368", "source:population": "Philippine Statistics Authority"}}, {"type": "node", "id": 8861714210, "lat": 10.5309834, "lon": 119.5930784, "tags": {"admin_level": "11", "designation": "sitio", "is_in:quarter": "Santa Maria", "is_in:town": "Dumaran", "name": "Maunlad", "place": "hamlet", "source:name": "extrapolated from OSMaPaaralan"}}, {"type": "node", "id": 8861729062, "lat": 10.5281996, "lon": 119.5903395, "tags": {"admin_level": "11", "designation": "sitio", "is_in:quarter": "Santa Maria", "is_in:town": "Dumaran", "name": "Tagumpay", "place": "hamlet"}}, {"type": "node", "id": 9499891944, "lat": 10.5836071, "lon": 119.847119, "tags": {"admin_level": "10", "admin_type:PH": "barangay", "is_in:town": "Araceli", "name": "Mauriguen", "place": "village", "source:name": "extrapolated from OSMaPaaralan, way/816767621"}}]}