{"version": 0.6, "generator": "Overpass API 0.7.62.5 1bd436f1", "osm3s": {"timestamp_osm_base": "2025-05-24T17:53:13Z", "copyright": "The data included in this document is from www.openstreetmap.org. The data is made available under ODbL."}, "elements": [{"type": "node", "id": 198492700, "lat": 15.8483803, "lon": 121.5367634, "tags": {"admin_level": "6", "admin_type:PH": "municipality", "gns_classification": "ADM2", "gns_uni": "-3343727", "is_in:province": "Aurora", "name": "Dipaculao", "place": "town", "population": "29736", "population:date": "2015-08-01", "postal_code": "3203", "source": "GNS", "source:population": "Philippine Statistics Authority", "wikidata": "Q53089", "wikimedia_commons": "Category:Dipaculao", "wikipedia": "en:Dipaculao"}}, {"type": "node", "id": 198505468, "lat": 15.7191175, "lon": 121.5178817, "tags": {"admin_level": "6", "gns_classification": "ADM2", "gns_uni": "-3375311", "is_in:province": "Aurora", "name": "San Luis", "place": "town", "place:PH": "municipality", "population": "27352", "population:date": "2015-08-01", "source": "GNS", "source:population": "Philippine Statistics Authority", "wikidata": "Q53092", "wikimedia_commons": "Category:San Luis, Aurora", "wikipedia": "en:San Luis, Aurora"}}, {"type": "node", "id": 310526580, "lat": 15.7982599, "lon": 121.4723121, "tags": {"admin_level": "6", "admin_type:PH": "municipality", "gns_classification": "ADM2", "is_in:province": "Aurora", "name": "Maria Aurora", "place": "town", "population": "40734", "population:date": "2015-08-01", "source:population": "Philippine Statistics Authority", "wikidata": "Q53090", "wikimedia_commons": "Category:Maria Aurora, Aurora", "wikipedia": "en:Maria Aurora, Aurora"}}, {"type": "node", "id": 393820219, "lat": 15.759086, "lon": 121.5627247, "tags": {"admin_level": "6", "admin_type:PH": "municipality", "capital": "4", "name": "Baler", "name:en": "Baler", "name:ja": "\u30d0\u30ec\u30eb", "name:tl": "Baler", "official_name:en": "Municipality of Baler", "official_name:tl": "Bayan ng Baler", "place": "town", "population": "39562", "population:date": "2015-08-01", "source:population": "Philippine Statistics Authority", "wikidata": "Q53081", "wikimedia_commons": "Category:Baler, Aurora", "wikipedia": "en:Baler, Aurora"}}, {"type": "node", "id": 568179864, "lat": 15.6992018, "lon": 121.4665036, "tags": {"admin_level": "10", "admin_type:PH": "barangay", "is_in:town": "San Luis", "name": "Ditumabo", "place": "village"}}, {"type": "node", "id": 2806134893, "lat": 15.752738, "lon": 121.5351253, "tags": {"admin_level": "10", "is_in:city": "Baler", "name": "Calabuanan", "place": "village", "place:PH": "barangay"}}, {"type": "node", "id": 2806134894, "lat": 15.7805426, "lon": 121.5273599, "tags": {"admin_level": "10", "admin_type:PH": "barangay", "is_in:city": "Baler", "name": "Obligacion", "old_ref": "037701008", "place": "village", "population": "1392", "population:2015": "1215", "ref": "0307701008", "source:population": "Philippine Statistics Authority"}}, {"type": "node", "id": 2806134895, "lat": 15.7424141, "lon": 121.5567309, "tags": {"admin_level": "10", "admin_type:PH": "barangay", "name": "Pingit", "place": "village", "place:PH": "barangay"}}, {"type": "node", "id": 2806134896, "lat": 15.799713, "lon": 121.5420953, "tags": {"admin_level": "10", "admin_type:PH": "barangay", "is_in:town": "Baler", "name": "Reserva", "place": "village"}}, {"type": "node", "id": 2806134897, "lat": 15.7599318, "lon": 121.5684954, "tags": {"admin_level": "10", "admin_type:PH": "barangay", "is_in:city": "Baler", "name": "Sabang", "place": "village"}}, {"type": "node", "id": 2806134899, "lat": 15.7571346, "lon": 121.5961906, "tags": {"admin_level": "10", "admin_type:PH": "barangay", "is_in:city": "Baler", "name": "Zabali", "place": "village"}}, {"type": "node", "id": 3206403496, "lat": 15.9667331, "lon": 121.6208367, "tags": {"admin_level": "10", "admin_type:PH": "barangay", "is_in:town": "Dipaculao", "name": "Diarabasin", "place": "village"}}, {"type": "node", "id": 4087091476, "lat": 15.8250739, "lon": 121.534402, "tags": {"name": "Ipil", "place": "village"}}, {"type": "node", "id": 4572931856, "lat": 15.7760421, "lon": 121.3517375, "tags": {"name": "Dimotol", "place": "hamlet"}}, {"type": "node", "id": 4572948353, "lat": 15.7620084, "lon": 121.4600783, "tags": {"admin_level": "10", "admin_type:PH": "barangay", "name": "Debucao", "place": "village"}}, {"type": "node", "id": 4931513921, "lat": 15.8273408, "lon": 121.52464, "tags": {"name": "Bayabas", "place": "village"}}, {"type": "node", "id": 4931514322, "lat": 15.7513113, "lon": 121.562127, "tags": {"name": "Purok 1", "place": "neighbourhood"}}, {"type": "node", "id": 5258607997, "lat": 15.7551978, "lon": 121.5459827, "tags": {"alt_name": "Suclayin", "name": "Suklayin", "place": "village"}}, {"type": "node", "id": 7099346796, "lat": 15.8743485, "lon": 121.5457666, "tags": {"admin_level": "10", "admin_type:PH": "barangay", "is_in:town": "Dipaculao", "name": "Mijares", "old_ref": "037706017", "place": "village", "population": "1240", "population:2015": "1134", "ref": "0307706017", "source:population": "Philippine Statistics Authority"}}, {"type": "node", "id": 7115963108, "lat": 15.7584143, "lon": 121.596567, "tags": {"admin_level": "11", "admin_type:PH": "sitio", "is_in:town": "Baler", "is_in:village": "Zabali", "name": "Puntian", "official_name": "Sitio Puntian", "place": "neighbourhood"}}, {"type": "node", "id": 7465882622, "lat": 15.5773248, "lon": 121.5422402, "tags": {"name": "Dikapinisan", "place": "village"}}, {"type": "node", "id": 7467163381, "lat": 15.7415561, "lon": 121.3868526, "tags": {"admin_level": "10", "admin_type:PH": "barangay", "is_in:town": "Maria Aurora", "name": "Dianawan", "place": "village"}}, {"type": "node", "id": 7467167021, "lat": 15.7166129, "lon": 121.4405564, "tags": {"admin_level": "10", "admin_type:PH": "barangay", "name": "Suguit", "place": "village"}}, {"type": "node", "id": 7467178716, "lat": 15.7322121, "lon": 121.402509, "tags": {"name": "Punglo", "place": "village"}}, {"type": "node", "id": 7468964955, "lat": 15.7697521, "lon": 121.4906495, "tags": {"name": "Detailen", "place": "village"}}, {"type": "node", "id": 7468984984, "lat": 15.7829364, "lon": 121.4808703, "tags": {"admin_level": "10", "admin_type:PH": "barangay", "is_in:town": "Maria Aurora", "name": "Ramada", "old_ref": "037707031", "place": "village", "population": "1382", "population:2015": "1172", "ref": "0307707031", "source:population": "Philippine Statistics Authority"}}, {"type": "node", "id": 7469011301, "lat": 15.7914228, "lon": 121.5064886, "tags": {"name": "Bangco", "place": "village"}}, {"type": "node", "id": 7469026811, "lat": 15.813122, "lon": 121.4897676, "tags": {"admin_level": "10", "admin_type:PH": "barangay", "name": "Bannawag", "place": "village"}}, {"type": "node", "id": 7469030259, "lat": 15.8323036, "lon": 121.4705032, "tags": {"name": "Kadayakan", "place": "village"}}, {"type": "node", "id": 7469046653, "lat": 15.8149142, "lon": 121.5204767, "tags": {"name": "Laboy", "place": "village"}}, {"type": "node", "id": 7469046854, "lat": 15.7956882, "lon": 121.5110184, "tags": {"name": "Cabituculan East", "place": "village"}}, {"type": "node", "id": 7469049495, "lat": 15.8182606, "lon": 121.5020026, "tags": {"name": "Maligaya", "place": "village"}}, {"type": "node", "id": 7469052825, "lat": 15.8485317, "lon": 121.5049838, "tags": {"name": "Sapangkawayan", "name:uk": "\u0421\u0430\u0440\u0430\u043d\u0491\u043a\u0430\u0432\u0430\u044f\u043d", "place": "village"}}, {"type": "node", "id": 7469053103, "lat": 15.8572468, "lon": 121.5296102, "tags": {"admin_level": "10", "admin_type:PH": "barangay", "name": "Puangi", "place": "village"}}, {"type": "node", "id": 7469053325, "lat": 15.8369563, "lon": 121.5169109, "tags": {"name": "Salay", "place": "village"}}, {"type": "node", "id": 7469053439, "lat": 15.8257612, "lon": 121.5142853, "tags": {"name": "Mucdol", "place": "village"}}, {"type": "node", "id": 7469063337, "lat": 15.8584938, "lon": 121.5078127, "tags": {"name": "Dimabuno", "place": "village"}}, {"type": "node", "id": 7469150189, "lat": 15.9228409, "lon": 121.5722695, "tags": {"admin_level": "10", "admin_type:PH": "barangay", "is_in:town": "Dipaculao", "name": "Ditale", "place": "village"}}, {"type": "node", "id": 7469201508, "lat": 15.942362, "lon": 121.6035378, "tags": {"admin_level": "10", "admin_type:PH": "barangay", "is_in:town": "Dipaculao", "name": "Dibutunan", "place": "village"}}, {"type": "node", "id": 7497797902, "lat": 15.7806544, "lon": 121.5267518, "tags": {"name": "Pilit", "place": "neighbourhood"}}, {"type": "node", "id": 7497865102, "lat": 15.7536412, "lon": 121.5771854, "tags": {"admin_level": "11", "designation": "sitio", "is_in:town": "Sabang", "name": "Castillo", "place": "neighbourhood"}}, {"type": "node", "id": 8176380168, "lat": 15.7792967, "lon": 121.5037948, "tags": {"admin_level": "10", "admin_type:PH": "barangay", "name": "Bagtu", "place": "village"}}, {"type": "node", "id": 8176380169, "lat": 15.7567299, "lon": 121.4912818, "tags": {"admin_level": "10", "admin_type:PH": "barangay", "is_in:town": "Maria Aurora", "name": "Dikidit", "old_ref": "037707021", "place": "village", "population": "1208", "population:2015": "1019", "ref": "0307707021", "source:population": "Philippine Statistics Authority"}}, {"type": "node", "id": 8176380170, "lat": 15.7679652, "lon": 121.4747679, "tags": {"admin_level": "10", "admin_type:PH": "barangay", "name": "Quirino", "place": "village"}}, {"type": "node", "id": 8176380176, "lat": 15.7714189, "lon": 121.4629555, "tags": {"admin_level": "10", "admin_type:PH": "barangay", "name": "San Leonardo", "place": "village"}}, {"type": "node", "id": 8176380177, "lat": 15.7708947, "lon": 121.4430704, "tags": {"admin_level": "10", "admin_type:PH": "barangay", "is_in:town": "Maria Aurora", "name": "Diome", "old_ref": "037707023", "place": "village", "population": "872", "population:2015": "857", "ref": "0307707023", "source:population": "Philippine Statistics Authority"}}, {"type": "node", "id": 8176380178, "lat": 15.7688159, "lon": 121.4348254, "tags": {"admin_level": "10", "admin_type:PH": "barangay", "is_in:town": "Maria Aurora", "name": "Santo Tomas", "place": "village"}}, {"type": "node", "id": 8176380180, "lat": 15.7539226, "lon": 121.4205551, "tags": {"admin_level": "11", "admin_type:PH": "sitio", "is_in:town": "Maria Aurora", "is_in:village": "Wenceslao", "name": "Calao", "place": "hamlet"}}, {"type": "node", "id": 8176380181, "lat": 15.7648677, "lon": 121.4238614, "tags": {"admin_level": "10", "admin_type:PH": "barangay", "is_in:town": "Maria Aurora", "name": "Wenceslao", "old_ref": "037707039", "place": "village", "population": "1657", "population:2015": "1499", "ref": "0307707039", "source:population": "Philippine Statistics Authority"}}, {"type": "node", "id": 8176391178, "lat": 15.7305177, "lon": 121.5131342, "tags": {"place": "hamlet"}}, {"type": "node", "id": 8176391217, "lat": 15.714345, "lon": 121.5023035, "tags": {"admin_level": "10", "admin_type:PH": "barangay", "name": "Nonong Sr.", "place": "village"}}, {"type": "node", "id": 8176391276, "lat": 15.7323198, "lon": 121.5247214, "tags": {"place": "village"}}, {"type": "node", "id": 8176391277, "lat": 15.7372007, "lon": 121.5017262, "tags": {"admin_level": "10", "admin_type:PH": "barangay", "is_in:town": "San Luis", "name": "San Isidro", "old_ref": "037708016", "place": "village", "population": "2596", "population:2015": "2717", "ref": "0307708016", "source:population": "Philippine Statistics Authority"}}, {"type": "node", "id": 8176391278, "lat": 15.7371011, "lon": 121.5100712, "tags": {"admin_level": "10", "admin_type:PH": "barangay", "name": "Bacong", "place": "village"}}, {"type": "node", "id": 8176391279, "lat": 15.7586079, "lon": 121.5284738, "tags": {"admin_level": "11", "admin_type:PH": "sitio", "is_in:town": "Baler", "is_in:village": "Calabuanan", "name": "Setan", "place": "hamlet", "postal_code": "3200"}}, {"type": "node", "id": 8176391280, "lat": 15.7472624, "lon": 121.5093524, "tags": {"admin_level": "10", "admin_type:PH": "barangay", "is_in:town": "Baler", "name": "Calabuanan", "old_ref": "037701007", "place": "village", "population": "5536", "population:2015": "3895", "ref": "0307701007"}}, {"type": "node", "id": 8176391287, "lat": 15.6940033, "lon": 121.4869291, "tags": {"admin_level": "11", "admin_type:PH": "sitio", "is_in:village": "Nonong Sr.", "name": "Kamalatan", "place": "hamlet"}}, {"type": "node", "id": 8176391288, "lat": 15.6925779, "lon": 121.5132308, "tags": {"place": "hamlet"}}, {"type": "node", "id": 8176391289, "lat": 15.6855283, "lon": 121.5003401, "tags": {"place": "village"}}, {"type": "node", "id": 8176391701, "lat": 15.6343169, "lon": 121.5831243, "tags": {"admin_level": "10", "admin_type:PH": "barangay", "is_in:town": "San Luis", "name": "Dibayabay", "old_ref": "037708007", "place": "village", "population": "1088", "population:2015": "1177", "ref": "0307708007", "source": "deped", "source:population": "Philippine Statistics Authority"}}, {"type": "node", "id": 8176391702, "lat": 15.6055969, "lon": 121.5607369, "tags": {"name": "Diotorin", "place": "hamlet"}}, {"type": "node", "id": 8176923726, "lat": 15.8788059, "lon": 121.5244746, "tags": {"admin_level": "10", "admin_type:PH": "barangay", "name": "Toytoyan", "place": "village"}}, {"type": "node", "id": 8176923727, "lat": 15.8053541, "lon": 121.4938009, "tags": {"admin_level": "10", "admin_type:PH": "barangay", "name": "Dimanpudso", "place": "village"}}, {"type": "node", "id": 8176923728, "lat": 15.802923, "lon": 121.462006, "tags": {"admin_level": "10", "admin_type:PH": "barangay", "is_in:town": "Maria Aurora", "name": "San Joaquin", "place": "village"}}, {"type": "node", "id": 8176923729, "lat": 15.7980349, "lon": 121.4368093, "tags": {"admin_level": "10", "admin_type:PH": "barangay", "is_in:town": "Maria Aurora", "name": "Bazal", "place": "village"}}, {"type": "node", "id": 8176923730, "lat": 15.8132616, "lon": 121.4399475, "tags": {"admin_level": "10", "admin_type:PH": "barangay", "is_in:town": "Maria Aurora", "name": "Diaat", "place": "village"}}, {"type": "node", "id": 8176923731, "lat": 15.7839685, "lon": 121.4597529, "tags": {"place": "village"}}, {"type": "node", "id": 8176923760, "lat": 15.791025, "lon": 121.4501721, "tags": {"admin_level": "10", "admin_type:PH": "barangay", "is_in:town": "Maria Aurora", "name": "Estonilo", "place": "village"}}, {"type": "node", "id": 8176923777, "lat": 15.7785946, "lon": 121.4594364, "tags": {"place": "hamlet"}}, {"type": "node", "id": 8176923898, "lat": 15.7653839, "lon": 121.4457142, "tags": {"place": "hamlet"}}, {"type": "node", "id": 8176923899, "lat": 15.7400184, "lon": 121.5670037, "tags": {"place": "hamlet"}}, {"type": "node", "id": 8176923900, "lat": 15.7297897, "lon": 121.5437677, "tags": {"place": "hamlet"}}, {"type": "node", "id": 8176923901, "lat": 15.738077, "lon": 121.5495479, "tags": {"place": "hamlet"}}, {"type": "node", "id": 8176923902, "lat": 15.7231441, "lon": 121.5509373, "tags": {"place": "hamlet"}}, {"type": "node", "id": 8176923903, "lat": 15.7228808, "lon": 121.542542, "tags": {"place": "hamlet"}}, {"type": "node", "id": 8176923904, "lat": 15.7092585, "lon": 121.5234982, "tags": {"admin_level": "10", "is_in:town": "San Luis", "name": "Real", "place": "village", "place:PH": "barangay"}}, {"type": "node", "id": 8176924028, "lat": 15.7417506, "lon": 121.4414227, "tags": {"admin_level": "10", "admin_type:PH": "barangay", "name": "Diaman", "place": "village"}}, {"type": "node", "id": 8176924247, "lat": 15.6931202, "lon": 121.4520174, "tags": {"name": "Diabuyo", "place": "hamlet"}}, {"type": "node", "id": 8176924389, "lat": 15.6691542, "lon": 121.4290147, "tags": {"admin_level": "10", "admin_type:PH": "barangay", "is_in:town": "San Luis", "name": "Diteki", "place": "village"}}, {"type": "node", "id": 8176924528, "lat": 15.9627577, "lon": 121.3615036, "tags": {"place": "hamlet"}}, {"type": "node", "id": 8176924799, "lat": 15.767769, "lon": 121.359508, "tags": {"place": "hamlet"}}, {"type": "node", "id": 8718075261, "lat": 15.6669399, "lon": 121.5952742, "tags": {"admin_level": "10", "is_in:town": "San Luis", "name": "Dibut", "place": "village", "place:PH": "barangay", "source": "deped"}}, {"type": "node", "id": 9396227308, "lat": 15.9713655, "lon": 121.357491, "tags": {"admin_level": "10", "admin_type:PH": "barangay", "is_in:town": "Alfonso Casta\u00f1eda", "name": "Cawayan", "place": "village"}}, {"type": "node", "id": 9690975571, "lat": 15.7523814, "lon": 121.5085369, "tags": {"admin_level": "12", "admin_type:PH": "purok", "is_in": "Calabuanan;Baler", "name": "Purok 2", "place": "neighbourhood", "source:name": "extrapolated from way:798200896"}}, {"type": "node", "id": 10940612503, "lat": 15.6650094, "lon": 121.5633103, "tags": {"alt_name": "Sitio Kalapnit", "ele": "180", "is_in:barangay": "Dibalo", "is_in:municipality": "San Luis", "name": "Kalapnit", "place": "hamlet"}}, {"type": "node", "id": 11255310725, "lat": 15.8008919, "lon": 121.4453173, "tags": {"admin_level": "10", "admin_type:PH": "barangay", "is_in:town": "Maria Aurora", "name": "Malasin", "place": "village"}}, {"type": "node", "id": 11255326222, "lat": 15.7854139, "lon": 121.4436543, "tags": {"admin_level": "10", "admin_type:PH": "barangay", "is_in:town": "Maria Aurora", "name": "Baubo", "place": "village"}}, {"type": "node", "id": 11257889533, "lat": 15.8899145, "lon": 121.5220579, "tags": {"admin_level": "10", "admin_type:PH": "barangay", "name": "Diamanen", "place": "village"}}, {"type": "node", "id": 11260344356, "lat": 15.7196373, "lon": 121.5185939, "tags": {"admin_level": "10", "admin_type:PH": "barangay", "name": "Barangay 3", "place": "village"}}, {"type": "node", "id": 11260344357, "lat": 15.7178822, "lon": 121.5184879, "tags": {"admin_level": "10", "admin_type:PH": "barangay", "name": "Barangay 4", "place": "village"}}, {"type": "node", "id": 11260381421, "lat": 15.7394814, "lon": 121.569407, "tags": {"name": "Dicaloyungan", "place": "hamlet"}}, {"type": "node", "id": 11260915130, "lat": 15.752686, "lon": 121.5859106, "tags": {"admin_level": "11", "name": "Cemento", "place": "hamlet"}}, {"type": "node", "id": 11260999169, "lat": 15.7674322, "lon": 121.5590952, "tags": {"admin_level": "11", "name": "Purok 3", "place": "hamlet"}}, {"type": "node", "id": 11261019847, "lat": 15.8891664, "lon": 121.5504706, "tags": {"admin_level": "10", "admin_type:PH": "barangay", "is_in:town": "Dipaculao", "name": "Gupa", "place": "village"}}, {"type": "node", "id": 11290232542, "lat": 15.8633214, "lon": 121.5444314, "tags": {"admin_level": "10", "admin_type:PH": "barangay", "is_in:town": "Dipaculao", "name": "Lobbot", "old_ref": "037706015", "place": "village", "population": "622", "population:2015": "580", "ref": "0307706015", "source:population": "Philippine Statistics Authority"}}, {"type": "node", "id": 12714391640, "lat": 15.7768085, "lon": 121.4799312, "tags": {"admin_level": "10", "admin_type:PH": "barangay", "name": "Santa Lucia", "place": "village"}}, {"type": "node", "id": 12714391680, "lat": 15.7879794, "lon": 121.4788502, "tags": {"admin_level": "10", "admin_type:PH": "barangay", "name": "San Jose", "place": "village"}}, {"type": "node", "id": 12714391685, "lat": 15.8032689, "lon": 121.4853251, "tags": {"admin_level": "10", "admin_type:PH": "barangay", "name": "Florida", "place": "village"}}]}