{"version": 0.6, "generator": "Overpass API 0.7.62.5 1bd436f1", "osm3s": {"timestamp_osm_base": "2025-05-24T18:02:29Z", "copyright": "The data included in this document is from www.openstreetmap.org. The data is made available under ODbL."}, "elements": [{"type": "node", "id": 198491806, "lat": 11.3704698, "lon": 124.4867592, "tags": {"admin_level": "6", "designation": "municipality", "name": "Leyte", "old_ref": "083729000", "place": "town", "population": "40397", "population:date": "2020-05-01", "ref": "0803729000", "source:population": "Philippine Statistics Authority", "wikidata": "Q213160", "wikimedia_commons": "Category:Leyte, Leyte", "wikipedia": "en:Leyte, Leyte"}}, {"type": "node", "id": 198492868, "lat": 11.1455709, "lon": 124.4722659, "tags": {"admin_level": "6", "designation": "municipality", "name": "Matag-ob", "old_ref": "083733000", "place": "town", "population": "17522", "population:date": "2020-05-01", "ref": "0803733000", "source:population": "Philippine Statistics Authority", "wikidata": "Q213209", "wikimedia_commons": "Category:Matag-ob", "wikipedia": "en:Matag-ob"}}, {"type": "node", "id": 198492953, "lat": 11.2140014, "lon": 124.3938038, "tags": {"admin_level": "6", "designation": "municipality", "name": "Villaba", "old_ref": "083751000", "place": "town", "population": "42859", "population:date": "2020-05-01", "ref": "0803751000", "source:population": "Philippine Statistics Authority", "wikidata": "Q213463", "wikimedia_commons": "Category:Villaba", "wikipedia": "en:Villaba"}}, {"type": "node", "id": 198501040, "lat": 11.4057556, "lon": 124.3504917, "tags": {"admin_level": "6", "designation": "municipality", "name": "San Isidro", "old_ref": "083742000", "place": "town", "population": "30722", "population:date": "2020-05-01", "ref": "0803742000", "source:population": "Philippine Statistics Authority", "wikidata": "Q213341", "wikimedia_commons": "Category:San Isidro, Leyte", "wikipedia": "en:San Isidro, Leyte"}}, {"type": "node", "id": 198517778, "lat": 11.1847129, "lon": 124.561077, "tags": {"admin_level": "6", "designation": "municipality", "name": "Kananga", "old_ref": "083726000", "place": "town", "population": "59696", "population:date": "2020-05-01", "ref": "0803726000", "source:population": "Philippine Statistics Authority", "wikidata": "Q213130", "wikimedia_commons": "Category:Kananga, Leyte", "wikipedia": "en:Kananga, Leyte"}}, {"type": "node", "id": 198526819, "lat": 11.4665736, "lon": 124.4740971, "tags": {"admin_level": "6", "designation": "municipality", "is_in:province": "Biliran", "name": "Biliran", "official_name": "Municipality of Biliran", "place": "town", "population": "17662", "population:date": "2020-05-01", "postal_code": "6549", "ref": "087802000", "wikidata": "Q406186", "wikimedia_commons": "Category:Biliran, Biliran", "wikipedia": "en:Biliran, Biliran"}}, {"type": "node", "id": 198528007, "lat": 11.4467301, "lon": 124.4286683, "tags": {"admin_level": "6", "designation": "municipality", "name": "Calubian", "old_ref": "083713000", "place": "town", "population": "31646", "population:date": "2020-05-01", "ref": "0803713000", "source:population": "Philippine Statistics Authority", "wikidata": "Q212951", "wikimedia_commons": "Category:Calubian", "wikipedia": "en:Calubian"}}, {"type": "node", "id": 323064339, "lat": 11.326969, "lon": 124.1135452}, {"type": "node", "id": 323064340, "lat": 11.3266914, "lon": 124.1136474}, {"type": "node", "id": 323064555, "lat": 11.3269029, "lon": 124.1167569}, {"type": "node", "id": 323065254, "lat": 11.3341574, "lon": 124.1147692}, {"type": "node", "id": 323065255, "lat": 11.3343512, "lon": 124.114189}, {"type": "node", "id": 323068105, "lat": 11.3456621, "lon": 124.1102019}, {"type": "node", "id": 599190925, "lat": 11.3269065, "lon": 124.1189424}, {"type": "node", "id": 599190931, "lat": 11.3268557, "lon": 124.1186407}, {"type": "node", "id": 599190956, "lat": 11.3271739, "lon": 124.11966}, {"type": "node", "id": 599190957, "lat": 11.3274289, "lon": 124.1200608}, {"type": "node", "id": 599190964, "lat": 11.3276655, "lon": 124.1203236}, {"type": "node", "id": 599190987, "lat": 11.3284006, "lon": 124.1209322}, {"type": "node", "id": 599191000, "lat": 11.3333182, "lon": 124.1146263}, {"type": "node", "id": 599191001, "lat": 11.333772, "lon": 124.114545}, {"type": "node", "id": 600229049, "lat": 11.3269106, "lon": 124.1138245}, {"type": "node", "id": 600229057, "lat": 11.3270152, "lon": 124.1148983}, {"type": "node", "id": 600229059, "lat": 11.328454, "lon": 124.1140363}, {"type": "node", "id": 600229063, "lat": 11.3317419, "lon": 124.1168651, "tags": {"admin_level": "10", "admin_type:PH": "barangay", "alt_name": "Malapascua;Logan", "name": "Logon", "old_ref": "072221010", "place": "village", "population": "6257", "population:date": "2020-05-01", "ref": "0702221010", "source:population": "Philippine Statistics Authority", "wikidata": "Q28854952"}}, {"type": "node", "id": 600229066, "lat": 11.3296452, "lon": 124.1142965}, {"type": "node", "id": 600229069, "lat": 11.3310898, "lon": 124.1141282}, {"type": "node", "id": 600229082, "lat": 11.3328598, "lon": 124.1137613}, {"type": "node", "id": 610750081, "lat": 11.4821648, "lon": 124.4937593, "tags": {"name": "Sangalang", "place": "village"}}, {"type": "node", "id": 610750083, "lat": 11.4765626, "lon": 124.5156133, "tags": {"name": "Julita", "place": "village"}}, {"type": "node", "id": 610750084, "lat": 11.4776351, "lon": 124.5317875, "tags": {"name": "Balaquid", "place": "village"}}, {"type": "node", "id": 663340917, "lat": 11.3443973, "lon": 124.1114153}, {"type": "node", "id": 663363655, "lat": 11.3293689, "lon": 124.1195648}, {"type": "node", "id": 745814009, "lat": 11.0992162, "lon": 124.5536707, "tags": {"admin_level": "10", "is_in:town": "Ormoc City", "name": "San Jose", "nga:ufi": "-2450136", "place": "village", "place:PH": "barangay", "population": "4109", "source": "Bing; USGS, 2013-10-11; NGA", "source:population": "psgc"}}, {"type": "node", "id": 745859914, "lat": 11.0754481, "lon": 124.5553378, "tags": {"admin_level": "10", "admin_type:PH": "barangay", "is_in:city": "Ormoc", "name": "Labrador", "official_name": "Barangay Labrador", "old_name": "Balion", "place": "village", "population": "2273", "population:date": "2020-05-01", "postal_code": "6541"}}, {"type": "node", "id": 823554245, "lat": 11.1991123, "lon": 124.5371104, "tags": {"admin_level": "10", "is_in:town": "Kananga", "name": "Tagaytay", "place": "village", "place:PH": "barangay", "population": "2030", "source:population": "psgc"}}, {"type": "node", "id": 824616376, "lat": 11.134841, "lon": 124.5525772, "tags": {"admin_level": "10", "is_in:town": "Ormoc City", "name": "Matica-a", "place": "village", "place:PH": "barangay", "population": "2661", "source:population": "psgc"}}, {"type": "node", "id": 824616407, "lat": 11.1212188, "lon": 124.5626523, "tags": {"admin_level": "10", "is_in:town": "Ormoc City", "name": "Kadauhan", "place": "village", "place:PH": "barangay", "population": "1126", "source:population": "psgc"}}, {"type": "node", "id": 826335422, "lat": 11.168228, "lon": 124.5448457, "tags": {"admin_level": "10", "is_in:town": "Kananga", "name": "Tugbong", "place": "village", "place:PH": "barangay", "population": "2514", "source:population": "psgc"}}, {"type": "node", "id": 827480478, "lat": 11.1441693, "lon": 124.5304971, "tags": {"admin_level": "10", "is_in:town": "Ormoc City", "name": "Don Potenciano Larrazabal", "place": "village", "place:PH": "barangay", "population": "620", "source:population": "psgc"}}, {"type": "node", "id": 869220011, "lat": 11.0759449, "lon": 124.5259338, "tags": {"admin_level": "10", "is_in:town": "Ormoc City", "name": "Rufina M. Tan", "place": "village", "place:PH": "barangay", "population": "1493", "source:population": "psgc"}}, {"type": "node", "id": 869222373, "lat": 11.1057599, "lon": 124.4997047, "tags": {"admin_level": "10", "is_in:town": "Ormoc City", "name": "Manlilinao", "nga:ufi": "-2437982", "place": "village", "place:PH": "barangay", "population": "2054", "source": "Bing; USGS, 2013-10-11; NGA", "source:population": "psgc"}}, {"type": "node", "id": 869876879, "lat": 11.1168402, "lon": 124.5282884, "tags": {"admin_level": "10", "is_in:town": "Ormoc City", "name": "Guintigui-an", "place": "village", "place:PH": "barangay", "population": "1953", "source:population": "psgc"}}, {"type": "node", "id": 869899592, "lat": 11.0904072, "lon": 124.5369497, "tags": {"admin_level": "10", "is_in:town": "Ormoc City", "name": "Bayog", "place": "village", "place:PH": "barangay", "population": "801", "source:population": "psgc"}}, {"type": "node", "id": 892098542, "lat": 11.4884415, "lon": 124.2987908, "tags": {"admin_level": "10", "is_in:town": "San Isidro", "name": "Taglawigan", "place": "village", "place:PH": "barangay", "population": "1166", "source:population": "psgc"}}, {"type": "node", "id": 892720637, "lat": 11.4825246, "lon": 124.3976408, "tags": {"admin_level": "10", "is_in:town": "Calubian", "name": "Villanueva", "place": "village", "place:PH": "barangay", "population": "939", "source:population": "psgc"}}, {"type": "node", "id": 893307050, "lat": 11.4939967, "lon": 124.386258, "tags": {"is_in:town": "Calubian", "name": "Villahermosa", "place": "neighbourhood", "place:PH": "village", "population": "660", "source:population": "psgc"}}, {"type": "node", "id": 893307145, "lat": 11.5191379, "lon": 124.3658095, "tags": {"admin_level": "10", "is_in:town": "Calubian", "name": "Villalon", "place": "village", "place:PH": "barangay", "population": "985", "source:population": "psgc"}}, {"type": "node", "id": 910972325, "lat": 11.2276692, "lon": 124.5428464, "tags": {"admin_level": "10", "is_in:town": "Kananga", "name": "Libertad", "place": "village", "place:PH": "barangay", "population": "1133", "source:population": "psgc"}}, {"type": "node", "id": 1401439611, "lat": 11.3288278, "lon": 124.1212783}, {"type": "node", "id": 1401439612, "lat": 11.3293112, "lon": 124.1214533}, {"type": "node", "id": 1795599099, "lat": 11.329515, "lon": 124.1202427}, {"type": "node", "id": 1802655753, "lat": 11.3275638, "lon": 124.1132922}, {"type": "node", "id": 2334207292, "lat": 11.5126828, "lon": 124.444436, "tags": {"name": "Bantilan", "place": "hamlet"}}, {"type": "node", "id": 2334207293, "lat": 11.5002754, "lon": 124.4458821, "tags": {"name": "Campangos", "place": "village"}}, {"type": "node", "id": 2334207294, "lat": 11.4987417, "lon": 124.4825058, "tags": {"name": "Canila", "place": "village"}}, {"type": "node", "id": 2334207296, "lat": 11.4937022, "lon": 124.4897958, "tags": {"name": "Hugpa", "place": "village"}}, {"type": "node", "id": 2334207297, "lat": 11.5064742, "lon": 124.4711772, "tags": {"name": "Pinangomhan", "place": "village"}}, {"type": "node", "id": 2334216448, "lat": 11.5044764, "lon": 124.4354226, "tags": {"admin_level": "10", "admin_type:PH": "barangay", "is_in:town": "Biliran", "name": "Bato", "old_ref": "087802001", "place": "village", "population": "1961", "population:2015": "1705", "ref": "08007802001", "source:population": "Philippine Statistics Authority"}}, {"type": "node", "id": 2334225844, "lat": 11.4917782, "lon": 124.4475754, "tags": {"name": "Busale", "place": "village"}}, {"type": "node", "id": 2334267017, "lat": 11.4784873, "lon": 124.4538121, "tags": {"name": "Burabod", "place": "village"}}, {"type": "node", "id": 2528343543, "lat": 11.077, "lon": 124.5563, "tags": {"fixme": "Location approximate.", "name": "Salvacion", "nga:ufi": "-2448923", "place": "hamlet", "source": "Bing; USGS, 2013-10-11; NGA"}}, {"type": "node", "id": 2528663666, "lat": 11.1521298, "lon": 124.396138, "tags": {"name": "Abijao", "nga:ufi": "-2406821", "place": "village", "source": "Bing; USGS, 2013-10-11; NGA"}}, {"type": "node", "id": 2528663670, "lat": 11.0869, "lon": 124.444, "tags": {"name": "Agbanga", "nga:ufi": "-2407120", "place": "hamlet", "source": "Bing; USGS, 2013-10-11; NGA"}}, {"type": "node", "id": 2528663671, "lat": 11.0828686, "lon": 124.398986, "tags": {"name": "Himarco", "nga:ufi": "-2407948", "place": "village", "source": "Bing;USGS, 2013-10-11;NGA"}}, {"type": "node", "id": 2528663672, "lat": 11.1304, "lon": 124.4011, "tags": {"name": "Badiang daco", "nga:ufi": "-2409904", "place": "hamlet", "source": "Bing; USGS, 2013-10-11; NGA"}}, {"type": "node", "id": 2528663675, "lat": 11.1333, "lon": 124.5192, "tags": {"name": "Balagtas", "nga:ufi": "-2410716", "place": "hamlet", "source": "Bing; USGS, 2013-10-11; NGA"}}, {"type": "node", "id": 2528663682, "lat": 11.1556, "lon": 124.4229, "tags": {"name": "Botnga", "nga:ufi": "-2417154", "place": "hamlet", "source": "Bing; USGS, 2013-10-11; NGA"}}, {"type": "node", "id": 2528663691, "lat": 11.0831, "lon": 124.3886, "tags": {"name": "Cang Binos", "nga:ufi": "-2420188", "place": "hamlet", "source": "Bing; USGS, 2013-10-11; NGA"}}, {"type": "node", "id": 2528663693, "lat": 11.0893, "lon": 124.5308, "tags": {"name": "Colisao", "nga:ufi": "-2422250", "place": "hamlet", "source": "Bing; USGS, 2013-10-11; NGA"}}, {"type": "node", "id": 2528663694, "lat": 11.1446617, "lon": 124.5167948, "tags": {"name": "Dipi", "nga:ufi": "-2424742", "place": "hamlet", "source": "Bing; USGS, 2013-10-11; NGA"}}, {"type": "node", "id": 2528663696, "lat": 11.0864, "lon": 124.4124, "tags": {"fixme": "confirm name and location", "name": "Himarco", "nga:ufi": "-2427747", "place": "hamlet", "source": "Bing; USGS, 2013-10-11; NGA"}}, {"type": "node", "id": 2528663697, "lat": 11.1537, "lon": 124.4103, "tags": {"name": "Hubasan", "nga:ufi": "-2427948", "place": "hamlet", "source": "Bing; USGS, 2013-10-11; NGA"}}, {"type": "node", "id": 2528663698, "lat": 11.1637, "lon": 124.3927, "tags": {"name": "Jordan", "nga:ufi": "-2429355", "place": "village", "source": "Bing; USGS, 2013-10-11; NGA"}}, {"type": "node", "id": 2528663699, "lat": 11.0945, "lon": 124.4426, "tags": {"name": "Kampisao", "nga:ufi": "-2430948", "place": "hamlet", "source": "Bing; USGS, 2013-10-11; NGA"}}, {"type": "node", "id": 2528663701, "lat": 11.0914, "lon": 124.5466, "tags": {"name": "Katayum", "nga:ufi": "-2421477", "place": "hamlet", "source": "Bing; USGS, 2013-10-11; NGA"}}, {"type": "node", "id": 2528663702, "lat": 11.1213, "lon": 124.4812, "tags": {"name": "Kinigtasai", "nga:ufi": "-2430810", "place": "hamlet", "source": "Bing; USGS, 2013-10-11; NGA"}}, {"type": "node", "id": 2528663703, "lat": 11.1012, "lon": 124.4305, "tags": {"name": "Kunsab", "nga:ufi": "-2431071", "place": "hamlet", "source": "Bing; USGS, 2013-10-11; NGA"}}, {"type": "node", "id": 2528663704, "lat": 11.1618367, "lon": 124.5607722, "tags": {"admin_level": "10", "designation": "barangay", "is_in:town": "Kananga", "is_in:village": "Libongao", "name": "Libongao", "place": "village", "source": "Bing;USGS, 2013-10-11;NGA", "source:name": "extrapolated from OSMaPaaralan"}}, {"type": "node", "id": 2528663705, "lat": 11.1343, "lon": 124.4684, "tags": {"name": "Lifgong", "nga:ufi": "-2433028", "place": "hamlet", "source": "Bing; USGS, 2013-10-11; NGA"}}, {"type": "node", "id": 2528663707, "lat": 11.1015748, "lon": 124.3906513, "tags": {"name": "Lingganay", "nga:ufi": "-2433329", "place": "hamlet", "source": "Bing;USGS, 2013-10-11;NGA"}}, {"type": "node", "id": 2528663708, "lat": 11.1045, "lon": 124.4008, "tags": {"name": "Lomonon", "nga:ufi": "-2433778", "place": "village", "source": "Bing; USGS, 2013-10-11; NGA"}}, {"type": "node", "id": 2528663712, "lat": 11.1416, "lon": 124.4284, "tags": {"name": "Mansabaon", "nga:ufi": "-2438044", "place": "hamlet", "source": "Bing; USGS, 2013-10-11; NGA"}}, {"type": "node", "id": 2528663714, "lat": 11.1555, "lon": 124.4483, "tags": {"name": "Matagob", "nga:ufi": "10845233", "place": "hamlet", "source": "Bing; USGS, 2013-10-11; NGA"}}, {"type": "node", "id": 2528663715, "lat": 11.1119, "lon": 124.4956, "tags": {"name": "Matogob", "nga:ufi": "-2439315", "place": "hamlet", "source": "Bing; USGS, 2013-10-11; NGA"}}, {"type": "node", "id": 2528663718, "lat": 11.0892, "lon": 124.3866, "tags": {"name": "Ohaon", "nga:ufi": "-2442352", "place": "hamlet", "source": "Bing; USGS, 2013-10-11; NGA"}}, {"type": "node", "id": 2528664762, "lat": 11.1332001, "lon": 124.5554453, "tags": {"name": "Pagsangahan", "nga:ufi": "-2443089", "place": "hamlet", "source": "Bing; USGS, 2013-10-11; NGA"}}, {"type": "node", "id": 2528664766, "lat": 11.0795, "lon": 124.4172, "tags": {"name": "Palanas", "nga:ufi": "-2443323", "place": "hamlet", "source": "Bing; USGS, 2013-10-11; NGA"}}, {"type": "node", "id": 2528664770, "lat": 11.1311, "lon": 124.5423, "tags": {"name": "Panama", "nga:ufi": "-2443896", "place": "hamlet", "source": "Bing; USGS, 2013-10-11; NGA"}}, {"type": "node", "id": 2528664774, "lat": 11.0774, "lon": 124.5096, "tags": {"fixme": "Location approximate.", "name": "Picay", "nga:ufi": "-2445678", "place": "hamlet", "source": "Bing; USGS, 2013-10-11; NGA"}}, {"type": "node", "id": 2528664783, "lat": 11.0925, "lon": 124.4942, "tags": {"fixme": "Location approximate.", "name": "Puyao", "nga:ufi": "-2447376", "place": "hamlet", "source": "Bing; USGS, 2013-10-11; NGA"}}, {"type": "node", "id": 2528664787, "lat": 11.0780814, "lon": 124.3879772, "tags": {"name": "Sabang", "nga:ufi": "-2448276", "place": "village", "source": "Bing; USGS, 2013-10-11; NGA"}}, {"type": "node", "id": 2528664809, "lat": 11.1200057, "lon": 124.564108, "tags": {"name": "San Vicente", "nga:ufi": "-2452204", "place": "hamlet", "source": "Bing; USGS, 2013-10-11; NGA"}}, {"type": "node", "id": 2528664813, "lat": 11.0960407, "lon": 124.4176555, "tags": {"name": "Caduhaan", "nga:ufi": "-2451768", "place": "village", "source": "Bing;USGS, 2013-10-11;NGA"}}, {"type": "node", "id": 2528664817, "lat": 11.1227, "lon": 124.5198, "tags": {"fixme": "confirm name and position", "name": "Santa Rosario", "nga:ufi": "-2451801", "place": "hamlet", "source": "Bing; USGS, 2013-10-11; NGA"}}, {"type": "node", "id": 2528664839, "lat": 11.1122, "lon": 124.4022, "tags": {"name": "Tabonan", "nga:ufi": "-2454817", "place": "hamlet", "source": "Bing; USGS, 2013-10-11; NGA"}}, {"type": "node", "id": 2528664846, "lat": 11.1257, "lon": 124.4028, "tags": {"name": "Tagbubunga", "nga:ufi": "-2455244", "place": "village", "source": "Bing; USGS, 2013-10-11; NGA"}}, {"type": "node", "id": 2528664870, "lat": 11.094518, "lon": 124.3875303, "tags": {"name": "Tinabilan", "nga:ufi": "-2457713", "place": "village", "source": "Bing;USGS, 2013-10-11;NGA"}}, {"type": "node", "id": 2528664899, "lat": 11.1059, "lon": 124.4473, "tags": {"name": "Tipolo", "nga:ufi": "-2458006", "place": "hamlet", "source": "Bing; USGS, 2013-10-11; NGA"}}, {"type": "node", "id": 2528664902, "lat": 11.1364, "lon": 124.4, "tags": {"name": "Tuburan", "nga:ufi": "-2458668", "place": "hamlet", "source": "Bing; USGS, 2013-10-11; NGA"}}, {"type": "node", "id": 2528723638, "lat": 11.216667, "lon": 124.533333, "tags": {"name": "Agayan", "nga:ufi": "-2407093", "place": "hamlet", "source": "Bing; USGS, 2013-10-11; NGA"}}, {"type": "node", "id": 2528723641, "lat": 11.383333, "lon": 124.366667, "tags": {"fixme": "Location approximate.", "name": "Bangon", "nga:ufi": "-2412063", "place": "hamlet", "source": "Bing; USGS, 2013-10-11; NGA"}}, {"type": "node", "id": 2528723643, "lat": 11.222778, "lon": 124.535833, "tags": {"name": "Cabaluan", "nga:ufi": "9126717", "place": "hamlet", "source": "Bing; USGS, 2013-10-11; NGA"}}, {"type": "node", "id": 2528723644, "lat": 11.2504768, "lon": 124.4611976, "tags": {"name": "Calbugos", "nga:ufi": "-2418983", "place": "village", "source": "Bing; USGS, 2013-10-11; NGA"}}, {"type": "node", "id": 2528723650, "lat": 11.216667, "lon": 124.516667, "tags": {"name": "Lubiranan", "nga:ufi": "-2434098", "place": "hamlet", "source": "Bing; USGS, 2013-10-11; NGA"}}, {"type": "node", "id": 2528723651, "lat": 11.213889, "lon": 124.484444, "tags": {"name": "Maulayan", "nga:ufi": "-2439426", "place": "hamlet", "source": "Bing; USGS, 2013-10-11; NGA"}}, {"type": "node", "id": 2528723655, "lat": 11.4, "lon": 124.35, "tags": {"fixme": "Location approximate.", "name": "Tabing", "nga:ufi": "-2454718", "place": "hamlet", "source": "Bing; USGS, 2013-10-11; NGA"}}, {"type": "node", "id": 2528737260, "lat": 11.3880356, "lon": 124.4912214, "tags": {"name": "Burabud", "nga:ufi": "-2416848", "place": "hamlet", "source": "Bing; USGS, 2013-10-11; NGA"}}, {"type": "node", "id": 2528737265, "lat": 11.4478107, "lon": 124.4758119, "tags": {"name": "Manok", "nga:ufi": "-2438020", "place": "hamlet", "source": "Bing; USGS, 2013-10-11; NGA"}}, {"type": "node", "id": 2528737266, "lat": 11.3534938, "lon": 124.5477287, "tags": {"name": "Masalpi", "nga:ufi": "9129723", "place": "hamlet", "source": "Bing; USGS, 2013-10-11; NGA"}}, {"type": "node", "id": 2528737267, "lat": 11.3486197, "lon": 124.5488073, "tags": {"name": "Osme\u00f1a", "nga:ufi": "-2442629", "place": "hamlet", "source": "Bing; USGS, 2013-10-11; NGA"}}, {"type": "node", "id": 2528737269, "lat": 11.505, "lon": 124.3132, "tags": {"fixme": "Location approximate.", "name": "Pananawan", "nga:ufi": "-2443925", "place": "hamlet", "source": "Bing; USGS, 2013-10-11; NGA"}}, {"type": "node", "id": 2528737271, "lat": 11.3388858, "lon": 124.5509294, "tags": {"name": "Talisay", "nga:ufi": "-2446815", "place": "village", "source": "Bing;USGS, 2013-10-11;NGA"}}, {"type": "node", "id": 2532343537, "lat": 11.0902957, "lon": 124.4296003, "tags": {"fixme": "Copied from topo map, please add name and correct location, then remove this fixme.", "place": "hamlet", "source": "US Army Topo Map"}}, {"type": "node", "id": 2532343543, "lat": 11.0906381, "lon": 124.521064, "tags": {"fixme": "Copied from topo map, please add name and correct location, then remove this fixme.", "place": "hamlet", "source": "US Army Topo Map"}}, {"type": "node", "id": 2532343553, "lat": 11.0953407, "lon": 124.4729914, "tags": {"fixme": "Copied from topo map, please add name and correct location, then remove this fixme.", "place": "hamlet", "source": "US Army Topo Map"}}, {"type": "node", "id": 2532343556, "lat": 11.0963567, "lon": 124.5488845, "tags": {"fixme": "Copied from topo map, please add name and correct location, then remove this fixme.", "place": "hamlet", "source": "US Army Topo Map"}}, {"type": "node", "id": 2532343579, "lat": 11.1089303, "lon": 124.5460729, "tags": {"fixme": "Copied from topo map, please add name and correct location, then remove this fixme.", "place": "hamlet", "source": "US Army Topo Map"}}, {"type": "node", "id": 2532343589, "lat": 11.1105761, "lon": 124.5266281, "tags": {"fixme": "Copied from topo map, please add name and correct location, then remove this fixme.", "place": "hamlet", "source": "US Army Topo Map"}}, {"type": "node", "id": 2532343598, "lat": 11.1181101, "lon": 124.5319034, "tags": {"fixme": "Copied from topo map, please add name and correct location, then remove this fixme.", "place": "hamlet", "source": "US Army Topo Map"}}, {"type": "node", "id": 2532343601, "lat": 11.1264563, "lon": 124.5442681, "tags": {"fixme": "Copied from topo map, please add name and correct location, then remove this fixme.", "place": "hamlet", "source": "US Army Topo Map"}}, {"type": "node", "id": 2532343610, "lat": 11.1268707, "lon": 124.4626359, "tags": {"fixme": "Copied from topo map, please add name and correct location, then remove this fixme.", "place": "hamlet", "source": "US Army Topo Map"}}, {"type": "node", "id": 2532343613, "lat": 11.1272885, "lon": 124.5597587, "tags": {"fixme": "Copied from topo map, please add name and correct location, then remove this fixme.", "place": "hamlet", "source": "US Army Topo Map"}}, {"type": "node", "id": 2532343616, "lat": 11.1304748, "lon": 124.5031555, "tags": {"fixme": "Copied from topo map, please add name and correct location, then remove this fixme.", "place": "hamlet", "source": "US Army Topo Map"}}, {"type": "node", "id": 2532343619, "lat": 11.1351115, "lon": 124.4700799, "tags": {"fixme": "Copied from topo map, please add name and correct location, then remove this fixme.", "place": "hamlet", "source": "US Army Topo Map"}}, {"type": "node", "id": 2532343622, "lat": 11.1393899, "lon": 124.4524351, "tags": {"fixme": "Copied from topo map, please add name and correct location, then remove this fixme.", "place": "hamlet", "source": "US Army Topo Map"}}, {"type": "node", "id": 2532343628, "lat": 11.145467, "lon": 124.5308215, "tags": {"fixme": "Copied from topo map, please add name and correct location, then remove this fixme.", "place": "hamlet", "source": "US Army Topo Map"}}, {"type": "node", "id": 2532343631, "lat": 11.1473217, "lon": 124.5158293, "tags": {"fixme": "Copied from topo map, please add name and correct location, then remove this fixme.", "place": "hamlet", "source": "US Army Topo Map"}}, {"type": "node", "id": 2532343635, "lat": 11.1569437, "lon": 124.4193644, "tags": {"fixme": "Copied from topo map, please add name and correct location, then remove this fixme.", "place": "hamlet", "source": "US Army Topo Map"}}, {"type": "node", "id": 2532343647, "lat": 11.1604591, "lon": 124.5419497, "tags": {"fixme": "Copied from topo map, please add name and correct location, then remove this fixme.", "place": "hamlet", "source": "US Army Topo Map"}}, {"type": "node", "id": 2532343651, "lat": 11.1611478, "lon": 124.4829485, "tags": {"admin_level": "10", "designation": "barangay", "name": "Santo Rosario", "place": "village"}}, {"type": "node", "id": 2532343655, "lat": 11.1607683, "lon": 124.5340672, "tags": {"fixme": "Copied from topo map, please add name and correct location, then remove this fixme.", "place": "hamlet", "source": "US Army Topo Map"}}, {"type": "node", "id": 2532343660, "lat": 11.1610774, "lon": 124.4957367, "tags": {"fixme": "Copied from topo map, please add name and correct location, then remove this fixme.", "place": "hamlet", "source": "US Army Topo Map"}}, {"type": "node", "id": 2532343671, "lat": 11.1641426, "lon": 124.5215753, "tags": {"name": "Cacao", "place": "village", "source": "US Army Topo Map"}}, {"type": "node", "id": 2532343682, "lat": 11.1691938, "lon": 124.4417735, "tags": {"fixme": "Copied from topo map, please add name and correct location, then remove this fixme.", "place": "hamlet", "source": "US Army Topo Map"}}, {"type": "node", "id": 2532343688, "lat": 11.1697327, "lon": 124.5419497, "tags": {"fixme": "Copied from topo map, please add name and correct location, then remove this fixme.", "place": "hamlet", "source": "US Army Topo Map"}}, {"type": "node", "id": 2532343693, "lat": 11.1715381, "lon": 124.3988032, "tags": {"fixme": "Copied from topo map, please add name and correct location, then remove this fixme.", "place": "hamlet", "source": "US Army Topo Map"}}, {"type": "node", "id": 2532343699, "lat": 11.1757604, "lon": 124.5337581, "tags": {"fixme": "Copied from topo map, please add name and correct location, then remove this fixme.", "place": "hamlet", "source": "US Army Topo Map"}}, {"type": "node", "id": 2532343704, "lat": 11.1803972, "lon": 124.5042374, "tags": {"fixme": "Copied from topo map, please add name and correct location, then remove this fixme.", "place": "hamlet", "source": "US Army Topo Map"}}, {"type": "node", "id": 2532343708, "lat": 11.1847642, "lon": 124.4479577, "tags": {"fixme": "Copied from topo map, please add name and correct location, then remove this fixme.", "place": "hamlet", "source": "US Army Topo Map"}}, {"type": "node", "id": 2532343714, "lat": 11.185034, "lon": 124.5203115, "tags": {"fixme": "Copied from topo map, please add name and correct location, then remove this fixme.", "place": "hamlet", "source": "US Army Topo Map"}}, {"type": "node", "id": 2532343737, "lat": 11.2015225, "lon": 124.4185867, "tags": {"fixme": "Copied from topo map, please add name and correct location, then remove this fixme.", "place": "hamlet", "source": "US Army Topo Map"}}, {"type": "node", "id": 2532343744, "lat": 11.2147092, "lon": 124.5560145, "tags": {"fixme": "Copied from topo map, please add name and correct location, then remove this fixme.", "place": "hamlet", "source": "US Army Topo Map"}}, {"type": "node", "id": 2532343804, "lat": 11.2253178, "lon": 124.3964352, "tags": {"name": "Silad", "place": "village", "source": "US Army Topo Map"}}, {"type": "node", "id": 2532343813, "lat": 11.2325628, "lon": 124.4491923, "tags": {"fixme": "Copied from topo map, please add name and correct location, then remove this fixme.", "place": "hamlet", "source": "US Army Topo Map"}}, {"type": "node", "id": 2532343818, "lat": 11.2384607, "lon": 124.4047703, "tags": {"name": "Hinabuyan", "place": "village", "source": "US Army Topo Map"}}, {"type": "node", "id": 2532343821, "lat": 11.2378178, "lon": 124.462948, "tags": {"fixme": "Copied from topo map, please add name and correct location, then remove this fixme.", "place": "hamlet", "source": "US Army Topo Map"}}, {"type": "node", "id": 2532343833, "lat": 11.2455457, "lon": 124.5583107, "tags": {"fixme": "Copied from topo map, please add name and correct location, then remove this fixme.", "place": "hamlet", "source": "US Army Topo Map"}}, {"type": "node", "id": 2532343840, "lat": 11.2548192, "lon": 124.5431639, "tags": {"fixme": "Copied from topo map, please add name and correct location, then remove this fixme.", "place": "hamlet", "source": "US Army Topo Map"}}, {"type": "node", "id": 2532343863, "lat": 11.2778485, "lon": 124.4060705, "tags": {"fixme": "Copied from topo map, please add name and correct location, then remove this fixme.", "place": "hamlet", "source": "US Army Topo Map"}}, {"type": "node", "id": 2532343887, "lat": 11.2922224, "lon": 124.3709857, "tags": {"fixme": "Copied from topo map, please add name and correct location, then remove this fixme.", "place": "hamlet", "source": "US Army Topo Map"}}, {"type": "node", "id": 2532343904, "lat": 11.2967983, "lon": 124.5323662, "tags": {"fixme": "Copied from topo map, please add name and correct location, then remove this fixme.", "place": "hamlet", "source": "US Army Topo Map"}}, {"type": "node", "id": 2532343917, "lat": 11.3053599, "lon": 124.4827315, "tags": {"fixme": "Copied from topo map, please add name and correct location, then remove this fixme.", "place": "hamlet", "source": "US Army Topo Map"}}, {"type": "node", "id": 2532343920, "lat": 11.3093784, "lon": 124.3620213, "tags": {"fixme": "Copied from topo map, please add name and correct location, then remove this fixme.", "place": "hamlet", "source": "US Army Topo Map"}}, {"type": "node", "id": 2532343934, "lat": 11.319557, "lon": 124.5346489, "tags": {"fixme": "Copied from topo map, please add name and correct location, then remove this fixme.", "place": "hamlet", "source": "US Army Topo Map"}}, {"type": "node", "id": 2532343938, "lat": 11.3199688, "lon": 124.5469245, "tags": {"fixme": "Copied from topo map, please add name and correct location, then remove this fixme.", "place": "hamlet", "source": "US Army Topo Map"}}, {"type": "node", "id": 2532343974, "lat": 11.3250215, "lon": 124.5198949, "tags": {"fixme": "Copied from topo map, please add name and correct location, then remove this fixme.", "place": "hamlet", "source": "US Army Topo Map"}}, {"type": "node", "id": 2532343984, "lat": 11.3269981, "lon": 124.3420832, "tags": {"fixme": "Copied from topo map, please add name and correct location, then remove this fixme.", "place": "hamlet", "source": "US Army Topo Map"}}, {"type": "node", "id": 2532343990, "lat": 11.3320151, "lon": 124.532048, "tags": {"name": "Macupa", "place": "village", "source": "US Army Topo Map"}}, {"type": "node", "id": 2532343993, "lat": 11.3341329, "lon": 124.5406925, "tags": {"fixme": "Copied from topo map, please add name and correct location, then remove this fixme.", "place": "hamlet", "source": "US Army Topo Map"}}, {"type": "node", "id": 2532343995, "lat": 11.3365807, "lon": 124.3875235, "tags": {"fixme": "Copied from topo map, please add name and correct location, then remove this fixme.", "place": "hamlet", "source": "US Army Topo Map"}}, {"type": "node", "id": 2532344001, "lat": 11.3395011, "lon": 124.536676, "tags": {"fixme": "Copied from topo map, please add name and correct location, then remove this fixme.", "place": "hamlet", "source": "US Army Topo Map"}}, {"type": "node", "id": 2532344004, "lat": 11.3433132, "lon": 124.5215669, "tags": {"fixme": "Copied from topo map, please add name and correct location, then remove this fixme.", "place": "hamlet", "source": "US Army Topo Map"}}, {"type": "node", "id": 2532344007, "lat": 11.3503018, "lon": 124.3403028, "tags": {"admin_level": "10", "admin_type:PH": "barangay", "is_in:town": "Tabango", "name": "Santa Rosa", "old_ref": "083745012", "place": "village", "population": "1116", "population:2015": "986", "source": "US Army Topo Map"}}, {"type": "node", "id": 2532344010, "lat": 11.352617, "lon": 124.5251974, "tags": {"admin_level": "10", "admin_type:PH": "barangay", "is_in:city": "Leyte", "name": "Libas", "old_ref": "083729013", "place": "village", "population": "2134", "population:2015": "2150", "ref": "0803729013", "source": "US Army Topo Map", "source:population": "Philippine Statistics Authority"}}, {"type": "node", "id": 2532344024, "lat": 11.3707378, "lon": 124.5455, "tags": {"admin_level": "10", "admin_type:PH": "barangay", "is_in:town": "Capoocan", "name": "Guinadiongan", "old_ref": "083714008", "place": "village", "population": "494", "population:2015": "649", "ref": "0803714008", "source": "US Army Topo Map", "source:population": "Philippine Statistics Authority"}}, {"type": "node", "id": 2532344027, "lat": 11.3718378, "lon": 124.5164303, "tags": {"fixme": "Copied from topo map, please add name and correct location, then remove this fixme.", "place": "hamlet", "source": "US Army Topo Map"}}, {"type": "node", "id": 2532344031, "lat": 11.3784793, "lon": 124.3821403, "tags": {"name": "Banat-i", "place": "village", "source": "US Army Topo Map"}}, {"type": "node", "id": 2532344034, "lat": 11.3817118, "lon": 124.4413098, "tags": {"fixme": "Copied from topo map, please add name and correct location, then remove this fixme.", "place": "hamlet", "source": "US Army Topo Map"}}, {"type": "node", "id": 2532344041, "lat": 11.3854212, "lon": 124.3326552, "tags": {"fixme": "Copied from topo map, please add name and correct location, then remove this fixme.", "place": "hamlet", "source": "US Army Topo Map"}}, {"type": "node", "id": 2532344045, "lat": 11.3878664, "lon": 124.539206, "tags": {"admin_level": "10", "admin_type:PH": "barangay", "is_in:town": "Capoocan", "name": "Libertad", "old_ref": "083714010", "place": "village", "population": "1119", "population:2015": "1136", "ref": "0803714010", "source": "US Army Topo Map", "source:population": "Philippine Statistics Authority"}}, {"type": "node", "id": 2532344051, "lat": 11.393805, "lon": 124.5374139, "tags": {"fixme": "Copied from topo map, please add name and correct location, then remove this fixme.", "place": "hamlet", "source": "US Army Topo Map"}}, {"type": "node", "id": 2532344053, "lat": 11.4009041, "lon": 124.4574371, "tags": {"name": "Toctoc", "place": "village", "source": "US Army Topo Map"}}, {"type": "node", "id": 2532344055, "lat": 11.399414, "lon": 124.5364049, "tags": {"admin_level": "10", "admin_type:PH": "barangay", "is_in:town": "Capoocan", "name": "Potot", "old_ref": "083714017", "place": "village", "population": "846", "population:2015": "853", "ref": "0803714017", "source": "US Army Topo Map", "source:population": "Philippine Statistics Authority"}}, {"type": "node", "id": 2532344058, "lat": 11.40335, "lon": 124.3827321, "tags": {"fixme": "Copied from topo map, please add name and correct location, then remove this fixme.", "place": "hamlet", "source": "US Army Topo Map"}}, {"type": "node", "id": 2532344061, "lat": 11.4052803, "lon": 124.5185068, "tags": {"fixme": "Copied from topo map, please add name and correct location, then remove this fixme.", "place": "hamlet", "source": "US Army Topo Map"}}, {"type": "node", "id": 2532344063, "lat": 11.407214, "lon": 124.3510476, "tags": {"fixme": "Copied from topo map, please add name and correct location, then remove this fixme.", "place": "hamlet", "source": "US Army Topo Map"}}, {"type": "node", "id": 2532344066, "lat": 11.4095426, "lon": 124.5357745, "tags": {"fixme": "Copied from topo map, please add name and correct location, then remove this fixme.", "place": "hamlet", "source": "US Army Topo Map"}}, {"type": "node", "id": 2532344068, "lat": 11.4106408, "lon": 124.4531815, "tags": {"fixme": "Copied from topo map, please add name and correct location, then remove this fixme.", "place": "hamlet", "source": "US Army Topo Map"}}, {"type": "node", "id": 2532344071, "lat": 11.4196442, "lon": 124.4803249, "tags": {"name": "Palarao", "place": "village", "source": "US Army Topo Map"}}, {"type": "node", "id": 2532344077, "lat": 11.4232038, "lon": 124.5356652, "tags": {"fixme": "Copied from topo map, please add name and correct location, then remove this fixme.", "place": "hamlet", "source": "US Army Topo Map"}}, {"type": "node", "id": 2532344079, "lat": 11.4282311, "lon": 124.5298729, "tags": {"fixme": "Copied from topo map, please add name and correct location, then remove this fixme.", "place": "hamlet", "source": "US Army Topo Map"}}, {"type": "node", "id": 2532344082, "lat": 11.4300487, "lon": 124.5068894, "tags": {"fixme": "Copied from topo map, please add name and correct location, then remove this fixme.", "place": "hamlet", "source": "US Army Topo Map"}}, {"type": "node", "id": 2532344085, "lat": 11.4319625, "lon": 124.4671402, "tags": {"name": "Kawayan", "place": "village", "source": "US Army Topo Map"}}, {"type": "node", "id": 2532344090, "lat": 11.4357721, "lon": 124.5211297, "tags": {"fixme": "Copied from topo map, please add name and correct location, then remove this fixme.", "place": "hamlet", "source": "US Army Topo Map"}}, {"type": "node", "id": 2532344093, "lat": 11.4377166, "lon": 124.5063806, "tags": {"name": "Culasi", "place": "village", "source": "US Army Topo Map"}}, {"type": "node", "id": 2532344136, "lat": 11.4419897, "lon": 124.3927784, "tags": {"fixme": "Copied from topo map, please add name and correct location, then remove this fixme.", "place": "hamlet", "source": "US Army Topo Map"}}, {"type": "node", "id": 2532344139, "lat": 11.4421442, "lon": 124.3325006, "tags": {"name": "San Miguel", "place": "village", "source": "US Army Topo Map"}}, {"type": "node", "id": 2532344142, "lat": 11.4438167, "lon": 124.3136527, "tags": {"name": "Tinago", "place": "village", "source": "US Army Topo Map"}}, {"type": "node", "id": 2532344146, "lat": 11.4446188, "lon": 124.4284507, "tags": {"fixme": "Copied from topo map, please add name and correct location, then remove this fixme.", "place": "hamlet", "source": "US Army Topo Map"}}, {"type": "node", "id": 2532344151, "lat": 11.4478378, "lon": 124.4843128, "tags": {"name": "Bachao", "place": "village", "source": "US Army Topo Map"}}, {"type": "node", "id": 2532344197, "lat": 11.4562647, "lon": 124.3101245, "tags": {"name": "Daha", "place": "hamlet", "source": "US Army Topo Map"}}, {"type": "node", "id": 2532344215, "lat": 11.4763109, "lon": 124.5611533, "tags": {"fixme": "Copied from topo map, please add name and correct location, then remove this fixme.", "place": "hamlet", "source": "US Army Topo Map"}}, {"type": "node", "id": 2532344218, "lat": 11.47662, "lon": 124.5328691, "tags": {"fixme": "Copied from topo map, please add name and correct location, then remove this fixme.", "place": "hamlet", "source": "US Army Topo Map"}}, {"type": "node", "id": 2532344225, "lat": 11.4786135, "lon": 124.4544632, "tags": {"fixme": "Copied from topo map, please add name and correct location, then remove this fixme.", "place": "hamlet", "source": "US Army Topo Map"}}, {"type": "node", "id": 2532344229, "lat": 11.4789384, "lon": 124.5546619, "tags": {"fixme": "Copied from topo map, please add name and correct location, then remove this fixme.", "place": "hamlet", "source": "US Army Topo Map"}}, {"type": "node", "id": 2532344232, "lat": 11.4798657, "lon": 124.545852, "tags": {"fixme": "Copied from topo map, please add name and correct location, then remove this fixme.", "place": "hamlet", "source": "US Army Topo Map"}}, {"type": "node", "id": 2532344238, "lat": 11.4809384, "lon": 124.3320369, "tags": {"fixme": "Copied from topo map, please add name and correct location, then remove this fixme.", "place": "hamlet", "source": "US Army Topo Map"}}, {"type": "node", "id": 2532344241, "lat": 11.4868208, "lon": 124.5240593, "tags": {"fixme": "Copied from topo map, please add name and correct location, then remove this fixme.", "place": "hamlet", "source": "US Army Topo Map"}}, {"type": "node", "id": 2532344251, "lat": 11.4880946, "lon": 124.4435618, "tags": {"place": "hamlet", "source": "US Army Topo Map"}}, {"type": "node", "id": 2532344257, "lat": 11.4861948, "lon": 124.3433981, "tags": {"admin_level": "10", "designation": "barangay", "is_in:town": "Calubian", "name": "Bunacan", "place": "village", "source": "US Army Topo Map"}}, {"type": "node", "id": 2532344267, "lat": 11.5002674, "lon": 124.5336419, "tags": {"fixme": "Copied from topo map, please add name and correct location, then remove this fixme.", "place": "hamlet", "source": "US Army Topo Map"}}, {"type": "node", "id": 2532344285, "lat": 11.5022767, "lon": 124.5620807, "tags": {"fixme": "Copied from topo map, please add name and correct location, then remove this fixme.", "place": "hamlet", "source": "US Army Topo Map"}}, {"type": "node", "id": 2532344304, "lat": 11.516796, "lon": 124.2901516, "tags": {"fixme": "Copied from topo map, please add name and correct location, then remove this fixme.", "place": "hamlet", "source": "US Army Topo Map"}}, {"type": "node", "id": 2532483129, "lat": 11.077523, "lon": 124.5541383, "tags": {"fixme": "Copied from topo map, please add name and correct location, then remove this fixme.", "place": "hamlet", "source": "US Army Topo Map"}}, {"type": "node", "id": 2532483138, "lat": 11.0795455, "lon": 124.5090124, "tags": {"fixme": "Copied from topo map, please add name and correct location, then remove this fixme.", "place": "hamlet", "source": "US Army Topo Map"}}, {"type": "node", "id": 2532483140, "lat": 11.0872638, "lon": 124.3934305, "tags": {"fixme": "Copied from topo map, please add name and correct location, then remove this fixme.", "place": "hamlet", "source": "US Army Topo Map"}}, {"type": "node", "id": 2532483143, "lat": 11.1003105, "lon": 124.5537118, "tags": {"fixme": "Copied from topo map, please add name and correct location, then remove this fixme.", "place": "hamlet", "source": "US Army Topo Map"}}, {"type": "node", "id": 2532483149, "lat": 11.1124956, "lon": 124.403756, "tags": {"fixme": "Copied from topo map, please add name and correct location, then remove this fixme.", "place": "hamlet", "source": "US Army Topo Map"}}, {"type": "node", "id": 2532483150, "lat": 11.1124956, "lon": 124.4150129, "tags": {"fixme": "Copied from topo map, please add name and correct location, then remove this fixme.", "place": "hamlet", "source": "US Army Topo Map"}}, {"type": "node", "id": 2532483175, "lat": 11.1550092, "lon": 124.4491112, "tags": {"fixme": "Copied from topo map, please add name and correct location, then remove this fixme.", "place": "hamlet", "source": "US Army Topo Map"}}, {"type": "node", "id": 2532483176, "lat": 11.156376, "lon": 124.5645314, "tags": {"fixme": "Copied from topo map, please add name and correct location, then remove this fixme.", "place": "hamlet", "source": "US Army Topo Map"}}, {"type": "node", "id": 2532483177, "lat": 11.1564853, "lon": 124.5200506, "tags": {"fixme": "Copied from topo map, please add name and correct location, then remove this fixme.", "place": "hamlet", "source": "US Army Topo Map"}}, {"type": "node", "id": 2532483189, "lat": 11.1883978, "lon": 124.4729469, "tags": {"fixme": "Copied from topo map, please add name and correct location, then remove this fixme.", "place": "hamlet", "source": "US Army Topo Map"}}, {"type": "node", "id": 2532483193, "lat": 11.2120582, "lon": 124.4199309, "tags": {"fixme": "Copied from topo map, please add name and correct location, then remove this fixme.", "place": "hamlet", "source": "US Army Topo Map"}}, {"type": "node", "id": 2532483197, "lat": 11.2472543, "lon": 124.3948463, "tags": {"name": "Libagong", "place": "village", "source": "US Army Topo Map"}}, {"type": "node", "id": 2532483198, "lat": 11.2601356, "lon": 124.3927867, "tags": {"fixme": "Copied from topo map, please add name and correct location, then remove this fixme.", "name": "Inangatan", "place": "hamlet", "source": "US Army Topo Map"}}, {"type": "node", "id": 2532483199, "lat": 11.2669215, "lon": 124.4246303, "tags": {"fixme": "Copied from topo map, please add name and correct location, then remove this fixme.", "place": "hamlet", "source": "US Army Topo Map"}}, {"type": "node", "id": 2532483201, "lat": 11.306375, "lon": 124.422226, "tags": {"fixme": "Copied from topo map, please add name and correct location, then remove this fixme.", "place": "hamlet", "source": "US Army Topo Map"}}, {"type": "node", "id": 2541435865, "lat": 11.1679859, "lon": 124.4155256, "tags": {"name": "Jalas", "place": "village"}}, {"type": "node", "id": 2541442438, "lat": 11.1891847, "lon": 124.4088303, "tags": {"name": "Catagbacan", "place": "village"}}, {"type": "node", "id": 2541453827, "lat": 11.201799, "lon": 124.4099085, "tags": {"name": "Tinghub", "place": "village"}}, {"type": "node", "id": 2542632596, "lat": 11.1582354, "lon": 124.5051955, "tags": {"name": "San Vicente", "place": "village"}}, {"type": "node", "id": 2988983041, "lat": 11.2719951, "lon": 124.4005587, "tags": {"addr:postcode": "6536", "name": "Kasya", "place": "village"}}, {"type": "node", "id": 2988983042, "lat": 11.2870037, "lon": 124.3915886}, {"type": "node", "id": 2988983043, "lat": 11.2875506, "lon": 124.3911213}, {"type": "node", "id": 2988983044, "lat": 11.2883882, "lon": 124.3954423}, {"type": "node", "id": 2988983045, "lat": 11.2884128, "lon": 124.3945077}, {"type": "node", "id": 2988983046, "lat": 11.288467, "lon": 124.3921764}, {"type": "node", "id": 2988983047, "lat": 11.2890681, "lon": 124.3955528}, {"type": "node", "id": 2988983048, "lat": 11.2895264, "lon": 124.3929803}, {"type": "node", "id": 2988983049, "lat": 11.2895609, "lon": 124.3955327}, {"type": "node", "id": 2988983050, "lat": 11.2899846, "lon": 124.3921563}, {"type": "node", "id": 2988983051, "lat": 11.2900289, "lon": 124.3929502}, {"type": "node", "id": 2999537580, "lat": 11.2997608, "lon": 124.3794732, "tags": {"admin_level": "11", "designation": "sitio", "name": "Otabon", "place": "neighbourhood"}}, {"type": "node", "id": 2999537581, "lat": 11.2942306, "lon": 124.4052949}, {"type": "node", "id": 2999537582, "lat": 11.2945013, "lon": 124.4034224}, {"type": "node", "id": 2999537583, "lat": 11.2951722, "lon": 124.4044427}, {"type": "node", "id": 2999537584, "lat": 11.2962081, "lon": 124.4026061}, {"type": "node", "id": 2999537585, "lat": 11.2963023, "lon": 124.4081158}, {"type": "node", "id": 2999537586, "lat": 11.2975971, "lon": 124.4030382}, {"type": "node", "id": 2999537587, "lat": 11.2977737, "lon": 124.4099043}, {"type": "node", "id": 2999537588, "lat": 11.2983269, "lon": 124.4044307}, {"type": "node", "id": 2999537589, "lat": 11.2991156, "lon": 124.4092561}, {"type": "node", "id": 2999537590, "lat": 11.2992921, "lon": 124.405655}, {"type": "node", "id": 2999537593, "lat": 11.2995511, "lon": 124.4086319}, {"type": "node", "id": 2999537594, "lat": 11.2999513, "lon": 124.4075396}, {"type": "node", "id": 3430066029, "lat": 11.3061737, "lon": 124.371579, "tags": {"admin_level": "6", "designation": "municipality", "name": "Tabango", "old_ref": "083745000", "place": "town", "population": "33868", "population:date": "2020-05-01", "ref": "0803745000", "source:population": "Philippine Statistics Authority", "wikidata": "Q213400", "wikimedia_commons": "Category:Tabango", "wikipedia": "en:Tabango"}}, {"type": "node", "id": 4003631507, "lat": 11.3400511, "lon": 124.1172754, "tags": {"name": "Sea Vida Village", "place": "neighbourhood"}}, {"type": "node", "id": 4161475894, "lat": 11.3285713, "lon": 124.1168321}, {"type": "node", "id": 4342464490, "lat": 11.1054772, "lon": 124.5219173, "tags": {"is_in:village": "Leondoni", "name": "Kapawan", "place": "neighbourhood"}}, {"type": "node", "id": 4426101649, "lat": 11.201527, "lon": 124.4794264, "tags": {"admin_level": "10", "admin_type:PH": "barangay", "is_in:postcode": "6537", "is_in:province": "Leyte", "is_in:town": "Villaba", "name": "Sambulawan", "place": "village", "population": "1117", "population:2015": "958", "population:date": "2020-05-01", "ref": "083751024", "source:name": "extrapolated from OSMaPaaralan, way/933123793", "source:population": "Philippine Statistics Authority"}}, {"type": "node", "id": 4426105200, "lat": 11.1763367, "lon": 124.4672758, "tags": {"alt_name": "Casilion", "name": "Casili-on", "place": "village"}}, {"type": "node", "id": 4426107530, "lat": 11.1583994, "lon": 124.4684018, "tags": {"name": "Mansahaon", "place": "village"}}, {"type": "node", "id": 4426113483, "lat": 11.1452932, "lon": 124.453998, "tags": {"name": "Cansoso", "place": "village"}}, {"type": "node", "id": 4923403929, "lat": 11.3335985, "lon": 124.1149443}, {"type": "node", "id": 4923404799, "lat": 11.3267266, "lon": 124.1138237}, {"type": "node", "id": 4923511291, "lat": 11.3305331, "lon": 124.1143828}, {"type": "node", "id": 4923511378, "lat": 11.331471, "lon": 124.1137843}, {"type": "node", "id": 4924030826, "lat": 11.3455964, "lon": 124.1098948}, {"type": "node", "id": 4924030839, "lat": 11.344202, "lon": 124.1112784}, {"type": "node", "id": 4924030840, "lat": 11.3442177, "lon": 124.1111279}, {"type": "node", "id": 4924030841, "lat": 11.3443932, "lon": 124.1110146}, {"type": "node", "id": 4924030842, "lat": 11.344505, "lon": 124.1108376}, {"type": "node", "id": 4924030843, "lat": 11.3441644, "lon": 124.110389}, {"type": "node", "id": 4924030844, "lat": 11.3444379, "lon": 124.110102}, {"type": "node", "id": 4924030845, "lat": 11.34472, "lon": 124.1097701}, {"type": "node", "id": 4924030846, "lat": 11.3448058, "lon": 124.1093704}, {"type": "node", "id": 4924030847, "lat": 11.3447418, "lon": 124.1091212}, {"type": "node", "id": 4924030848, "lat": 11.3448654, "lon": 124.1090825}, {"type": "node", "id": 4924030849, "lat": 11.3452847, "lon": 124.1089681}, {"type": "node", "id": 4924030850, "lat": 11.3458488, "lon": 124.1088005}, {"type": "node", "id": 4924030851, "lat": 11.3454747, "lon": 124.1105442}, {"type": "node", "id": 4924030852, "lat": 11.3451795, "lon": 124.1108973}, {"type": "node", "id": 4924030853, "lat": 11.3450638, "lon": 124.1116241}, {"type": "node", "id": 4924031208, "lat": 11.3429337, "lon": 124.1127299}, {"type": "node", "id": 4924031209, "lat": 11.3426418, "lon": 124.1123316}, {"type": "node", "id": 4924031210, "lat": 11.3419777, "lon": 124.1122296}, {"type": "node", "id": 4924031211, "lat": 11.3414189, "lon": 124.1133508}, {"type": "node", "id": 4924031212, "lat": 11.341624, "lon": 124.1136579}, {"type": "node", "id": 4924031213, "lat": 11.3421043, "lon": 124.1137186}, {"type": "node", "id": 4924031214, "lat": 11.3422105, "lon": 124.1131798}, {"type": "node", "id": 4924031215, "lat": 11.3423301, "lon": 124.1131463}, {"type": "node", "id": 4924031216, "lat": 11.3425767, "lon": 124.1133045}, {"type": "node", "id": 4924031217, "lat": 11.3424767, "lon": 124.1135466}, {"type": "node", "id": 4924031218, "lat": 11.342622, "lon": 124.1137075}, {"type": "node", "id": 4924031219, "lat": 11.3429061, "lon": 124.1139194}, {"type": "node", "id": 4924031220, "lat": 11.3431506, "lon": 124.1139476}, {"type": "node", "id": 4924031221, "lat": 11.3435221, "lon": 124.1132073}, {"type": "node", "id": 4924043422, "lat": 11.3452877, "lon": 124.110681}, {"type": "node", "id": 4924043423, "lat": 11.345386, "lon": 124.1105576}, {"type": "node", "id": 4924043428, "lat": 11.3452456, "lon": 124.1108312}, {"type": "node", "id": 4927724896, "lat": 11.3298429, "lon": 124.1215439}, {"type": "node", "id": 5635054723, "lat": 11.2649354, "lon": 124.4298591, "tags": {"admin_level": "10", "admin_type:PH": "barangay", "is_in:town": "Villaba", "name": "Cagnocot", "old_ref": "083751006", "place": "village", "population": "3288", "population:2015": "3109", "ref": "0803751006", "source:population": "Philippine Statistics Authority"}}, {"type": "node", "id": 6014360459, "lat": 11.3268043, "lon": 124.1125394}, {"type": "node", "id": 6142109092, "lat": 11.3274699, "lon": 124.1118327}, {"type": "node", "id": 6466224187, "lat": 11.2712483, "lon": 124.5445062, "tags": {"name": "Balugo", "place": "hamlet"}}, {"type": "node", "id": 6466230285, "lat": 11.2672267, "lon": 124.5326843, "tags": {"name": "Kabariwan", "place": "hamlet"}}, {"type": "node", "id": 6631662631, "lat": 11.3270307, "lon": 124.1140482}, {"type": "node", "id": 6631662649, "lat": 11.3311729, "lon": 124.1141917}, {"type": "node", "id": 6631662651, "lat": 11.3312557, "lon": 124.1140817}, {"type": "node", "id": 6631662655, "lat": 11.3277145, "lon": 124.1127567}, {"type": "node", "id": 6631662742, "lat": 11.3386063, "lon": 124.1180862}, {"type": "node", "id": 7647692561, "lat": 11.4793255, "lon": 124.465962, "tags": {"admin_level": "11", "designation": "sitio", "name": "Ponkay", "place": "neighbourhood"}}, {"type": "node", "id": 8395741383, "lat": 11.43323, "lon": 124.4363773, "tags": {"admin_level": "10", "designation": "barangay", "is_in:town": "Calubian", "name": "Gutosan", "place": "village", "source:name": "extrapolated from OSMaPaaralan, way/904007350"}}, {"type": "node", "id": 8413498662, "lat": 11.2166509, "lon": 124.4092628, "tags": {"admin_level": "10", "designation": "barangay", "is_in:town": "Villaba", "name": "A. Tumamak", "place": "village", "source:name": "extrapolated from OSMaPaaralan, way/906004386"}}, {"type": "node", "id": 8414099964, "lat": 11.257219, "lon": 124.5366986, "tags": {"admin_level": "10", "designation": "barangay", "is_in:town": "Leyte", "name": "Tapol", "place": "village", "source:name": "extrapolated from OSMaPaaralan, way/906062328"}}, {"type": "node", "id": 8414170561, "lat": 11.2465846, "lon": 124.502711, "tags": {"admin_level": "10", "designation": "barangay", "is_in:town": "Leyte", "name": "Mataloto", "place": "village", "source:name": "extrapolated from OSMaPaaralan, way/906069752"}}, {"type": "node", "id": 8414176461, "lat": 11.2365641, "lon": 124.5103526, "tags": {"admin_level": "10", "designation": "barangay", "is_in:town": "Leyte", "name": "Bagaba-o", "place": "village", "source:name": "extrapolated from OSMaPaaralan"}}, {"type": "node", "id": 8414236843, "lat": 11.2406654, "lon": 124.4840656, "tags": {"admin_level": "10", "designation": "barangay", "is_in:town": "Villaba", "name": "Cahigan", "place": "village", "source:name": "extrapolated from OSMaPaaralan"}}, {"type": "node", "id": 8627663163, "lat": 11.085935, "lon": 124.5122318, "tags": {"name": "Nueva Sociedad", "place": "village"}}, {"type": "node", "id": 8627692326, "lat": 11.0976461, "lon": 124.5187489, "tags": {"name": "Leondoni", "place": "village"}}, {"type": "node", "id": 8645680581, "lat": 11.08178, "lon": 124.4357172, "tags": {"name": "Liberty", "place": "village"}}, {"type": "node", "id": 8645720208, "lat": 11.1332894, "lon": 124.4269338, "tags": {"name": "Masaba II", "place": "village"}}, {"type": "node", "id": 8645779022, "lat": 11.1304949, "lon": 124.4679585, "tags": {"name": "Mansalip", "place": "village"}}, {"type": "node", "id": 8645798570, "lat": 11.1222366, "lon": 124.4921971, "tags": {"name": "Cambadbad", "place": "village"}}, {"type": "node", "id": 8645798575, "lat": 11.1300841, "lon": 124.4840276, "tags": {"name": "San Sebastian", "place": "village"}}, {"type": "node", "id": 8645804046, "lat": 11.1521186, "lon": 124.4922324, "tags": {"name": "San Marcelino", "place": "village"}}, {"type": "node", "id": 8645813957, "lat": 11.1219358, "lon": 124.4519719, "tags": {"name": "Candelaria", "place": "village"}}, {"type": "node", "id": 8645818466, "lat": 11.1355538, "lon": 124.4925087, "tags": {"name": "Bulak", "place": "village"}}, {"type": "node", "id": 8649535441, "lat": 11.1961406, "lon": 124.5656394, "tags": {"name": "Natubgan", "place": "village"}}, {"type": "node", "id": 8649554766, "lat": 11.1865621, "lon": 124.5192117, "tags": {"name": "Montealegre", "place": "village"}}, {"type": "node", "id": 8649556933, "lat": 11.1873345, "lon": 124.5111004, "tags": {"name": "Kawayan", "place": "village"}}, {"type": "node", "id": 8649586710, "lat": 11.1833472, "lon": 124.4872596, "tags": {"name": "New Balanac", "place": "village"}}, {"type": "node", "id": 8649592405, "lat": 11.2211677, "lon": 124.5525234, "tags": {"name": "Santo Domingo", "place": "village"}}, {"type": "node", "id": 8649600420, "lat": 11.1920391, "lon": 124.5042291, "tags": {"name": "Naulayan", "place": "village"}}, {"type": "node", "id": 8650004690, "lat": 11.1941601, "lon": 124.3855128, "tags": {"name": "Balite", "place": "village"}}, {"type": "node", "id": 8650030448, "lat": 11.2605746, "lon": 124.4000821, "tags": {"admin_level": "10", "admin_type:PH": "barangay", "is_in:town": "Villaba", "name": "Payao", "old_ref": "083751021", "place": "village", "population": "1057", "population:2015": "1063", "ref": "0803751021", "source:population": "Philippine Statistics Authority"}}, {"type": "node", "id": 8653945882, "lat": 11.2558469, "lon": 124.4849725, "tags": {"name": "Cabungahan", "place": "village"}}, {"type": "node", "id": 8653948325, "lat": 11.1847389, "lon": 124.4317682, "tags": {"name": "Buga-buga", "place": "village"}}, {"type": "node", "id": 8653948339, "lat": 11.1838061, "lon": 124.4481506, "tags": {"name": "Hibulangan", "place": "village"}}, {"type": "node", "id": 8653966861, "lat": 11.2258016, "lon": 124.4237314, "tags": {"name": "Santa Cruz", "place": "village"}}, {"type": "node", "id": 8653966933, "lat": 11.244006, "lon": 124.428192, "tags": {"name": "Tabunoc", "place": "village"}}, {"type": "node", "id": 8653970457, "lat": 11.2184127, "lon": 124.466891, "tags": {"name": "Capinahan", "place": "hamlet"}}, {"type": "node", "id": 8654002311, "lat": 11.2564728, "lon": 124.445622, "tags": {"admin_level": "10", "admin_type:PH": "barangay", "is_in:town": "Villaba", "name": "Iligay", "old_ref": "083751016", "place": "village", "population": "564", "population:2015": "564", "ref": "0803751016", "source:population": "Philippine Statistics Authority"}}, {"type": "node", "id": 8654354601, "lat": 11.2962393, "lon": 124.4053218, "tags": {"name": "Campokpok", "place": "village"}}, {"type": "node", "id": 8654366022, "lat": 11.2836604, "lon": 124.4250232, "tags": {"name": "Tahad", "place": "hamlet"}}, {"type": "node", "id": 8654383095, "lat": 11.3148876, "lon": 124.4551128, "tags": {"place": "hamlet"}}, {"type": "node", "id": 8654393902, "lat": 11.3138055, "lon": 124.4706583, "tags": {"name": "Butason I", "place": "village"}}, {"type": "node", "id": 8654418237, "lat": 11.3310264, "lon": 124.4369343, "tags": {"name": "Manlawaan", "place": "village"}}, {"type": "node", "id": 8654418317, "lat": 11.3153193, "lon": 124.385075, "tags": {"admin_level": "10", "admin_type:PH": "barangay", "name": "Catmon", "place": "village", "population": "2416", "population:2015": "2498", "population:date": "2020-05-01", "postal_code": "6536", "ref": "083745005", "source:population": "Philippine Statistics Authority"}}, {"type": "node", "id": 8654435234, "lat": 11.3347637, "lon": 124.3449021, "tags": {"admin_level": "10", "admin_type:PH": "barangay", "is_in:town": "Tabango", "name": "Tugas", "old_ref": "083745014", "place": "village", "population": "1001", "population:2015": "1090", "ref": "0803745014"}}, {"type": "node", "id": 8657448609, "lat": 11.3529844, "lon": 124.4698916, "tags": {"name": "Gimarco", "place": "village"}}, {"type": "node", "id": 8657536345, "lat": 11.3329913, "lon": 124.3817041, "tags": {"admin_level": "10", "admin_type:PH": "barangay", "name": "Omaganhan", "place": "village", "population": "2148", "population:2015": "1855", "population:date": "2020-05-01", "ref": "083745010", "source:name": "extrapolated from OSMaPaaralan, way/934117687", "source:population": "Philippine Statistics Authority"}}, {"type": "node", "id": 8657541174, "lat": 11.3590097, "lon": 124.3604865, "tags": {"name": "Tabing", "place": "village"}}, {"type": "node", "id": 8657541347, "lat": 11.3667168, "lon": 124.3636157, "tags": {"admin_level": "10", "admin_type:PH": "barangay", "name": "Basud", "place": "village", "population": "2508", "population:2015": "2571", "population:date": "2020-05-01", "ref": "083742003", "source:population": "Philippine Statistics Authority"}}, {"type": "node", "id": 8657547452, "lat": 11.361832, "lon": 124.3482392, "tags": {"name": "Kawayan", "place": "village"}}, {"type": "node", "id": 8657675165, "lat": 11.3963903, "lon": 124.3894121, "tags": {"name": "Busay", "place": "village"}}, {"type": "node", "id": 8657675681, "lat": 11.3958686, "lon": 124.3303422, "tags": {"name": "Sangabon", "place": "village"}}, {"type": "node", "id": 8657995114, "lat": 11.4171765, "lon": 124.3856185, "tags": {"name": "Linao", "place": "village"}}, {"type": "node", "id": 8658016658, "lat": 11.4341017, "lon": 124.3611932, "tags": {"name": "Kabungaan", "place": "hamlet"}}, {"type": "node", "id": 8658029391, "lat": 11.4107167, "lon": 124.3304854, "tags": {"name": "Paril", "place": "village"}}, {"type": "node", "id": 8658032400, "lat": 11.4255943, "lon": 124.3439615, "tags": {"name": "Hacienda Maria", "place": "village"}}, {"type": "node", "id": 8670317436, "lat": 11.460024, "lon": 124.3133728, "tags": {"name": "Daja Daku", "place": "village"}}, {"type": "node", "id": 8670362518, "lat": 11.4476505, "lon": 124.3560087, "tags": {"name": "San Jose", "place": "village"}}, {"type": "node", "id": 8670383292, "lat": 11.5035526, "lon": 124.379756, "tags": {"name": "Juson", "place": "village"}}, {"type": "node", "id": 8670407832, "lat": 11.4521503, "lon": 124.380938, "tags": {"name": "Kawayanan", "place": "village"}}, {"type": "node", "id": 8670439905, "lat": 11.4201954, "lon": 124.44915, "tags": {"name": "Nipa", "place": "village"}}, {"type": "node", "id": 8670442905, "lat": 11.4169515, "lon": 124.4168943, "tags": {"name": "Tagharigue", "place": "village"}}, {"type": "node", "id": 8670444230, "lat": 11.4555719, "lon": 124.4211597, "tags": {"name": "Cristina", "place": "village"}}, {"type": "node", "id": 8670453134, "lat": 11.4133417, "lon": 124.4548437, "tags": {"name": "Burabod", "place": "village"}}, {"type": "node", "id": 8670471450, "lat": 11.4730303, "lon": 124.4085794, "tags": {"name": "Uson", "place": "village"}}, {"type": "node", "id": 8670789901, "lat": 11.3883655, "lon": 124.4590431, "tags": {"name": "Tigbawan", "place": "village"}}, {"type": "node", "id": 8670792473, "lat": 11.3869988, "lon": 124.4313117, "tags": {"name": "Parasan", "place": "village"}}, {"type": "node", "id": 8670804029, "lat": 11.3678313, "lon": 124.4642137, "tags": {"name": "Palid I", "place": "village"}}, {"type": "node", "id": 8670829379, "lat": 11.3571341, "lon": 124.4894688, "tags": {"name": "Elizabeth", "place": "village"}}, {"type": "node", "id": 8674694503, "lat": 11.4452141, "lon": 124.4694034, "tags": {"name": "Tinucdugan", "place": "village"}}, {"type": "node", "id": 8674699666, "lat": 11.4406096, "lon": 124.5009898, "tags": {"name": "Maanda", "place": "village"}}, {"type": "node", "id": 8674731095, "lat": 11.3420498, "lon": 124.5091397, "tags": {"name": "Salog", "place": "village"}}, {"type": "node", "id": 8674759355, "lat": 11.3421273, "lon": 124.4886673, "tags": {"name": "Calaguise", "place": "village"}}, {"type": "node", "id": 8674766245, "lat": 11.2988691, "lon": 124.5122941, "tags": {"name": "Consuegra", "place": "village"}}, {"type": "node", "id": 8674766267, "lat": 11.308423, "lon": 124.5267925, "tags": {"name": "Ugbon", "place": "village"}}, {"type": "node", "id": 8674773551, "lat": 11.2878172, "lon": 124.4867023, "tags": {"name": "Wague", "place": "village"}}, {"type": "node", "id": 8674822598, "lat": 11.3275637, "lon": 124.5628485, "tags": {"name": "Potot", "place": "hamlet"}}, {"type": "node", "id": 9141079015, "lat": 11.5156629, "lon": 124.3109116, "tags": {"admin_level": "10", "admin_type:PH": "barangay", "designation": "barangay", "is_in:town": "Calubian", "name": "Casiongan", "place": "village", "source:name": "extrapolated from OSMaPaaralan"}}, {"type": "node", "id": 9141124329, "lat": 11.5170427, "lon": 124.3515752, "tags": {"admin_level": "10", "admin_type:PH": "barangay", "is_in:town": "Calubian", "is_in:village": "?", "name": "Enage", "place": "village", "source:name": "extrapolated from OSMaPaaralan"}}, {"type": "node", "id": 9141124428, "lat": 11.5189823, "lon": 124.3299244, "tags": {"admin_level": "10", "admin_type:PH": "barangay", "is_in:town": "Calubian", "name": "Anislagan", "place": "village", "source:name": "extrapolated from OSMaPaaralan"}}, {"type": "node", "id": 9196651467, "lat": 11.2657341, "lon": 124.5001756, "tags": {"admin_level": "10", "admin_type:PH": "barangay", "is_in:town": "Leyte", "name": "Tag-abaca", "place": "village", "source:name": "extrapolated from OSMaPaaralan, way/995975255"}}, {"type": "node", "id": 9196908951, "lat": 11.1701433, "lon": 124.4527361, "tags": {"admin_level": "10", "admin_type:PH": "barangay", "is_in:town": "Villaba", "name": "Sulpa", "place": "village", "source:name": "extrapolated from OSMaPaaralan, relation/13295756"}}, {"type": "node", "id": 9196914130, "lat": 11.3385787, "lon": 124.4778804, "tags": {"admin_level": "10", "admin_type:PH": "sitio", "fixme": "name", "is_in:quarter": "Cabacungan", "is_in:town": "Tabango", "place": "village"}}, {"type": "node", "id": 9196914131, "lat": 11.3324984, "lon": 124.481374, "tags": {"fixme": "name", "place": "neighbourhood"}}, {"type": "node", "id": 9797817231, "lat": 11.4032028, "lon": 124.4823691, "tags": {"admin_level": "10", "designation": "barangay", "is_in:province": "Leyte", "is_in:town": "Leyte", "name": "Baco", "place": "village"}}, {"type": "node", "id": 9843283246, "lat": 11.2876797, "lon": 124.5657982, "tags": {"name": "Lemon", "place": "village"}}, {"type": "node", "id": 9855049077, "lat": 11.3359927, "lon": 124.1156222}, {"type": "node", "id": 9855049079, "lat": 11.3357694, "lon": 124.1163702}, {"type": "node", "id": 9855049080, "lat": 11.335793, "lon": 124.1166385}, {"type": "node", "id": 9855049081, "lat": 11.3359403, "lon": 124.116601}, {"type": "node", "id": 9855049092, "lat": 11.3377916, "lon": 124.1173674}, {"type": "node", "id": 9855049096, "lat": 11.3384079, "lon": 124.1165294}, {"type": "node", "id": 9855049098, "lat": 11.338855, "lon": 124.1162028}, {"type": "node", "id": 9855049101, "lat": 11.3390302, "lon": 124.116363}, {"type": "node", "id": 9855049102, "lat": 11.3390423, "lon": 124.1165047}, {"type": "node", "id": 9855049104, "lat": 11.3393927, "lon": 124.1165047}, {"type": "node", "id": 9855049105, "lat": 11.3392105, "lon": 124.1168472}, {"type": "node", "id": 9855049106, "lat": 11.3390716, "lon": 124.1169675}, {"type": "node", "id": 9855049108, "lat": 11.3390647, "lon": 124.1172471}, {"type": "node", "id": 9855049109, "lat": 11.3391757, "lon": 124.117199}, {"type": "node", "id": 9855070418, "lat": 11.3398733, "lon": 124.1171096}, {"type": "node", "id": 9855070419, "lat": 11.3400726, "lon": 124.1169957}, {"type": "node", "id": 9855070420, "lat": 11.34028, "lon": 124.1166171}, {"type": "node", "id": 9855070421, "lat": 11.340425, "lon": 124.116496}, {"type": "node", "id": 9855070423, "lat": 11.3358691, "lon": 124.1153498}, {"type": "node", "id": 9855070425, "lat": 11.3355183, "lon": 124.1155368}, {"type": "node", "id": 9855070426, "lat": 11.3352034, "lon": 124.115553}, {"type": "node", "id": 9855070428, "lat": 11.3350041, "lon": 124.1157238}, {"type": "node", "id": 9855070435, "lat": 11.3337638, "lon": 124.1156307}, {"type": "node", "id": 9855070579, "lat": 11.3402581, "lon": 124.1181255}, {"type": "node", "id": 9855070582, "lat": 11.3403257, "lon": 124.1176141}, {"type": "node", "id": 9855070586, "lat": 11.3403518, "lon": 124.1174124}, {"type": "node", "id": 9855070587, "lat": 11.3402129, "lon": 124.1173752}, {"type": "node", "id": 9855070588, "lat": 11.3404246, "lon": 124.1171381}, {"type": "node", "id": 9855070590, "lat": 11.3404616, "lon": 124.1167575}, {"type": "node", "id": 9855070592, "lat": 11.340583, "lon": 124.1165848}, {"type": "node", "id": 9855070749, "lat": 11.333309, "lon": 124.116148}, {"type": "node", "id": 9855070962, "lat": 11.3338062, "lon": 124.1158313}, {"type": "node", "id": 9855070965, "lat": 11.3349962, "lon": 124.1167375}, {"type": "node", "id": 9855070966, "lat": 11.3346337, "lon": 124.1168423}, {"type": "node", "id": 9855071017, "lat": 11.3418765, "lon": 124.1124327}, {"type": "node", "id": 9855071021, "lat": 11.3423747, "lon": 124.1122906}, {"type": "node", "id": 10003949153, "lat": 11.3302044, "lon": 124.1215692}, {"type": "node", "id": 11189423399, "lat": 11.3442325, "lon": 124.1112998}, {"type": "node", "id": 11258944912, "lat": 11.3426102, "lon": 124.1136512}, {"type": "node", "id": 11330456877, "lat": 11.329565, "lon": 124.1204714}, {"type": "node", "id": 11330456878, "lat": 11.3294799, "lon": 124.120052}, {"type": "node", "id": 11330456879, "lat": 11.329446, "lon": 124.1198991}, {"type": "node", "id": 11330456880, "lat": 11.3276356, "lon": 124.112058}, {"type": "node", "id": 11330456881, "lat": 11.3338178, "lon": 124.1161619}, {"type": "node", "id": 11330456882, "lat": 11.3335622, "lon": 124.1136485}, {"type": "node", "id": 11330456883, "lat": 11.3270022, "lon": 124.1126334}, {"type": "node", "id": 11330456884, "lat": 11.3305838, "lon": 124.1174143}, {"type": "node", "id": 11330456885, "lat": 11.3302471, "lon": 124.117983}, {"type": "node", "id": 11330456886, "lat": 11.3295239, "lon": 124.1187528}, {"type": "node", "id": 11330456887, "lat": 11.3309993, "lon": 124.1210729}, {"type": "node", "id": 11330456888, "lat": 11.3315253, "lon": 124.120177}, {"type": "node", "id": 11330456889, "lat": 11.331236, "lon": 124.1198552}, {"type": "node", "id": 11330456890, "lat": 11.3307837, "lon": 124.1200107}, {"type": "node", "id": 11330456891, "lat": 11.3305364, "lon": 124.1195548}, {"type": "node", "id": 11330456892, "lat": 11.3307731, "lon": 124.1178274}, {"type": "node", "id": 11330456893, "lat": 11.3318251, "lon": 124.1198902}, {"type": "node", "id": 11330456894, "lat": 11.3333136, "lon": 124.1186267}, {"type": "node", "id": 11330456895, "lat": 11.3328771, "lon": 124.1175967}, {"type": "node", "id": 11330456896, "lat": 11.3332716, "lon": 124.1171783}, {"type": "node", "id": 11330456897, "lat": 11.3328193, "lon": 124.117476}, {"type": "node", "id": 11330456898, "lat": 11.33243, "lon": 124.11643}, {"type": "node", "id": 11330456899, "lat": 11.3331151, "lon": 124.1162141}, {"type": "node", "id": 11330456900, "lat": 11.3400698, "lon": 124.1178998}, {"type": "node", "id": 11330456901, "lat": 11.3392309, "lon": 124.1179374}, {"type": "node", "id": 11330456902, "lat": 11.3389863, "lon": 124.1182888}, {"type": "node", "id": 11330456903, "lat": 11.3388048, "lon": 124.117409}, {"type": "node", "id": 11330456904, "lat": 11.3365379, "lon": 124.1176397}, {"type": "node", "id": 11330456905, "lat": 11.3360829, "lon": 124.1170093}, {"type": "node", "id": 11330456906, "lat": 11.3353807, "lon": 124.11735}, {"type": "node", "id": 11330456907, "lat": 11.3345637, "lon": 124.1170893}, {"type": "node", "id": 11330456908, "lat": 11.3385497, "lon": 124.1172454}, {"type": "node", "id": 11330456909, "lat": 11.3393702, "lon": 124.1173178}, {"type": "node", "id": 11330456910, "lat": 11.3397069, "lon": 124.1173634}, {"type": "node", "id": 11330456911, "lat": 11.3397884, "lon": 124.1171676}, {"type": "node", "id": 11330456912, "lat": 11.3388495, "lon": 124.116666, "tags": {"name": "Tagasa", "place": "neighbourhood"}}, {"type": "node", "id": 11330456920, "lat": 11.3444905, "lon": 124.1133159}, {"type": "node", "id": 11330456921, "lat": 11.3437542, "lon": 124.1131926}, {"type": "node", "id": 11330456922, "lat": 11.3433176, "lon": 124.1129029}, {"type": "node", "id": 11330456923, "lat": 11.3444116, "lon": 124.1125166}, {"type": "node", "id": 11330456924, "lat": 11.3442801, "lon": 124.1131872}, {"type": "node", "id": 11330456925, "lat": 11.3452532, "lon": 124.1133481}, {"type": "node", "id": 11330456926, "lat": 11.3451848, "lon": 124.1125005}, {"type": "node", "id": 11330456927, "lat": 11.3456687, "lon": 124.1086328}, {"type": "node", "id": 11385153154, "lat": 11.3327561, "lon": 124.1163187}, {"type": "node", "id": 11389482165, "lat": 11.3293911, "lon": 124.1197063}, {"type": "node", "id": 11405026164, "lat": 11.332547, "lon": 124.1137907}, {"type": "node", "id": 11405026165, "lat": 11.3329757, "lon": 124.1137236}, {"type": "node", "id": 11405056879, "lat": 11.3266707, "lon": 124.1136891}, {"type": "node", "id": 12229698524, "lat": 11.1085306, "lon": 124.4385757, "tags": {"fixme": "name", "place": "hamlet"}}, {"type": "node", "id": 12246235198, "lat": 11.1088414, "lon": 124.4568853, "tags": {"name": "Malazarte", "place": "village", "place:PH": "barangay"}}, {"type": "node", "id": 12246235199, "lat": 11.1100399, "lon": 124.4520084, "tags": {"is_in": "Barangay Malazarte", "name": "Bongbong", "place": "village", "place:PH": "sitio"}}, {"type": "node", "id": 12344693053, "lat": 11.1250961, "lon": 124.427749, "tags": {"name": "Masaba I", "place": "village"}}, {"type": "node", "id": 12349632056, "lat": 11.1777893, "lon": 124.4537806, "tags": {"name": "Canquiason", "place": "village"}}, {"type": "node", "id": 12349637538, "lat": 11.1654878, "lon": 124.435184, "tags": {"name": "Campurog", "place": "village"}}, {"type": "node", "id": 12793750426, "lat": 11.3280638, "lon": 124.118221, "tags": {"name": "Logon Back Beach", "place": "neighbourhood"}}, {"type": "node", "id": 12793762568, "lat": 11.3268604, "lon": 124.1187875}, {"type": "way", "id": 29369650, "nodes": [323064555, 4161475894, 11330456884, 11330456892, 11330456897, 11330456898, 11385153154, 11330456899, 9855070749, 11330456881, 9855070962, 9855070435, 4923403929, 599191000, 599191001, 323065254, 323065255, 11330456882, 11405026165, 600229082, 11405026164, 4923511378, 6631662651, 600229069, 6631662649, 4923511291, 600229066, 600229059, 1802655753, 6631662655, 11330456880, 6142109092, 6014360459, 11330456883, 323064339, 323064340, 11405056879, 4923404799, 600229049, 6631662631, 600229057, 323064555], "tags": {"admin_level": "11", "admin_type:PH": "sitio", "landuse": "residential", "name": "Barrio", "place": "neighbourhood"}}, {"type": "way", "id": 295187916, "nodes": [2988983043, 2988983046, 2988983050, 2988983051, 2988983048, 2988983049, 2988983047, 2988983044, 2988983045, 2988983042, 2988983043], "tags": {"name": "Sitio Sabang", "place": "village"}}, {"type": "way", "id": 296165514, "nodes": [2999537584, 2999537582, 2999537583, 2999537581, 2999537585, 2999537587, 2999537589, 2999537593, 2999537594, 2999537590, 2999537588, 2999537586, 2999537584], "tags": {"name": "Campokpok", "place": "village"}}, {"type": "way", "id": 501660603, "nodes": [4924030853, 4924030852, 4924043428, 4924043422, 4924043423, 4924030851, 323068105, 4924030826, 4924030850, 11330456927, 4924030849, 4924030848, 4924030847, 4924030846, 4924030845, 4924030844, 4924030843, 4924030842, 4924030841, 4924030840, 4924030839, 11189423399, 663340917, 4924030853], "tags": {"admin_level": "11", "admin_type:PH": "sitio", "landuse": "residential", "name": "Guimbitayan", "place": "neighbourhood"}}, {"type": "way", "id": 501660665, "nodes": [4924031221, 4924031220, 4924031219, 4924031218, 11258944912, 4924031217, 4924031216, 4924031215, 4924031214, 4924031213, 4924031212, 4924031211, 9855071017, 4924031210, 9855071021, 4924031209, 4924031208, 11330456922, 11330456924, 11330456923, 11330456926, 11330456925, 11330456920, 11330456921, 4924031221], "tags": {"admin_level": "11", "admin_type:PH": "sitio", "landuse": "residential", "name": "Kalubian", "place": "neighbourhood"}}, {"type": "way", "id": 1221677303, "nodes": [4927724896, 1401439612, 1401439611, 599190987, 599190964, 599190957, 599190956, 599190925, 12793762568, 599190931, 323064555, 4161475894, 11330456884, 11330456892, 11330456885, 11330456886, 663363655, 11389482165, 11330456879, 11330456878, 1795599099, 11330456877, 4927724896], "tags": {"admin_level": "11", "admin_type:PH": "sitio", "landuse": "residential", "name": "Tawigan", "place": "neighbourhood"}}, {"type": "way", "id": 1221677304, "nodes": [11330456888, 11330456887, 10003949153, 4927724896, 1795599099, 11330456878, 11330456879, 11389482165, 663363655, 11330456886, 11330456885, 11330456892, 11330456891, 11330456890, 11330456889, 11330456888], "tags": {"admin_level": "11", "admin_type:PH": "sitio", "landuse": "residential", "name": "Indonacion", "place": "neighbourhood"}}, {"type": "way", "id": 1221677305, "nodes": [11330456897, 11330456892, 11330456891, 11330456890, 11330456889, 11330456888, 11330456893, 11330456894, 11330456895, 11330456896, 11330456899, 11385153154, 11330456898, 11330456897], "tags": {"admin_level": "11", "admin_type:PH": "sitio", "landuse": "residential", "name": "Pasil", "place": "neighbourhood"}}, {"type": "way", "id": 1221677306, "nodes": [9855070587, 9855070588, 9855070590, 9855070592, 9855070421, 9855070420, 9855070419, 9855070418, 11330456911, 11330456910, 11330456909, 9855049109, 9855049108, 9855049106, 9855049105, 9855049104, 9855049102, 9855049101, 9855049098, 9855049096, 11330456908, 9855049092, 9855049081, 9855049080, 9855049079, 9855049077, 9855070423, 9855070425, 9855070426, 9855070428, 9855070965, 9855070966, 11330456907, 11330456906, 11330456905, 11330456904, 11330456903, 6631662742, 11330456902, 11330456901, 11330456900, 9855070579, 9855070582, 9855070586, 9855070587], "tags": {"admin_level": "11", "admin_type:PH": "sitio", "landuse": "residential", "name": "Kabatangan", "place": "neighbourhood"}}]}