{"version": 0.6, "generator": "Overpass API 0.7.62.5 1bd436f1", "osm3s": {"timestamp_osm_base": "2025-05-24T18:06:35Z", "copyright": "The data included in this document is from www.openstreetmap.org. The data is made available under ODbL."}, "elements": [{"type": "node", "id": 198505990, "lat": 7.2109327, "lon": 126.5399142, "tags": {"admin_level": "6", "admin_subdivisions": "17 barangays", "admin_type:PH": "municipality", "is_in:province": "Davao Oriental", "name": "Manay", "official_name": "Municipality of Manay", "place": "town", "population": "39572", "population:date": "2020-05-01", "postal_code": "8202", "wikidata": "Q314671", "wikimedia_commons": "Category:Manay, Davao Oriental", "wikipedia": "en:Manay, Davao Oriental"}}, {"type": "node", "id": 1887782319, "lat": 7.328232, "lon": 126.5653582, "tags": {"admin_level": "6", "admin_subdivisions": "17 barangays", "admin_type:PH": "municipality", "is_in:province": "Davao Oriental", "name": "Caraga", "official_name": "Municipality of Caraga", "place": "town", "population": "39704", "population:date": "2020-05-01", "postal_code": "8203", "wikidata": "Q314593", "wikimedia_commons": "Category:Caraga, Davao Oriental", "wikipedia": "en:Caraga, Davao Oriental"}}, {"type": "node", "id": 2066964859, "lat": 7.246807, "lon": 126.573263, "tags": {"admin_level": "11", "designation": "sitio", "is_in:town": "Manay", "name": "Bagsak", "place": "hamlet", "postal_code": "8202"}}, {"type": "node", "id": 2185172850, "lat": 7.482205, "lon": 126.5789066, "tags": {"admin_level": "10", "name": "Bobonao", "place": "village", "place:PH": "barangay"}}, {"type": "node", "id": 2185172851, "lat": 7.4425734, "lon": 126.552929, "tags": {"admin_level": "10", "admin_type:PH": "barangay", "is_in:municipality": "Caraga", "name": "San Luis", "official_name": "Barangay San Luis", "place": "village", "postal_code": "8203"}}, {"type": "node", "id": 3013995488, "lat": 7.1190646, "lon": 126.4891062, "tags": {"admin_level": "10", "admin_type:PH": "barangay", "is_in:municipality": "Manay", "name": "San Ignacio", "official_name": "Barangay San Ignacio", "place": "village", "postal_code": "8202"}}, {"type": "node", "id": 3014237056, "lat": 7.062207, "lon": 126.453688, "tags": {"admin_level": "10", "admin_type:PH": "barangay", "is_in:municipality": "Tarragona", "name": "Jovellar", "official_name": "Barangay Jovellar", "place": "village", "postal_code": "8201"}}, {"type": "node", "id": 5761824529, "lat": 7.4254109, "lon": 126.4900535, "tags": {"admin_level": "10", "admin_type:PH": "barangay", "is_in:municipality": "Caraga", "name": "Lamiawan", "official_name": "Barangay Lamiawan", "place": "village", "postal_code": "8203"}}, {"type": "node", "id": 5761824530, "lat": 7.4220171, "lon": 126.4517033, "tags": {"place": "hamlet"}}, {"type": "node", "id": 5761824531, "lat": 7.4208548, "lon": 126.4246398, "tags": {"place": "hamlet"}}, {"type": "node", "id": 5761824532, "lat": 7.4204824, "lon": 126.4078063, "tags": {"place": "hamlet"}}, {"type": "node", "id": 5761824533, "lat": 7.4136415, "lon": 126.3634801, "tags": {"admin_level": "10", "admin_type:PH": "barangay", "is_in:municipality": "Caraga", "name": "Pichon", "official_name": "Barangay Pichon", "place": "village", "postal_code": "8203"}}, {"type": "node", "id": 6108843028, "lat": 7.0934531, "lon": 126.4011655, "tags": {"admin_level": "10", "admin_type:PH": "barangay", "is_in:municipality": "Tarragona", "name": "Tubaon", "official_name": "Barangay Tubaon", "place": "village", "postal_code": "8201"}}, {"type": "node", "id": 6108843782, "lat": 7.0848633, "lon": 126.4245633, "tags": {"admin_level": "10", "admin_type:PH": "barangay", "is_in:municipality": "Tarragona", "name": "Maganda", "official_name": "Barangay Maganda", "place": "village", "postal_code": "8201"}}, {"type": "node", "id": 6108843789, "lat": 7.1195417, "lon": 126.4486955, "tags": {"admin_level": "10", "admin_type:PH": "barangay", "is_in:municipality": "Tarragona", "name": "Dadong", "official_name": "Barangay Dadong", "place": "village", "postal_code": "8201"}}, {"type": "node", "id": 6110302785, "lat": 7.1745721, "lon": 126.5239758, "tags": {"admin_level": "10", "admin_type:PH": "barangay", "is_in:municipality": "Manay", "name": "Zaragosa", "official_name": "Barangay Zaragosa", "place": "village", "postal_code": "8202"}}, {"type": "node", "id": 6110302786, "lat": 7.145287, "lon": 126.5160105, "tags": {"admin_level": "10", "admin_type:PH": "barangay", "is_in:municipality": "Manay", "name": "Holy Cross", "official_name": "Barangay Holy Cross", "place": "village", "postal_code": "8202"}}, {"type": "node", "id": 6110303014, "lat": 7.2296438, "lon": 126.482981, "tags": {"admin_level": "10", "admin_type:PH": "barangay", "is_in:municipality": "Manay", "name": "Manreza", "official_name": "Barangay Manreza", "place": "village", "postal_code": "8202"}}, {"type": "node", "id": 6110327394, "lat": 7.2859526, "lon": 126.5651168, "tags": {"admin_level": "10", "admin_type:PH": "barangay", "is_in:municipality": "Caraga", "name": "Santiago", "official_name": "Barangay Santiago", "place": "village", "postal_code": "8203"}}, {"type": "node", "id": 6110327515, "lat": 7.2916848, "lon": 126.5194349, "tags": {"admin_level": "10", "admin_type:PH": "barangay", "is_in:municipality": "Caraga", "name": "San Miguel", "official_name": "Barangay San Miguel", "place": "village", "postal_code": "8203"}}, {"type": "node", "id": 6110327679, "lat": 7.282743, "lon": 126.4920818, "tags": {"admin_level": "10", "admin_type:PH": "barangay", "is_in:municipality": "Caraga", "name": "Caningag", "official_name": "Barangay Caningag", "place": "village", "postal_code": "8203"}}, {"type": "node", "id": 6110327721, "lat": 7.2716664, "lon": 126.4854534, "tags": {"admin_level": "10", "admin_type:PH": "barangay", "is_in:municipality": "Manay", "name": "Mabini", "official_name": "Barangay Mabini", "place": "village", "postal_code": "8202"}}, {"type": "node", "id": 6110327741, "lat": 7.317302, "lon": 126.5480031, "tags": {"admin_level": "10", "admin_type:PH": "barangay", "is_in:municipality": "Caraga", "name": "San Jose", "official_name": "Barangay San Jose", "old_ref": "112504012", "place": "village", "population": "1598", "population:date": "2020-05-01", "postal_code": "8203"}}, {"type": "node", "id": 6110327771, "lat": 7.3401044, "lon": 126.5179729, "tags": {"admin_level": "10", "admin_type:PH": "barangay", "is_in:municipality": "Caraga", "name": "San Pedro", "official_name": "Barangay San Pedro", "place": "village", "postal_code": "8203"}}, {"type": "node", "id": 6110327790, "lat": 7.3618301, "lon": 126.5521475, "tags": {"admin_level": "10", "admin_type:PH": "barangay", "is_in:municipality": "Caraga", "name": "Palma Gil", "official_name": "Barangay Palma Gil", "place": "village", "postal_code": "8203"}}, {"type": "node", "id": 6110327791, "lat": 7.3792561, "lon": 126.5558978, "tags": {"admin_level": "10", "admin_type:PH": "barangay", "is_in:municipality": "Caraga", "name": "Santa Fe", "official_name": "Barangay Santa Fe", "place": "village", "postal_code": "8203", "short_name": "Sta. Fe"}}, {"type": "node", "id": 6448998726, "lat": 7.3851327, "lon": 126.5130403, "tags": {"alt_name": "Sitio Lubganon", "is_in:barangay": "Palma Gil", "is_in:municipality": "Caraga", "name": "Lubganon", "place": "hamlet", "postal_code": "8203"}}, {"type": "node", "id": 6448998853, "lat": 7.3970096, "lon": 126.474572, "tags": {"alt_name": "Sitio Bantulinao", "ele": "630", "is_in:barangay": "Palma Gil", "is_in:municipality": "Caraga", "name": "Bantulinao", "place": "hamlet", "postal_code": "8203"}}, {"type": "node", "id": 6448998907, "lat": 7.4357705, "lon": 126.4539131, "tags": {"place": "hamlet"}}, {"type": "node", "id": 6564523544, "lat": 7.3546259, "lon": 126.4991052, "tags": {"admin_level": "11", "is_in:village": "San Pedro", "name": "Catigod", "place": "hamlet", "place:PH": "sitio"}}, {"type": "node", "id": 6564523545, "lat": 7.3329362, "lon": 126.4803788, "tags": {"admin_level": "10", "admin_type:PH": "barangay", "alt_name": "PM Sobrecarey", "ele": "80", "is_in:municipality": "Caraga", "name": "P. M. Sobrecarey", "nat_name": "Barangay Sobrecarey", "official_name": "Barangay P. M. Sobrecarey", "old_name": "Pantuyan", "old_ref": "112504018", "place": "village", "population": "5057", "population:date": "2020-05-01", "postal_code": "8203", "short_name": "Sobrecarey", "start_date": "1968-10-30"}}, {"type": "node", "id": 6564523604, "lat": 7.202226, "lon": 126.4575076, "tags": {"admin_level": "11", "alt_name": "Calundan", "fixme": "confirm location", "name": "Kalundan", "place": "hamlet", "place:PH": "sitio"}}, {"type": "node", "id": 6564523779, "lat": 7.2471987, "lon": 126.4211555, "tags": {"admin_level": "10", "admin_type:PH": "barangay", "is_in:municipality": "Manay", "name": "Rizal", "official_name": "Barangay Rizal", "place": "village", "postal_code": "8202"}}, {"type": "node", "id": 6564523780, "lat": 7.2281664, "lon": 126.4484056, "tags": {"admin_level": "10", "admin_type:PH": "barangay", "is_in:municipality": "Manay", "name": "Lambog", "official_name": "Barangay Lambog", "place": "village", "postal_code": "8202"}}, {"type": "node", "id": 6564523781, "lat": 7.2615655, "lon": 126.4663026, "tags": {"admin_level": "10", "admin_type:PH": "barangay", "is_in:municipality": "Manay", "name": "San Fermin", "official_name": "Barangay San Fermin", "place": "village", "postal_code": "8202"}}, {"type": "node", "id": 6564523782, "lat": 7.2413048, "lon": 126.4863536, "tags": {"admin_level": "10", "admin_type:PH": "barangay", "is_in:municipality": "Manay", "name": "Guza", "official_name": "Barangay Guza", "place": "village", "postal_code": "8202"}}, {"type": "node", "id": 6564523783, "lat": 7.2190967, "lon": 126.4636069, "tags": {"admin_level": "10", "admin_type:PH": "barangay", "is_in:municipality": "Manay", "name": "Del Pilar", "official_name": "Barangay Del Pilar", "old_ref": "112508006", "place": "village", "population": "1517", "population:date": "2020-05-01", "postal_code": "8202"}}, {"type": "node", "id": 7319311403, "lat": 7.4493503, "lon": 126.5832951, "tags": {"admin_level": "10", "admin_type:PH": "barangay", "is_in:municipality": "Baganga", "name": "Baculin", "official_name": "Barangay Baculin", "place": "village"}}, {"type": "node", "id": 7319311408, "lat": 7.4596667, "lon": 126.4487099, "tags": {"place": "hamlet"}}, {"type": "node", "id": 7319311409, "lat": 7.4718404, "lon": 126.4409021, "tags": {"admin_level": "11", "admin_type:PH": "sitio", "is_in:quarter": "Batawan", "is_in:town": "Baganga", "name": "Nursery", "place": "hamlet", "source:name": "extrapolated from OSMaPaaralan, way/929435316"}}, {"type": "node", "id": 7319311410, "lat": 7.4833889, "lon": 126.4075434, "tags": {"place": "hamlet"}}, {"type": "node", "id": 7319311413, "lat": 7.4870056, "lon": 126.377669, "tags": {"admin_level": "11", "is_in:town": "New Bataan", "is_in:village": "Manurigao", "name": "Tangaan", "place": "hamlet", "place:PH": "sitio"}}, {"type": "node", "id": 8085640795, "lat": 7.2580634, "lon": 126.5036218, "tags": {"admin_level": "10", "admin_type:PH": "barangay", "is_in:municipality": "Manay", "name": "Concepcion", "official_name": "Barangay Concepcion", "place": "village", "postal_code": "8202"}}, {"type": "node", "id": 8085641691, "lat": 7.1907354, "lon": 126.4397192, "tags": {"admin_level": "11", "designation": "sitio", "is_in:town": "Manay", "is_in:village": "Holy Cross", "name": "Anibongan", "place": "hamlet"}}, {"type": "node", "id": 8085641854, "lat": 7.1780417, "lon": 126.4559305, "tags": {"name": "Pagsilaan", "place": "hamlet"}}, {"type": "node", "id": 8085642075, "lat": 7.1710348, "lon": 126.4023265, "tags": {"admin_level": "11", "alt_name": "Malipayon", "designation": "sitio", "name": "Libuac", "place": "hamlet"}}, {"type": "node", "id": 8085642076, "lat": 7.2748347, "lon": 126.3561067, "tags": {"admin_level": "11", "designation": "sitio", "is_in:town": "Manay", "is_in:village": "New Taokanga", "name": "Pagsayawan", "place": "hamlet"}}, {"type": "node", "id": 8085642127, "lat": 7.2356953, "lon": 126.3665485, "tags": {"admin_level": "11", "designation": "sitio", "is_in:town": "Manay", "is_in:village": "New Taokanga", "name": "New Macopa", "place": "hamlet"}}, {"type": "node", "id": 8085642128, "lat": 7.2137993, "lon": 126.357392, "tags": {"is_in:quarter": "Old Macopa", "is_in:town": "Manay", "name": "New Dahican", "place": "hamlet"}}, {"type": "node", "id": 8085642129, "lat": 7.2179418, "lon": 126.4114782, "tags": {"admin_level": "11", "designation": "sitio", "is_in:town": "Manay", "is_in:village": "Del Pilar", "name": "Banacabac", "place": "hamlet"}}, {"type": "node", "id": 8085642710, "lat": 7.1823528, "lon": 126.363403, "tags": {"admin_level": "11", "admin_type:PH": "sitio", "is_in:quarter": "Old Macopa", "is_in:town": "Manay", "name": "Madsayap", "place": "hamlet", "source:name": "extrapolated from OSMaPaaralan, way/975598748"}}, {"type": "node", "id": 8085643098, "lat": 7.1951475, "lon": 126.3877514, "tags": {"is_in:quarter": "Old Macopa", "is_in:town": "Manay", "name": "Bitanagan", "place": "hamlet"}}, {"type": "node", "id": 8085869794, "lat": 7.1403191, "lon": 126.4705592, "tags": {"admin_level": "11", "admin_type:PH": "sitio", "alt_name": "Lingayaw", "is_in:quarter": "San Ignacio", "is_in:town": "Manay", "name": "Lingayao", "place": "hamlet", "source:name": "extrapolated from OSMaPaaralan"}}, {"type": "node", "id": 8144091857, "lat": 7.2629462, "lon": 126.3910516, "tags": {"admin_level": "10", "admin_type:PH": "barangay", "is_in:municipality": "Manay", "name": "New Taokanga", "official_name": "Barangay New Taokanga", "old_name": "Taocanga", "old_ref": "112508016", "place": "village", "population": "2955", "population:date": "2020-05-01", "postal_code": "8202"}}, {"type": "node", "id": 8148290320, "lat": 7.3084572, "lon": 126.5172715, "tags": {"admin_level": "10", "admin_type:PH": "barangay", "is_in:municipality": "Caraga", "name": "Mercedes", "official_name": "Barangay Mercedes", "old_ref": "112504007", "place": "village", "population": "1190", "population:date": "2020-05-01", "postal_code": "8203"}}, {"type": "node", "id": 8148290738, "lat": 7.3553458, "lon": 126.3880383, "tags": {"admin_level": "11", "alt_name": "Sitio Maglahos", "designation": "sitio", "ele": "1200", "is_in:town": "Caraga", "is_in:village": "Pichon", "name": "Maglahos", "place": "hamlet", "postal_code": "8203"}}, {"type": "node", "id": 8148291099, "lat": 7.4191917, "lon": 126.5150442, "tags": {"admin_level": "10", "admin_type:PH": "barangay", "is_in:municipality": "Caraga", "name": "San Antonio", "official_name": "Barangay San Antonio", "place": "village", "postal_code": "8203"}}, {"type": "node", "id": 8148291324, "lat": 7.432241, "lon": 126.3880759, "tags": {"is_in:town": "Caraga", "is_in:village": "Pichon", "place": "hamlet"}}, {"type": "node", "id": 8148291325, "lat": 7.4053455, "lon": 126.3943469, "tags": {"is_in:town": "Caraga", "is_in:village": "Pichon", "place": "hamlet"}}, {"type": "node", "id": 8148291326, "lat": 7.4004993, "lon": 126.3834464, "tags": {"admin_level": "11", "is_in:town": "Caraga", "is_in:village": "Pichon", "name": "Hanginan", "place": "hamlet", "place:PH": "sitio"}}, {"type": "node", "id": 8148291595, "lat": 7.4331506, "lon": 126.3656634, "tags": {"admin_level": "11", "admin_type:PH": "sitio", "is_in:quarter": "Pichon", "is_in:town": "Caraga", "name": "Kawayan", "place": "hamlet", "source:name": "extrapolated from OSMaPaaralan"}}, {"type": "node", "id": 8806932725, "lat": 7.2655677, "lon": 126.5749508, "tags": {"admin_level": "11", "admin_type:PH": "sitio", "designation": "sitio", "is_in:city": "Caraga", "is_in:quarter": "Santiago", "name": "Balete", "place": "hamlet", "postal_code": "8203", "source:name": "extrapolated from OSMaPaaralan, way/771076770"}}, {"type": "node", "id": 8995261503, "lat": 7.2175932, "lon": 126.4680594, "tags": {"admin_level": "11", "admin_type:PH": "purok", "alt_name": "Purok 2", "is_in:barangay": "Del Pilar", "is_in:municipality": "Manay", "name": "Bangko", "place": "neighbourhood"}}, {"type": "node", "id": 8998121897, "lat": 7.1053296, "lon": 126.4222231, "tags": {"admin_level": "11", "admin_type:PH": "sitio", "is_in:quarter": "Maganda", "is_in:town": "Tarragona", "name": "Tagaytay", "place": "hamlet", "source:name": "extrapolated from OSMaPaaralan, way/952224983"}}, {"type": "node", "id": 8998164757, "lat": 7.1542141, "lon": 126.4236126, "tags": {"admin_level": "10", "admin_type:PH": "barangay", "is_in:municipality": "Manay", "name": "Old Macopa", "official_name": "Barangay Old Macopa", "old_ref": "112508011", "place": "village", "population": "3455", "population:date": "2020-05-01", "postal_code": "8202"}}, {"type": "node", "id": 8998164758, "lat": 7.1494117, "lon": 126.4274159, "tags": {"is_in:neighbourhood": "Rose", "is_in:quarter": "Old Macopa", "is_in:town": "Manay", "name": "Rose", "place": "neighbourhood", "source:name": "extrapolated from OSMaPaaralan, way/922772637"}}, {"type": "node", "id": 8998186704, "lat": 7.1381913, "lon": 126.3935825, "tags": {"admin_level": "10", "admin_type:PH": "barangay", "is_in:town": "Tarragona", "name": "Baisan", "place": "hamlet", "source:name": "extrapolated from OSMaPaaralan, way/923636818"}}, {"type": "node", "id": 9000036232, "lat": 7.3362801, "lon": 126.5320891, "tags": {"admin_level": "11", "admin_type:PH": "sitio", "is_in:barangay": "Poblacion", "is_in:municipality": "Caraga", "name": "Mailum", "place": "hamlet"}}, {"type": "node", "id": 9008988846, "lat": 7.4130377, "lon": 126.3625976, "tags": {"admin_level": "11", "admin_type:PH": "sitio", "is_in:quarter": "Pichon", "is_in:town": "Caraga", "name": "Sangab", "place": "neighbourhood", "source:name": "extrapolated from OSMaPaaralan, relation/13093608"}}, {"type": "node", "id": 9013038305, "lat": 7.0689951, "lon": 126.403767, "tags": {"admin_level": "11", "admin_type:PH": "sitio", "is_in:quarter": "Cabagayan", "is_in:town": "Tarragona", "name": "Dita", "place": "hamlet", "source:name": "extrapolated from OSMaPaaralan, way/935719054"}}, {"type": "node", "id": 9021948017, "lat": 7.1153185, "lon": 126.483289, "tags": {"fixme": "name", "place": "neighbourhood"}}, {"type": "node", "id": 9022076047, "lat": 7.1320195, "lon": 126.4716294, "tags": {"fixme": "name", "place": "hamlet"}}, {"type": "node", "id": 9027393324, "lat": 7.2789267, "lon": 126.5849286, "tags": {"fixme": "name", "place": "hamlet"}}, {"type": "node", "id": 9027394615, "lat": 7.210145, "lon": 126.4867302, "tags": {"admin_level": "10", "admin_type:PH": "barangay", "is_in:municipality": "Manay", "name": "Cayawan", "official_name": "Barangay Cayawan", "place": "village", "postal_code": "8202"}}, {"type": "node", "id": 9027410687, "lat": 7.3373773, "lon": 126.4404618, "tags": {"name": "Tagbanahaw", "place": "hamlet"}}, {"type": "node", "id": 9027416447, "lat": 7.4476841, "lon": 126.5817583, "tags": {"fixme": "name", "place": "neighbourhood"}}, {"type": "node", "id": 9027489466, "lat": 7.4786892, "lon": 126.541946, "tags": {"name": "Batawan", "place": "village"}}, {"type": "node", "id": 9027539217, "lat": 7.1433648, "lon": 126.3752695, "tags": {"name": "Cangusan", "place": "hamlet"}}, {"type": "node", "id": 9027685377, "lat": 7.0587291, "lon": 126.4481534, "tags": {"fixme": "name", "place": "neighbourhood"}}, {"type": "node", "id": 9027838655, "lat": 7.3146323, "lon": 126.4925681, "tags": {"admin_level": "11", "admin_type:PH": "sitio", "is_in:quarter": "Mercedes", "is_in:town": "Caraga", "name": "Binaton", "place": "hamlet", "source:name": "extrapolated from OSMaPaaralan, way/975563961"}}, {"type": "node", "id": 9030160268, "lat": 7.2502417, "lon": 126.376759, "tags": {"admin_level": "10", "admin_type:PH": "sitio", "alt_name": "New Madsayap", "is_in:quarter": "New Taokanga", "is_in:town": "Manay", "name": "Mambusao", "place": "hamlet", "source:name": "extrapolated from OSMaPaaralan, way/771548684"}}, {"type": "node", "id": 9030173757, "lat": 7.2382451, "lon": 126.4401841, "tags": {"admin_level": "10", "admin_type:PH": "barangay", "is_in:municipality": "Manay", "name": "Capasnan", "official_name": "Barangay Capasnan", "place": "village", "postal_code": "8202"}}, {"type": "node", "id": 9030190217, "lat": 7.2803297, "lon": 126.3765618, "tags": {"admin_level": "11", "admin_type:PH": "sitio", "is_in:quarter": "Taocanga", "is_in:town": "Manay", "name": "Limentuog", "place": "hamlet", "source:name": "extrapolated from OSMaPaaralan"}}, {"type": "node", "id": 9030208428, "lat": 7.2471115, "lon": 126.4556826, "tags": {"admin_level": "11", "admin_type:PH": "purok", "is_in:barangay": "San Fermin", "is_in:municipality": "Manay", "name": "Fatima", "official_name": "Purok Fatima", "old_name": "Old Macopa", "place": "hamlet"}}, {"type": "node", "id": 9030253875, "lat": 7.2274482, "lon": 126.4478929, "tags": {"admin_level": "11", "admin_type:PH": "purok", "is_in:barangay": "Lambog", "is_in:municipality": "Manay", "name": "Centro", "place": "neighbourhood"}}, {"type": "node", "id": 9030265043, "lat": 7.2190736, "lon": 126.4640916, "tags": {"is_in:quarter": "Del Pilar", "name": "Poblacion", "place": "neighbourhood", "source:name": "extrapolated from OSMaPaaralan, way/921899599"}}, {"type": "node", "id": 9031468699, "lat": 7.0984205, "lon": 126.4657198, "tags": {"admin_level": "11", "admin_type:PH": "sitio", "is_in:quarter": "San Ignacio", "is_in:town": "Manay", "is_in:village": "?", "name": "Guicob", "place": "hamlet", "source:name": "extrapolated from OSMaPaaralan"}}, {"type": "node", "id": 9033508284, "lat": 7.1417278, "lon": 126.4355353, "tags": {"fixme": "name", "place": "neighbourhood"}}, {"type": "node", "id": 9033508295, "lat": 7.1398943, "lon": 126.4461845, "tags": {"fixme": "name", "place": "neighbourhood"}}, {"type": "node", "id": 9033508296, "lat": 7.1377338, "lon": 126.4381927, "tags": {"fixme": "name", "place": "neighbourhood"}}, {"type": "node", "id": 9033508297, "lat": 7.1336138, "lon": 126.4385117, "tags": {"fixme": "name", "place": "neighbourhood"}}, {"type": "node", "id": 9033523262, "lat": 7.1117482, "lon": 126.4501244, "tags": {"fixme": "name", "place": "hamlet"}}, {"type": "node", "id": 9033523313, "lat": 7.1142608, "lon": 126.4291342, "tags": {"fixme": "name", "place": "neighbourhood"}}, {"type": "node", "id": 9033588975, "lat": 7.2634336, "lon": 126.4648727, "tags": {"is_in:quarter": "San Fermin", "is_in:town": "Manay", "name": "Poblacion", "place": "neighbourhood", "source:name": "extrapolated from OSMaPaaralan, way/975524647"}}, {"type": "node", "id": 9033588976, "lat": 7.269909, "lon": 126.4419081, "tags": {"admin_level": "11", "designation": "sitio", "is_in:town": "Manay", "is_in:village": "San Fermic", "name": "Catabuanan", "place": "hamlet"}}, {"type": "node", "id": 9182130441, "lat": 7.17789, "lon": 126.3784549, "tags": {"place": "hamlet"}}, {"type": "node", "id": 9182130442, "lat": 7.1912676, "lon": 126.3990998, "tags": {"place": "hamlet"}}, {"type": "node", "id": 9182130623, "lat": 7.1740313, "lon": 126.3518688, "tags": {"place": "hamlet"}}, {"type": "node", "id": 9182130624, "lat": 7.1722562, "lon": 126.3703948, "tags": {"place": "hamlet"}}, {"type": "node", "id": 9321026238, "lat": 7.370092, "lon": 126.4287208, "tags": {"admin_level": "11", "alt_name": "Sitio Dangilas", "designation": "sitio", "ele": "990", "is_in:town": "Caraga", "is_in:village": "P.M. Sobrecarey", "name": "Dangilas", "place": "hamlet", "postal_code": "8203"}}, {"type": "node", "id": 9321026248, "lat": 7.3722892, "lon": 126.4604084, "tags": {"admin_level": "11", "alt_name": "Batiano", "designation": "sitio", "is_in:town": "Caraga", "is_in:village": "San Pedro", "name": "Magsayap", "place": "hamlet", "postal_code": "8203"}}, {"type": "node", "id": 9321026249, "lat": 7.3503207, "lon": 126.459707, "tags": {"admin_level": "11", "is_in:town": "Caraga", "is_in:village": "P.M. Sobrecarey", "name": "Malibago", "place": "hamlet", "postal_code": "8203"}}, {"type": "node", "id": 9812544149, "lat": 7.3803237, "lon": 126.4353311, "tags": {"admin_level": "11", "designation": "sitio", "is_in:town": "Caraga", "is_in:village": "San Pedro", "name": "Diat", "place": "hamlet"}}, {"type": "node", "id": 9812544150, "lat": 7.4011802, "lon": 126.4306802, "tags": {"admin_level": "11", "designation": "sitio", "is_in:town": "Caraga", "is_in:village": "Pichon", "name": "Kapaypayan", "place": "hamlet"}}, {"type": "node", "id": 9812571840, "lat": 7.2178407, "lon": 126.3837844, "tags": {"is_in:quarter": "Old Macopa", "is_in:town": "Manay", "name": "Batobato", "place": "hamlet"}}, {"type": "node", "id": 9831353506, "lat": 7.2901862, "lon": 126.4339685, "tags": {"admin_level": "11", "designation": "sitio", "is_in:town": "Manay", "is_in:village": "San Fermic", "name": "Caipoc", "place": "hamlet"}}, {"type": "node", "id": 10942498121, "lat": 7.3287489, "lon": 126.555073, "tags": {"alt_name": "Sitio Papag", "is_in:barangay": "Poblacion", "is_in:municipality": "Caraga", "name": "Papag", "place": "hamlet", "postal_code": "8203"}}, {"type": "node", "id": 10942518148, "lat": 7.3487938, "lon": 126.553013, "tags": {"alt_name": "Sitio Anislagan", "is_in:barangay": "Poblacion", "is_in:municipality": "Caraga", "name": "Anislagan", "place": "hamlet", "postal_code": "8203"}}, {"type": "node", "id": 10942587221, "lat": 7.4022126, "lon": 126.5021648, "tags": {"admin_level": "10", "admin_type:PH": "barangay", "is_in:municipality": "Caraga", "name": "Alvar", "official_name": "Barangay Alvar", "place": "village", "postal_code": "8203"}}, {"type": "node", "id": 10942820410, "lat": 7.3848228, "lon": 126.491059, "tags": {"is_in:barangay": "Palma Gil", "is_in:municipality": "Caraga", "place": "hamlet", "postal_code": "8203"}}, {"type": "node", "id": 10942820411, "lat": 7.3702259, "lon": 126.5043987, "tags": {"alt_name": "Sitio Lahi", "is_in:barangay": "Palma Gil", "is_in:municipality": "Caraga", "name": "Lahi", "place": "hamlet", "postal_code": "8203"}}, {"type": "node", "id": 11224220707, "lat": 7.4499771, "lon": 126.5825264, "tags": {"admin_level": "11", "admin_type:PH": "purok", "is_in:barangay": "Baculin", "is_in:municipality": "Baganga", "name": "Kalamansi", "official_name": "Purok Kalamansi", "place": "neighbourhood", "postal_code": "8204"}}, {"type": "node", "id": 11224292183, "lat": 7.4501663, "lon": 126.5751053, "tags": {"alt_name": "Sitio Tambac", "is_in:barangay": "Baculin", "is_in:municipality": "Baganga", "name": "Tambac", "place": "neighbourhood", "postal_code": "8204"}}, {"type": "node", "id": 11224523634, "lat": 7.4585422, "lon": 126.5926984, "tags": {"admin_level": "11", "admin_type:PH": "purok", "is_in:barangay": "Baculin", "is_in:municipality": "Baganga", "name": "Molave", "official_name": "Purok Molave", "place": "neighbourhood", "postal_code": "8204"}}, {"type": "node", "id": 12199363292, "lat": 7.2658071, "lon": 126.5195739, "tags": {"admin_level": "10", "admin_type:PH": "barangay", "is_in:municipality": "Manay", "name": "San Isidro", "official_name": "Barangay San Isidro", "place": "village", "postal_code": "8202"}}, {"type": "node", "id": 12199371114, "lat": 7.4023598, "lon": 126.5506688, "tags": {"admin_level": "10", "admin_type:PH": "barangay", "is_in:municipality": "Caraga", "name": "Manorigao", "official_name": "Barangay Manorigao", "place": "village", "postal_code": "8203"}}, {"type": "node", "id": 12199371115, "lat": 7.3300085, "lon": 126.5151885, "tags": {"admin_level": "10", "admin_type:PH": "barangay", "is_in:municipality": "Caraga", "name": "Don Leon Balante", "official_name": "Barangay Don Leon Balante", "place": "village", "postal_code": "8203"}}, {"type": "node", "id": 12597160051, "lat": 7.227279, "lon": 126.5634938, "tags": {"alt_name": "Kapugtokan", "is_in:village": "Central", "name": "Capugtocan", "name:source": "interpolation", "place": "hamlet", "source_ref": "https://osm.org/note/4605964"}}]}