{"version": 0.6, "generator": "Overpass API 0.7.62.5 1bd436f1", "osm3s": {"timestamp_osm_base": "2025-05-24T17:50:13Z", "copyright": "The data included in this document is from www.openstreetmap.org. The data is made available under ODbL."}, "elements": [{"type": "node", "id": 198491052, "lat": 17.570304, "lon": 120.5899441, "tags": {"admin_level": "6", "name": "Pidigan", "place": "town", "place:PH": "municipality", "population": "12185", "population:date": "2015-08-01", "ref": "140118000", "source:population": "Philippine Statistics Authority", "wikidata": "Q29102", "wikimedia_commons": "Category:Pidigan", "wikipedia": "en:Pidigan"}}, {"type": "node", "id": 198491434, "lat": 17.6851901, "lon": 120.4257345, "tags": {"admin_level": "6", "admin_type:PH": "municipality", "name": "Magsingal", "official_name": "Municipality of Magsingal", "place": "town", "population": "30792", "population:date": "2015-08-01", "website": "http://www.magsingal.gov.ph/", "wikidata": "Q12845", "wikimedia_commons": "Category:Magsingal", "wikipedia": "en:Magsingal"}}, {"type": "node", "id": 198492634, "lat": 17.5755487, "lon": 120.3872632, "tags": {"admin_level": "6", "alt_name": "Vigan City", "alt_name:zh": "\u7dad\u7518", "capital": "4", "is_in:country": "Philippines", "is_in:state": "Ilocos Sur", "name": "Vigan", "name:am": "\u126a\u130b\u1295", "name:ar": "\u0641\u064a\u063a\u0627\u0646", "name:be": "\u0412\u0456\u0433\u0430\u043d", "name:bg": "\u0412\u0438\u0433\u0430\u043d", "name:en": "Vigan", "name:fa": "\u0648\u06cc\u06af\u0627\u0646", "name:hi": "\u0935\u093f\u0917\u0928", "name:ja": "\u30d3\u30ac\u30f3", "name:kk": "\u0412\u0438\u0433\u0430\u043d", "name:ko": "\ube44\uac04\uc2dc", "name:mk": "\u0412\u0438\u0433\u0430\u043d", "name:ru": "\u0412\u0438\u0433\u0430\u043d", "name:sr": "\u0412\u0438\u0433\u0430\u043d", "name:th": "\u0e27\u0e35\u0e01\u0e31\u0e19", "name:uk": "\u0412\u0456\u0433\u0430\u043d", "name:ur": "\u0648\u06cc\u06af\u0646", "name:yue": "\u7dad\u7518", "name:zh": "\u7f8e\u5cb8", "official_name": "City of Vigan", "official_name:en": "City of Vigan", "official_name:ilo": "Siudad ti Vigan", "official_name:tl": "Lungsod ng Vigan", "place": "city", "population": "53879", "population:date": "2015-08-01", "ref": "012934000", "source:population": "Philippine Statistics Authority", "website": "http://www.vigancity.gov.ph/", "wikidata": "Q235004", "wikimedia_commons": "Category:Vigan City", "wikipedia": "en:Vigan"}}, {"type": "node", "id": 198492639, "lat": 17.4152463, "lon": 120.5954528, "tags": {"admin_level": "6", "name": "Pilar", "place": "town", "place:PH": "municipality", "population": "10223", "population:date": "2015-08-01", "ref": "140119000", "source:population": "Philippine Statistics Authority", "wikidata": "Q29109", "wikimedia_commons": "Category:Pilar, Abra", "wikipedia": "en:Pilar, Abra"}}, {"type": "node", "id": 198495762, "lat": 17.5384336, "lon": 120.7187526, "tags": {"admin_level": "6", "name": "Bucay", "place": "town", "place:PH": "municipality", "population": "17115", "population:date": "2015-08-01", "ref": "140103000", "source:population": "Philippine Statistics Authority", "wikidata": "Q28014", "wikimedia_commons": "Category:Bucay, Abra", "wikipedia": "en:Bucay, Abra"}}, {"type": "node", "id": 198497327, "lat": 17.4551443, "lon": 120.7599337, "tags": {"admin_level": "6", "name": "Sallapadan", "place": "town", "place:PH": "municipality", "population": "6622", "population:date": "2015-08-01", "ref": "140120000", "source:population": "Philippine Statistics Authority", "wikidata": "Q29116", "wikimedia_commons": "Category:Sallapadan", "wikipedia": "en:Sallapadan"}}, {"type": "node", "id": 198497578, "lat": 17.7422338, "lon": 120.4583071, "tags": {"admin_level": "6", "admin_type:PH": "municipality", "name": "San Juan", "official_name": "Municipality of San Juan", "place": "town", "population": "26411", "population:date": "2015-08-01", "wikidata": "Q12867", "wikimedia_commons": "Category:San Juan, Ilocos Sur", "wikipedia": "en:San Juan, Ilocos Sur"}}, {"type": "node", "id": 198499710, "lat": 17.682288, "lon": 120.7306199, "tags": {"admin_level": "6", "name": "San Juan", "place": "town", "place:PH": "municipality", "population": "9867", "population:date": "2015-08-01", "ref": "140122000", "source:population": "Philippine Statistics Authority", "wikidata": "Q29123", "wikimedia_commons": "Category:San Juan, Abra", "wikipedia": "en:San Juan, Abra"}}, {"type": "node", "id": 198503338, "lat": 17.5965664, "lon": 120.6179987, "tags": {"admin_level": "6", "admin_type:PH": "municipality", "capital": "4", "name": "Bangued", "name:ja": "\u30d0\u30f3\u30b2\u30c9", "place": "town", "population": "48163", "population:date": "2015-08-01", "ref": "140101000", "source:population": "Philippine Statistics Authority", "wikidata": "Q27995", "wikimedia_commons": "Category:Bangued", "wikipedia": "en:Bangued"}}, {"type": "node", "id": 198503744, "lat": 17.4656098, "lon": 120.6017435, "tags": {"admin_level": "6", "name": "San Isidro", "place": "town", "place:PH": "municipality", "population": "4574", "population:date": "2015-08-01", "ref": "140121000", "source:population": "Philippine Statistics Authority", "wikidata": "Q801530", "wikimedia_commons": "Category:San Isidro, Abra", "wikipedia": "en:San Isidro, Abra"}}, {"type": "node", "id": 198505588, "lat": 17.5638344, "lon": 120.652673, "tags": {"admin_level": "6", "name": "Pe\u00f1arrubia", "place": "town", "place:PH": "municipality", "population": "6640", "population:date": "2015-08-01", "ref": "140117000", "source:population": "Philippine Statistics Authority", "wikidata": "Q29094", "wikimedia_commons": "Category:Pe\u00f1arrubia, Abra", "wikipedia": "en:Pe\u00f1arrubia, Abra"}}, {"type": "node", "id": 198508159, "lat": 17.6180712, "lon": 120.6535488, "tags": {"admin_level": "6", "name": "Tayum", "place": "town", "place:PH": "municipality", "population": "14467", "population:date": "2015-08-01", "ref": "140124000", "source:population": "Philippine Statistics Authority", "wikidata": "Q29139", "wikimedia_commons": "Category:Tayum", "wikipedia": "en:Tayum"}}, {"type": "node", "id": 198508448, "lat": 17.5820178, "lon": 120.3896288, "tags": {"admin_level": "6", "admin_type:PH": "municipality", "name": "Bantay", "official_name": "Municipality of Bantay", "place": "town", "population": "35731", "population:date": "2015-08-01", "wikidata": "Q12825", "wikimedia_commons": "Category:Bantay, Ilocos Sur", "wikipedia": "en:Bantay"}}, {"type": "node", "id": 198508471, "lat": 17.6126919, "lon": 120.7336564, "tags": {"admin_level": "6", "name": "Lagangilang", "place": "town", "place:PH": "municipality", "population": "14255", "population:date": "2015-08-01", "ref": "140110000", "source:population": "Philippine Statistics Authority", "wikidata": "Q29020", "wikimedia_commons": "Category:Lagangilang", "wikipedia": "en:Lagangilang"}}, {"type": "node", "id": 198512348, "lat": 17.4859899, "lon": 120.4345364, "tags": {"admin_level": "6", "admin_type:PH": "municipality", "name": "Santa", "old_ref": "012922000", "place": "town", "population": "14992", "population:date": "2020-05-01", "postal_code": "2703", "ref": "0102922000", "website": "http://www.lgusanta.org/", "wikidata": "Q12873", "wikimedia_commons": "Category:Santa, Ilocos Sur", "wikipedia": "en:Santa, Ilocos Sur"}}, {"type": "node", "id": 198513756, "lat": 17.4378456, "lon": 120.6256845, "tags": {"admin_level": "6", "name": "Villaviciosa", "place": "town", "place:PH": "municipality", "population": "5392", "population:date": "2015-08-01", "ref": "140127000", "source:population": "Philippine Statistics Authority", "wikidata": "Q29191", "wikimedia_commons": "Category:Villaviciosa, Abra", "wikipedia": "en:Villaviciosa, Abra"}}, {"type": "node", "id": 198515058, "lat": 17.6933042, "lon": 120.6644745, "tags": {"admin_level": "6", "name": "Danglas", "place": "town", "place:PH": "municipality", "population": "4192", "population:date": "2015-08-01", "ref": "140106000", "source:population": "Philippine Statistics Authority", "wikidata": "Q28068", "wikimedia_commons": "Category:Danglas", "wikipedia": "en:Danglas"}}, {"type": "node", "id": 198518119, "lat": 17.6249757, "lon": 120.3931252, "tags": {"admin_level": "6", "admin_type:PH": "municipality", "name": "San Ildefonso", "official_name": "Municipality of San Ildefonso", "place": "town", "population": "7787", "population:date": "2015-08-01", "wikidata": "Q12864", "wikimedia_commons": "Category:San Ildefonso, Ilocos Sur", "wikipedia": "en:San Ildefonso, Ilocos Sur"}}, {"type": "node", "id": 198519316, "lat": 17.5761072, "lon": 120.563939, "tags": {"admin_level": "6", "name": "Langiden", "place": "town", "place:PH": "municipality", "population": "3198", "population:date": "2015-08-01", "ref": "140112000", "source:population": "Philippine Statistics Authority", "wikidata": "Q29038", "wikimedia_commons": "Category:Langiden", "wikipedia": "en:Langiden"}}, {"type": "node", "id": 198522411, "lat": 17.6707795, "lon": 120.6838341, "tags": {"admin_level": "6", "name": "La Paz", "place": "town", "place:PH": "municipality", "population": "15437", "population:date": "2015-08-01", "ref": "140108000", "source:population": "Philippine Statistics Authority", "wikidata": "Q28124", "wikimedia_commons": "Category:La Paz, Abra", "wikipedia": "en:La Paz, Abra"}}, {"type": "node", "id": 198522525, "lat": 17.3311208, "lon": 120.4445227, "tags": {"admin_level": "6", "admin_type:PH": "municipality", "name": "San Esteban", "official_name": "Municipality of San Esteban", "place": "town", "population": "8349", "population:date": "2015-08-01", "wikidata": "Q12863", "wikimedia_commons": "Category:San Esteban, Ilocos Sur", "wikipedia": "en:San Esteban, Ilocos Sur"}}, {"type": "node", "id": 198525212, "lat": 17.4194242, "lon": 120.4769173, "tags": {"admin_level": "6", "designation": "municipality", "is_in:province": "Ilocos Sur", "name": "Narvacan", "name:en": "Narvacan", "name:ilo": "Narvacan", "official_name:en": "Municipality of Narvacan", "official_name:ilo": "Ili ti Narvacan", "place": "town", "population": "46234", "population:date": "2020-05-01", "postal_code": "2704", "ref": "012914000", "source": "GNS", "source:population": "Philippine Statistics Authority", "website": "http://www.narvacan.gov.ph/", "wikidata": "Q12850", "wikimedia_commons": "Category:Narvacan", "wikipedia": "en:Narvacan"}}, {"type": "node", "id": 198525762, "lat": 17.3698618, "lon": 120.4808168, "tags": {"admin_level": "6", "admin_type:PH": "municipality", "name": "Santa Maria", "official_name": "Municipality of Santa Maria", "place": "town", "population": "30321", "population:date": "2015-08-01", "short_name": "Sta. Maria", "website": "https://www.santamariailocossur.gov.ph/", "wikidata": "Q12692", "wikimedia_commons": "Category:Santa Maria, Ilocos Sur", "wikipedia": "en:Santa Maria, Ilocos Sur"}}, {"type": "node", "id": 198526335, "lat": 17.6390234, "lon": 120.409813, "tags": {"admin_level": "6", "admin_type:PH": "municipality", "name": "Santo Domingo", "official_name": "Municipality of Santo Domingo", "place": "town", "population": "27975", "population:date": "2015-08-01", "wikidata": "Q12885", "wikimedia_commons": "Category:Santo Domingo, Ilocos Sur", "wikipedia": "en:Santo Domingo, Ilocos Sur"}}, {"type": "node", "id": 198527816, "lat": 17.4472774, "lon": 120.5260318, "tags": {"admin_level": "6", "admin_type:PH": "municipality", "gns_classification": "ADM2", "gns_uni": "-3363661", "is_in:province": "Ilocos Sur", "name": "Nagbukel", "place": "town", "population": "5259", "population:date": "2015-08-01", "source": "GNS", "source:population": "Philippine Statistics Authority", "website": "http://www.nagbukel.gov.ph/", "wikidata": "Q12848", "wikimedia_commons": "Category:Nagbukel", "wikipedia": "en:Nagbukel"}}, {"type": "node", "id": 198528935, "lat": 17.3790583, "lon": 120.8198364, "tags": {"admin_level": "6", "name": "Boliney", "place": "town", "place:PH": "municipality", "population": "3573", "population:date": "2015-08-01", "ref": "140102000", "source:population": "Philippine Statistics Authority", "wikidata": "Q28002", "wikimedia_commons": "Category:Boliney", "wikipedia": "en:Boliney"}}, {"type": "node", "id": 198531260, "lat": 17.5427457, "lon": 120.5203211, "tags": {"admin_level": "6", "name": "San Quintin", "place": "town", "place:PH": "municipality", "population": "5438", "population:date": "2015-08-01", "ref": "140123000", "source:population": "Philippine Statistics Authority", "wikidata": "Q29133", "wikimedia_commons": "Category:San Quintin, Abra", "wikipedia": "en:San Quintin, Abra"}}, {"type": "node", "id": 198531358, "lat": 17.6490473, "lon": 120.7086252, "tags": {"admin_level": "6", "name": "Dolores", "place": "town", "place:PH": "municipality", "population": "11315", "population:date": "2015-08-01", "ref": "140107000", "source:population": "Philippine Statistics Authority", "wikidata": "Q28096", "wikimedia_commons": "Category:Dolores, Abra", "wikipedia": "en:Dolores, Abra"}}, {"type": "node", "id": 198532220, "lat": 17.3335331, "lon": 120.4947775, "tags": {"admin_level": "6", "admin_type:PH": "municipality", "name": "Burgos", "official_name": "Municipality of Burgos", "place": "town", "population": "12224", "population:date": "2015-08-01", "wikidata": "Q12828", "wikimedia_commons": "Category:Burgos, Ilocos Sur", "wikipedia": "en:Burgos, Ilocos Sur"}}, {"type": "node", "id": 198532344, "lat": 17.3173222, "lon": 120.6946459, "tags": {"admin_level": "6", "name": "Luba", "place": "town", "place:PH": "municipality", "population": "6339", "population:date": "2015-08-01", "ref": "140114000", "source:population": "Philippine Statistics Authority", "wikidata": "Q29048", "wikimedia_commons": "Category:Luba, Abra", "wikipedia": "en:Luba, Abra"}}, {"type": "node", "id": 198532372, "lat": 17.4325474, "lon": 120.7041038, "tags": {"admin_level": "6", "name": "Manabo", "place": "town", "place:PH": "municipality", "population": "10761", "population:date": "2015-08-01", "ref": "140116000", "source:population": "Philippine Statistics Authority", "wikidata": "Q29082", "wikimedia_commons": "Category:Manabo", "wikipedia": "en:Manabo"}}, {"type": "node", "id": 2181391627, "lat": 17.720616, "lon": 120.7059814, "tags": {"admin_level": "6", "name": "Lagayan", "place": "town", "place:PH": "municipality", "population": "4499", "population:date": "2015-08-01", "ref": "140111000", "source:population": "Philippine Statistics Authority", "wikidata": "Q29029", "wikimedia_commons": "Category:Lagayan", "wikipedia": "en:Lagayan"}}, {"type": "node", "id": 3555659305, "lat": 17.3035124, "lon": 120.6957588, "tags": {"name": "Baliga", "place": "hamlet"}}, {"type": "node", "id": 3555659318, "lat": 17.3060338, "lon": 120.7316272, "tags": {"fixme": "name", "place": "hamlet"}}, {"type": "node", "id": 3555659324, "lat": 17.3099979, "lon": 120.703845, "tags": {"fixme": "name", "place": "hamlet"}}, {"type": "node", "id": 3555659329, "lat": 17.3320194, "lon": 120.7087398, "tags": {"fixme": "name", "place": "village"}}, {"type": "node", "id": 3555659330, "lat": 17.3367315, "lon": 120.7237814, "tags": {"fixme": "name", "place": "hamlet"}}, {"type": "node", "id": 3555659331, "lat": 17.3476682, "lon": 120.7303459, "tags": {"fixme": "name", "place": "hamlet"}}, {"type": "node", "id": 3555659332, "lat": 17.3536136, "lon": 120.7186441, "tags": {"fixme": "name", "place": "hamlet"}}, {"type": "node", "id": 3555659333, "lat": 17.3647996, "lon": 120.7138573, "tags": {"admin_level": "11", "admin_type:PH": "sitio", "name": "Tabangao", "place": "hamlet"}}, {"type": "node", "id": 3555659334, "lat": 17.3653935, "lon": 120.6951758, "tags": {"fixme": "name", "place": "village"}}, {"type": "node", "id": 3555659357, "lat": 17.3725235, "lon": 120.7704312, "tags": {"name": "Kibalat", "place": "hamlet"}}, {"type": "node", "id": 3555659520, "lat": 17.3947512, "lon": 120.717542, "tags": {"admin_level": "11", "designation": "sitio", "name": "Casakgudan", "place": "hamlet"}}, {"type": "node", "id": 3555659585, "lat": 17.4111785, "lon": 120.7228719, "tags": {"fixme": "name", "place": "hamlet"}}, {"type": "node", "id": 3555659586, "lat": 17.4126053, "lon": 120.7074166, "tags": {"fixme": "name", "place": "hamlet"}}, {"type": "node", "id": 3555659587, "lat": 17.4126389, "lon": 120.7651669, "tags": {"name": "Boyan", "place": "hamlet"}}, {"type": "node", "id": 3555659588, "lat": 17.4293176, "lon": 120.7527034, "tags": {"name": "Bantay", "place": "hamlet"}}, {"type": "node", "id": 3555659620, "lat": 17.4390714, "lon": 120.8015118, "tags": {"admin_level": "10", "is_in": "Bucloc", "name": "Ducligan", "place": "village", "place:PH": "barangay", "ref": "140104001"}}, {"type": "node", "id": 3555659653, "lat": 17.4415632, "lon": 120.7625107, "tags": {"admin_level": "10", "is_in": "Sallapadan", "name": "Maguyepyep", "place": "village", "place:PH": "barangay", "ref": "140120004"}}, {"type": "node", "id": 3555659662, "lat": 17.44219, "lon": 120.8320673, "tags": {"name": "Daldalao", "place": "hamlet"}}, {"type": "node", "id": 3555659697, "lat": 17.4440617, "lon": 120.825652, "tags": {"admin_level": "10", "is_in": "Bucloc", "name": "Labaan", "place": "village", "place:PH": "barangay", "ref": "140104002"}}, {"type": "node", "id": 4481561977, "lat": 17.4695627, "lon": 120.8235487, "tags": {"addr:city": "Sallapadan", "is_in:country": "Philippines", "is_in:village": "Ud-udiao", "name": "Nagasasan", "place": "hamlet"}}, {"type": "node", "id": 4481562720, "lat": 17.4551413, "lon": 120.7956723, "tags": {"addr:city": "Sallapadan", "is_in:county": "Philippines", "is_in:village": "Ud-udiao", "name": "Malidugay", "place": "hamlet"}}, {"type": "node", "id": 4651621665, "lat": 17.674056, "lon": 120.449358, "tags": {"admin_level": "10", "admin_type:PH": "barangay", "alt_name": "Barangay Patong", "is_in:municipality": "Magsingal", "name": "Patong", "place": "village"}}, {"type": "node", "id": 4734289323, "lat": 17.404656, "lon": 120.4785551, "tags": {"name": "Nanguneg East", "place": "neighbourhood"}}, {"type": "node", "id": 6736395986, "lat": 17.6484265, "lon": 120.4404809, "tags": {"admin_level": "10", "admin_type:PH": "barangay", "is_in:town": "Santo Domingo", "name": "Borobor", "place": "village"}}, {"type": "node", "id": 6845810560, "lat": 17.4608382, "lon": 120.5551338, "tags": {"admin_level": "10", "admin_type:PH": "barangay", "is_in:town": "Nagbukel", "name": "Casilagan", "place": "village"}}, {"type": "node", "id": 6951441986, "lat": 17.6535254, "lon": 120.715278, "tags": {"admin_level": "10", "designation": "barangay", "name": "Bayaan", "place": "village"}}, {"type": "node", "id": 7475315461, "lat": 17.5174952, "lon": 120.4446278, "tags": {"admin_level": "10", "admin_type:PH": "barangay", "name": "Manueva", "place": "village"}}, {"type": "node", "id": 7475315463, "lat": 17.5101968, "lon": 120.405566, "tags": {"admin_level": "10", "admin_type:PH": "barangay", "is_in:town": "Santa", "name": "Dammay", "old_ref": "012922009", "place": "hamlet", "population": "159", "ref": "0102922009", "source:population": "Philippine Statistics Authority"}}, {"type": "node", "id": 7481742691, "lat": 17.6407904, "lon": 120.4271095, "tags": {"name": "Quimmarayan", "place": "village"}}, {"type": "node", "id": 7772088410, "lat": 17.5874482, "lon": 120.3853887, "tags": {"is_in:town": "Bantay", "name": "Balaleng", "place": "village", "source": "extrapolated from OSMaPaaralan/DepEd data"}}, {"type": "node", "id": 7774578193, "lat": 17.3975755, "lon": 120.5161196, "tags": {"is_in:town": "Narvacan", "name": "Sucoc", "place": "village", "source:name": "extrapolated from OSMaPaaralan/DepEd data"}}, {"type": "node", "id": 7774578210, "lat": 17.3884813, "lon": 120.5186087, "tags": {"is_in:town": "Santa Maria", "is_in:village": "Ag-agrao", "name": "Zone 3", "place": "neighbourhood"}}, {"type": "node", "id": 7774578211, "lat": 17.3861879, "lon": 120.5184746, "tags": {"is_in:town": "Santa Maria", "name": "Ag-agrao", "place": "village", "source:name": "extrapolated from OSMaPaaralan/DepEd data"}}, {"type": "node", "id": 7774741298, "lat": 17.4965759, "lon": 120.4155368, "tags": {"admin_level": "10", "admin_type:PH": "barangay", "is_in:town": "Santa", "name": "Calungboyan", "place": "village", "source:name": "extrapolated from OSMaPaaralan/DepEd data"}}, {"type": "node", "id": 7774741315, "lat": 17.5005896, "lon": 120.4093033, "tags": {"admin_level": "10", "admin_type:PH": "barangay", "is_in:town": "Santa", "name": "Rancho", "place": "village", "source:name": "extrapolated from OSMaPaaralan/DepEd data"}}, {"type": "node", "id": 7774754716, "lat": 17.4914954, "lon": 120.4271722, "tags": {"is_in:town": "Santa", "name": "Tabucolan", "place": "village", "source:name": "extrapolated from OSMaPaaralan/DepEd data"}}, {"type": "node", "id": 7774778587, "lat": 17.5073862, "lon": 120.4012459, "tags": {"admin_level": "10", "admin_type:PH": "barangay", "is_in:town": "Caoayan", "name": "Puro", "old_ref": "012907013", "place": "village", "population": "1106", "population:2015": "1227", "ref": "0102907013", "source:name": "extrapolated from OSMaPaaralan/DepEd data", "source:population": "Philippine Statistics Authority"}}, {"type": "node", "id": 7774796807, "lat": 17.5120148, "lon": 120.4423132, "tags": {"admin_level": "10", "admin_type:PH": "barangay", "is_in:town": "Santa", "name": "Mabilbila Norte", "place": "village", "population": "673", "population:2015": "685", "ref": "012922013", "source:name": "extrapolated from OSMaPaaralan/DepEd data", "source:population": "Philippine Statistics Authority"}}, {"type": "node", "id": 7774814368, "lat": 17.5251632, "lon": 120.445497, "tags": {"admin_level": "10", "admin_type:PH": "barangay", "is_in:town": "Santa", "name": "Basug", "place": "village", "source:name": "extrapolated from OSMaPaaralan/DepEd data"}}, {"type": "node", "id": 7774846604, "lat": 17.5374782, "lon": 120.449633, "tags": {"is_in:town": "Santa", "name": "Sacuyya Norte", "place": "village", "source:name": "extrapolated from OSMaPaaralan/DepEd data"}}, {"type": "node", "id": 7774869693, "lat": 17.5458028, "lon": 120.4522616, "tags": {"is_in:town": "Santa", "name": "Rizal", "place": "village", "source:name": "extrapolated from OSMaPaaralan/DepEd data"}}, {"type": "node", "id": 7775051954, "lat": 17.3504745, "lon": 120.4867735, "tags": {"is_in:town": "Burgos", "name": "Mambug", "place": "village", "source:name": "extrapolated from OSMaPaaralan/DepEd data"}}, {"type": "node", "id": 7775118544, "lat": 17.3654662, "lon": 120.481039, "tags": {"admin_level": "10", "designation": "barangay", "is_in:town": "Santa Maria", "name": "Poblacion Sur", "place": "village", "source:name": "extrapolated from OSMaPaaralan/DepEd data"}}, {"type": "node", "id": 7775213535, "lat": 17.3296823, "lon": 120.4453897, "tags": {"is_in:town": "San Esteban", "name": "Poblacion", "place": "village", "source:name": "extrapolated from OSMaPaaralan/DepEd data"}}, {"type": "node", "id": 7775213994, "lat": 17.3364878, "lon": 120.4449713, "tags": {"is_in:town": "San Esteban", "name": "Villa Quirino", "place": "village", "source:name": "extrapolated from OSMaPaaralan/DepEd data"}}, {"type": "node", "id": 7775355665, "lat": 17.3001284, "lon": 120.4242486, "tags": {"admin_level": "10", "admin_type:PH": "barangay", "is_in:town": "Santiago", "name": "Ambucao", "place": "village", "population": "1713", "population:2015": "1709", "ref": "012927002", "source:name": "extrapolated from OSMaPaaralan/DepEd data", "source:population": "Philippine Statistics Authority"}}, {"type": "node", "id": 7779935968, "lat": 17.3257186, "lon": 120.4953566, "tags": {"is_in:town": "Burgos", "name": "Macaoayan", "place": "village", "source:name": "extrapolated from OSMaPaaralan/DepEd data"}}, {"type": "node", "id": 7779942017, "lat": 17.3331337, "lon": 120.4957697, "tags": {"is_in:town": "Burgos", "name": "Poblacion Norte", "place": "village", "source:name": "extrapolated from OSMaPaaralan/DepEd data"}}, {"type": "node", "id": 7779960424, "lat": 17.3154123, "lon": 120.5098298, "tags": {"admin_level": "10", "admin_type:PH": "barangay", "is_in:town": "Burgos", "name": "Luna", "place": "village", "source:name": "extrapolated from OSMaPaaralan/DepEd data"}}, {"type": "node", "id": 7780869688, "lat": 17.4199621, "lon": 120.4751596, "tags": {"name": "Santa Lucia", "place": "suburb", "source:name": "extrapolated from POI, way/472433682"}}, {"type": "node", "id": 7780869701, "lat": 17.4175322, "lon": 120.4768145, "tags": {"is_in:town": "Narvacan", "name": "San Jose", "place": "suburb", "source:name": "extrapolated from OSMaPaaralan/DepEd data"}}, {"type": "node", "id": 7874690950, "lat": 17.3565215, "lon": 120.5772257, "tags": {"name": "Ocup", "place": "village", "source:name": "extrapolated from OSMaPaaralan, way/836632626"}}, {"type": "node", "id": 7877162884, "lat": 17.3528862, "lon": 120.5982488, "tags": {"name": "Bol-lilising", "place": "village", "source:name": "extrapolated from OSMaPaaralan, way/844453144"}}, {"type": "node", "id": 7877188885, "lat": 17.3340964, "lon": 120.5617279, "tags": {"admin_level": "10", "admin_type:PH": "barangay", "is_in:town": "Pilar", "name": "Pang-ot", "place": "village", "source:name": "extrapolated from OSMaPaaralan, way/836631151"}}, {"type": "node", "id": 7987354430, "lat": 17.4595946, "lon": 120.4656243, "tags": {"admin_level": "10", "admin_type:PH": "barangay", "is_in:municipality": "Narvacan", "name": "Camarao", "place": "village"}}, {"type": "node", "id": 8404056748, "lat": 17.6026019, "lon": 120.4135761, "tags": {"admin_level": "10", "designation": "barangay", "is_in:town": "Bantay", "name": "Capangdanan", "place": "village", "source:name": "extrapolated from OSMaPaaralan, way/904945005"}}, {"type": "node", "id": 8463935663, "lat": 17.6593167, "lon": 120.6988209, "tags": {"admin_level": "10", "admin_type:PH": "barangay", "is_in:town": "Dolores", "name": "Cardona", "place": "village", "place:PH": "barangay", "source": "deped"}}, {"type": "node", "id": 8723686422, "lat": 17.3259363, "lon": 120.6968307, "tags": {"place": "village"}}, {"type": "node", "id": 8723686423, "lat": 17.3590355, "lon": 120.6524777, "tags": {"admin_level": "11", "designation": "sitio", "name": "Botot", "place": "hamlet"}}, {"type": "node", "id": 8723686424, "lat": 17.3289167, "lon": 120.6597197, "tags": {"place": "village"}}, {"type": "node", "id": 8723686425, "lat": 17.317174, "lon": 120.6530008, "tags": {"admin_level": "10", "admin_type:PH": "barangay", "gns_classification": "ADM3", "is_in:town": "Luba", "name": "Lul-luno", "old_ref": "140114005", "place": "hamlet", "population": "388", "ref": "1400114005", "source:population": "Philippine Statistics Authority"}}, {"type": "node", "id": 8723686436, "lat": 17.3088697, "lon": 120.6144226, "tags": {"admin_level": "10", "admin_type:PH": "barangay", "gns_classification": "ADM3", "is_in:town": "Villaviciosa", "name": "Tamac", "old_ref": "140127007", "place": "village", "population": "678", "ref": "1400127007", "source:population": "Philippine Statistics Authority"}}, {"type": "node", "id": 8723686437, "lat": 17.3034434, "lon": 120.6038439, "tags": {"place": "village"}}, {"type": "node", "id": 8724456385, "lat": 17.3809072, "lon": 120.7098877, "tags": {"admin_level": "11", "is_in:town": "Manabo", "is_in:village": "San Ramon East", "name": "Madago", "place": "village", "place:PH": "sitio"}}, {"type": "node", "id": 8855740981, "lat": 17.6368177, "lon": 120.7549341, "tags": {"admin_level": "10", "designation": "barangay", "is_in:town": "Dolores", "name": "Libtec", "place": "village", "source:name": "extrapolated from OSMaPaaralan, way/957017185"}}, {"type": "node", "id": 8855753477, "lat": 17.6473551, "lon": 120.7913706, "tags": {"admin_level": "10", "designation": "barangay", "is_in:town": "Lagangilang", "name": "Cayapa", "place": "village", "source:name": "extrapolated from OSMaPaaralan"}}, {"type": "node", "id": 8856031935, "lat": 17.4083098, "lon": 120.5908379, "tags": {"admin_level": "10", "designation": "barangay", "is_in:town": "Pilar", "is_in:village": "?", "name": "South Balioag", "place": "village", "source:name": "extrapolated from OSMaPaaralan"}}, {"type": "node", "id": 8856044461, "lat": 17.3972172, "lon": 120.6030956, "tags": {"admin_level": "10", "designation": "barangay", "is_in:town": "Pilar", "name": "San Juan East", "place": "village", "source:name": "extrapolated from OSMaPaaralan, way/888196665"}}, {"type": "node", "id": 8892363715, "lat": 17.4474948, "lon": 120.4980357, "tags": {"admin_level": "10", "designation": "barangay", "is_in:town": "Narvacan", "name": "Parparia", "place": "village"}}, {"type": "node", "id": 8974346890, "lat": 17.3556818, "lon": 120.4549384, "tags": {"admin_level": "10", "designation": "barangay", "name": "Suso", "place": "village", "postal_code": "2705"}}, {"type": "node", "id": 9025779622, "lat": 17.4406348, "lon": 120.4891394, "tags": {"admin_level": "10", "designation": "barangay", "is_in:town": "Narvacan", "name": "Aquib", "place": "village"}}, {"type": "node", "id": 9318765221, "lat": 17.4258891, "lon": 120.4733196, "tags": {"admin_level": "11", "designation": "sitio", "name": "Limmansangan", "place": "hamlet"}}, {"type": "node", "id": 9318765222, "lat": 17.4263395, "lon": 120.4727912, "tags": {"admin_level": "10", "designation": "barangay", "name": "Margaay", "place": "village"}}, {"type": "node", "id": 9369268967, "lat": 17.6101565, "lon": 120.4492253, "tags": {"admin_level": "10", "admin_type:PH": "barangay", "is_in:town": "Bantay", "name": "Tay-ac", "place": "village", "population": "2595", "population:2015": "2609", "ref": "012903029", "source:name": "extrapolated from OSMaPaaralan, relation/13599719", "source:population": "Philippine Statistics Authority"}}, {"type": "node", "id": 9369310302, "lat": 17.4710275, "lon": 120.4828548, "tags": {"admin_level": "10", "admin_type:PH": "barangay", "is_in:town": "Narvacan", "name": "Lungog", "place": "village", "population": "2213", "population:2015": "2152", "ref": "012914016", "source:name": "extrapolated from OSMaPaaralan, way/956361101", "source:population": "Philippine Statistics Authority"}}, {"type": "node", "id": 9369310303, "lat": 17.46103, "lon": 120.4765128, "tags": {"admin_level": "12", "admin_type:PH": "purok", "is_in:town": "Narvacan", "is_in:village": "Lungog", "name": "Zone 1", "place": "neighbourhood", "source:name": "extrapolated from OSMaPaaralan, way/956361101"}}, {"type": "node", "id": 9371341173, "lat": 17.4269946, "lon": 120.4577024, "tags": {"admin_level": "10", "admin_type:PH": "barangay", "alt_name": "Bolanos", "is_in:town": "Narvacan", "name": "Bulanos", "place": "village", "population": "1074", "population:2015": "937", "ref": "012914006", "source:population": "Philippine Statistics Authority"}}, {"type": "node", "id": 9371350571, "lat": 17.4472142, "lon": 120.4487452, "tags": {"admin_level": "10", "admin_type:PH": "barangay", "is_in:town": "Narvacan", "name": "Sulvec", "place": "village", "population": "2277", "population:2015": "2005", "ref": "012914033", "source:population": "Philippine Statistics Authority"}}, {"type": "node", "id": 9446056950, "lat": 17.3156517, "lon": 120.4284918, "tags": {"admin_level": "10", "admin_type:PH": "barangay", "is_in:town": "San Esteban", "name": "Apatot", "place": "village", "population": "1713", "population:2015": "1709", "ref": "012927002", "source:name": "extrapolated from OSMaPaaralan, way/832883758", "source:population": "Philippine Statistics Authority"}}, {"type": "node", "id": 9552170105, "lat": 17.4530316, "lon": 120.7620272, "tags": {"admin_level": "10", "designation": "barangay", "name": "Gangal", "place": "village"}}, {"type": "node", "id": 9552265686, "lat": 17.4167861, "lon": 120.7188141, "tags": {"admin_level": "11", "designation": "sitio", "name": "Banat", "place": "hamlet"}}, {"type": "node", "id": 9552358533, "lat": 17.3947165, "lon": 120.6871936, "tags": {"admin_level": "11", "designation": "sitio", "name": "Liagan", "place": "hamlet"}}, {"type": "node", "id": 9552358534, "lat": 17.3800728, "lon": 120.6777281, "tags": {"admin_level": "10", "designation": "barangay", "name": "Barit", "place": "village"}}, {"type": "node", "id": 9552385750, "lat": 17.5723622, "lon": 120.54461, "tags": {"admin_level": "10", "designation": "barangay", "name": "San Diego", "place": "village"}}, {"type": "node", "id": 9552396082, "lat": 17.5762744, "lon": 120.5640212, "tags": {"admin_level": "10", "designation": "barangay", "name": "Poblacion", "place": "village"}}, {"type": "node", "id": 9554663163, "lat": 17.3878338, "lon": 120.598678, "tags": {"admin_level": "10", "designation": "barangay", "name": "Kinabiti", "place": "village"}}, {"type": "node", "id": 9554752545, "lat": 17.3882689, "lon": 120.5622254, "tags": {"admin_level": "10", "admin_type:PH": "barangay", "is_in:town": "Pilar", "name": "Gapang", "old_ref": "140119007", "place": "village", "population": "642", "ref": "1400119007", "source:population": "Philippine Statistics Authority"}}, {"type": "node", "id": 9554806191, "lat": 17.3679443, "lon": 120.564791, "tags": {"admin_level": "10", "designation": "barangay", "name": "Nagcanasan", "place": "village"}}, {"type": "node", "id": 9556449317, "lat": 17.3494607, "lon": 120.5671406, "tags": {"admin_level": "10", "designation": "barangay", "name": "Dalit", "place": "village"}}, {"type": "node", "id": 9556492334, "lat": 17.3629856, "lon": 120.5874824, "tags": {"admin_level": "10", "designation": "barangay", "name": "Dintan", "place": "village"}}, {"type": "node", "id": 9556492387, "lat": 17.3728311, "lon": 120.6019101, "tags": {"admin_level": "10", "designation": "barangay", "name": "Bolbolo", "place": "village"}}, {"type": "node", "id": 9562728518, "lat": 17.4456367, "lon": 120.5953789, "tags": {"admin_level": "10", "designation": "barangay", "name": "Tangbao", "place": "village"}}, {"type": "node", "id": 9562728519, "lat": 17.442259, "lon": 120.5944052, "tags": {"admin_level": "11", "designation": "sitio", "name": "Turod", "place": "hamlet"}}, {"type": "node", "id": 9562804383, "lat": 17.4551105, "lon": 120.6206708, "tags": {"admin_level": "10", "admin_type:PH": "barangay", "is_in:town": "Villaviciosa", "name": "Lumaba", "place": "village"}}, {"type": "node", "id": 9562815217, "lat": 17.4810053, "lon": 120.6154123, "tags": {"admin_level": "10", "designation": "barangay", "name": "Manayday", "place": "village"}}, {"type": "node", "id": 9562877727, "lat": 17.4939206, "lon": 120.5979806, "tags": {"admin_level": "10", "designation": "barangay", "name": "Dalimag", "place": "village"}}, {"type": "node", "id": 9562987873, "lat": 17.5181779, "lon": 120.5993324, "tags": {"admin_level": "10", "designation": "barangay", "name": "Arab", "place": "village"}}, {"type": "node", "id": 9566138797, "lat": 17.5309103, "lon": 120.6462443, "tags": {"admin_level": "10", "designation": "barangay", "name": "Malamsit", "place": "village"}}, {"type": "node", "id": 9566148305, "lat": 17.4999884, "lon": 120.6360894, "tags": {"admin_level": "10", "designation": "barangay", "name": "Maoay", "place": "village"}}, {"type": "node", "id": 9566148306, "lat": 17.4886456, "lon": 120.6454208, "tags": {"admin_level": "10", "designation": "barangay", "name": "San Marcial", "place": "village"}}, {"type": "node", "id": 9566222430, "lat": 17.5578222, "lon": 120.6253499, "tags": {"admin_level": "10", "designation": "barangay", "name": "Malita", "place": "village"}}, {"type": "node", "id": 9566434808, "lat": 17.5525696, "lon": 120.585798, "tags": {"admin_level": "11", "designation": "sitio", "name": "Nagdaingan", "place": "hamlet"}}, {"type": "node", "id": 9566434809, "lat": 17.5639263, "lon": 120.5885687, "tags": {"admin_level": "10", "designation": "barangay", "name": "Pangtud", "place": "village"}}, {"type": "node", "id": 9566450070, "lat": 17.5565692, "lon": 120.563187, "tags": {"admin_level": "10", "admin_type:PH": "barangay", "is_in:town": "Pidigan", "name": "Pamutic", "place": "village"}}, {"type": "node", "id": 9573099584, "lat": 17.6297205, "lon": 120.6198943, "tags": {"admin_level": "10", "designation": "barangay", "name": "Mudeng", "place": "village"}}, {"type": "node", "id": 9573133517, "lat": 17.6385533, "lon": 120.6142737, "tags": {"admin_level": "10", "designation": "barangay", "name": "Udangan", "place": "village"}}, {"type": "node", "id": 9573147073, "lat": 17.652582, "lon": 120.6328064, "tags": {"admin_level": "10", "designation": "barangay", "name": "Liguis", "place": "village"}}, {"type": "node", "id": 9573147074, "lat": 17.6665035, "lon": 120.6296682, "tags": {"admin_level": "11", "designation": "sitio", "name": "Sidongan", "place": "hamlet"}}, {"type": "node", "id": 9573416752, "lat": 17.6027681, "lon": 120.5754581, "tags": {"admin_level": "10", "designation": "barangay", "name": "Baac", "place": "village"}}, {"type": "node", "id": 9580971353, "lat": 17.7334712, "lon": 120.7096195, "tags": {"admin_level": "10", "designation": "barangay", "name": "Pulot", "place": "village"}}, {"type": "node", "id": 9581041632, "lat": 17.7327226, "lon": 120.7463899, "tags": {"admin_level": "10", "admin_type:PH": "barangay", "name": "Ba-i", "place": "village"}}, {"type": "node", "id": 9581138741, "lat": 17.725481, "lon": 120.7276842, "tags": {"admin_level": "10", "designation": "barangay", "name": "Quidaoen", "place": "village"}}, {"type": "node", "id": 9581216574, "lat": 17.720122, "lon": 120.7457435, "tags": {"admin_level": "10", "admin_type:PH": "barangay", "name": "Silet", "place": "village"}}, {"type": "node", "id": 9581304350, "lat": 17.7031947, "lon": 120.7489514, "tags": {"admin_level": "11", "designation": "sitio", "name": "Alimosgan", "place": "hamlet"}}, {"type": "node", "id": 9581349439, "lat": 17.6694336, "lon": 120.7252179, "tags": {"admin_level": "10", "designation": "barangay", "name": "Colabaoan", "place": "village"}}, {"type": "node", "id": 9581349440, "lat": 17.6741117, "lon": 120.7314742, "tags": {"admin_level": "10", "designation": "barangay", "name": "Lam-ag", "place": "village"}}, {"type": "node", "id": 9585780517, "lat": 17.5196026, "lon": 120.5251747, "tags": {"admin_level": "10", "designation": "barangay", "name": "Villa Mercedes", "place": "village"}}, {"type": "node", "id": 9585821498, "lat": 17.5315522, "lon": 120.5457835, "tags": {"admin_level": "10", "designation": "barangay", "name": "Sulbec", "place": "village"}}, {"type": "node", "id": 9585857055, "lat": 17.5447286, "lon": 120.5513531, "tags": {"admin_level": "10", "designation": "barangay", "name": "Garreta", "place": "village"}}, {"type": "node", "id": 9585897062, "lat": 17.5545694, "lon": 120.5661642, "tags": {"admin_level": "10", "admin_type:PH": "barangay", "is_in:town": "Pidigan", "name": "Alinaya", "place": "village"}}, {"type": "node", "id": 9585897068, "lat": 17.5487668, "lon": 120.5655581, "tags": {"admin_level": "11", "designation": "sitio", "name": "Casilagan", "place": "hamlet"}}, {"type": "node", "id": 9585912261, "lat": 17.5109238, "lon": 120.694111, "tags": {"admin_level": "10", "designation": "barangay", "name": "Santa Rosa", "place": "village"}}, {"type": "node", "id": 9585928658, "lat": 17.5861851, "lon": 120.5850148, "tags": {"admin_level": "10", "designation": "barangay", "name": "Quillat", "place": "village"}}, {"type": "node", "id": 9586010116, "lat": 17.6184599, "lon": 120.6830066, "tags": {"admin_level": "10", "designation": "barangay", "name": "Gaddani", "place": "village"}}, {"type": "node", "id": 9586022403, "lat": 17.5998637, "lon": 120.6797987, "tags": {"admin_level": "11", "admin_type:PH": "sitio", "name": "An-anaao", "place": "hamlet"}}, {"type": "node", "id": 9586125507, "lat": 17.6179895, "lon": 120.7093406, "tags": {"admin_level": "10", "designation": "barangay", "name": "Bumagcat", "place": "village"}}, {"type": "node", "id": 9586143264, "lat": 17.5679525, "lon": 120.6307331, "tags": {"admin_level": "10", "designation": "barangay", "name": "Agtangao", "place": "village"}}, {"type": "node", "id": 9595079793, "lat": 17.7038335, "lon": 120.6768536, "tags": {"admin_level": "11", "designation": "barangay", "name": "Gongonot", "place": "hamlet"}}, {"type": "node", "id": 9595079794, "lat": 17.6884404, "lon": 120.6657252, "tags": {"admin_level": "11", "designation": "sitio", "name": "Manganip", "place": "hamlet"}}, {"type": "node", "id": 9595123594, "lat": 17.7166626, "lon": 120.6560236, "tags": {"admin_level": "10", "designation": "barangay", "name": "Nagaparan", "place": "village"}}, {"type": "node", "id": 9595171975, "lat": 17.6988431, "lon": 120.659481, "tags": {"admin_level": "10", "designation": "barangay", "name": "Abaquid", "place": "village"}}, {"type": "node", "id": 9595244408, "lat": 17.6466982, "lon": 120.6429774, "tags": {"admin_level": "10", "designation": "barangay", "name": "San Gregorio", "place": "village"}}, {"type": "node", "id": 9595245159, "lat": 17.6633957, "lon": 120.6515872, "tags": {"admin_level": "10", "designation": "barangay", "name": "Benben", "place": "village"}}, {"type": "node", "id": 9595357948, "lat": 17.6612489, "lon": 120.6686944, "tags": {"admin_level": "10", "designation": "barangay", "name": "Canan", "place": "village"}}, {"type": "node", "id": 9595441449, "lat": 17.650297, "lon": 120.6672835, "tags": {"admin_level": "10", "designation": "barangay", "name": "Bulbulala", "place": "village"}}, {"type": "node", "id": 9595480820, "lat": 17.6480963, "lon": 120.6584161, "tags": {"admin_level": "10", "designation": "barangay", "name": "Toon", "place": "village"}}, {"type": "node", "id": 9595480856, "lat": 17.6430661, "lon": 120.6563669, "tags": {"admin_level": "10", "designation": "barangay", "name": "Padangitan", "place": "village"}}, {"type": "node", "id": 9595530537, "lat": 17.6802732, "lon": 120.7198763, "tags": {"admin_level": "10", "designation": "barangay", "name": "Daoidao", "place": "village"}}, {"type": "node", "id": 9595553200, "lat": 17.6633344, "lon": 120.7486886, "tags": {"admin_level": "10", "designation": "barangay", "name": "Supiil", "place": "village"}}, {"type": "node", "id": 9597710676, "lat": 17.6757243, "lon": 120.7372302, "tags": {"admin_level": "10", "designation": "barangay", "name": "Baug", "place": "village"}}, {"type": "node", "id": 9597736355, "lat": 17.6982938, "lon": 120.7327509, "tags": {"admin_level": "10", "designation": "barangay", "name": "Nangobongan", "place": "village"}}, {"type": "node", "id": 9597795087, "lat": 17.665195, "lon": 120.7205039, "tags": {"admin_level": "10", "designation": "barangay", "name": "Pacac", "place": "village"}}, {"type": "node", "id": 9597831022, "lat": 17.6338794, "lon": 120.7374823, "tags": {"admin_level": "10", "designation": "barangay", "name": "Talogtog", "place": "village"}}, {"type": "node", "id": 9597836671, "lat": 17.608009, "lon": 120.7348967, "tags": {"admin_level": "10", "designation": "barangay", "name": "Presentar", "place": "village"}}, {"type": "node", "id": 9597861937, "lat": 17.6260727, "lon": 120.724951, "tags": {"admin_level": "10", "admin_type:PH": "barangay", "name": "Lagben", "place": "village"}}, {"type": "node", "id": 9597861938, "lat": 17.6293166, "lon": 120.7220784, "tags": {"admin_level": "10", "admin_type:PH": "barangay", "name": "Mudiit", "place": "village"}}, {"type": "node", "id": 9597879898, "lat": 17.6196793, "lon": 120.7342556, "tags": {"admin_level": "10", "admin_type:PH": "barangay", "is_in:town": "Lagangilang", "name": "Balais", "place": "village"}}, {"type": "node", "id": 9597965568, "lat": 17.5904115, "lon": 120.7520977, "tags": {"admin_level": "10", "designation": "barangay", "name": "Tagodtod", "place": "village"}}, {"type": "node", "id": 9598069953, "lat": 17.5767449, "lon": 120.7752746, "tags": {"admin_level": "10", "designation": "barangay", "name": "Calao", "place": "village"}}, {"type": "node", "id": 9598088727, "lat": 17.6623657, "lon": 120.7922316, "tags": {"admin_level": "10", "designation": "barangay", "name": "Bacooc", "place": "village"}}, {"type": "node", "id": 9598112403, "lat": 17.5823932, "lon": 120.7463765, "tags": {"admin_level": "10", "designation": "barangay", "name": "Dalaguisen", "place": "village"}}, {"type": "node", "id": 9598134664, "lat": 17.577939, "lon": 120.7551607, "tags": {"admin_level": "10", "designation": "barangay", "name": "Taping", "place": "village"}}, {"type": "node", "id": 9692805127, "lat": 17.5857683, "lon": 120.6457159, "tags": {"admin_level": "10", "designation": "barangay", "name": "Cosili West", "place": "village"}}, {"type": "node", "id": 9692805128, "lat": 17.5823651, "lon": 120.6533897, "tags": {"admin_level": "10", "designation": "barangay", "name": "Cosili East", "place": "village"}}, {"type": "node", "id": 9692811068, "lat": 17.5675191, "lon": 120.6413412, "tags": {"admin_level": "11", "designation": "sitio", "name": "Bangbangar", "place": "hamlet"}}, {"type": "node", "id": 9692811069, "lat": 17.5469689, "lon": 120.6430954, "tags": {"admin_level": "10", "designation": "barangay", "name": "Namarabar", "place": "village"}}, {"type": "node", "id": 9692811070, "lat": 17.5401405, "lon": 120.6408101, "tags": {"admin_level": "10", "designation": "barangay", "name": "Tattawa", "place": "village"}}, {"type": "node", "id": 9692839724, "lat": 17.5403349, "lon": 120.6559244, "tags": {"admin_level": "11", "designation": "sitio", "name": "Lapga", "place": "hamlet"}}, {"type": "node", "id": 9692839768, "lat": 17.546414, "lon": 120.6659049, "tags": {"admin_level": "10", "designation": "barangay", "name": "Lusuac", "place": "village"}}, {"type": "node", "id": 9692906364, "lat": 17.5138731, "lon": 120.6426501, "tags": {"admin_level": "10", "designation": "barangay", "name": "Sappaac", "place": "village"}}, {"type": "node", "id": 9702256432, "lat": 17.3685113, "lon": 120.4971872, "tags": {"admin_level": "10", "admin_type:PH": "barangay", "from": "addr:place=Cabaroan", "is_in:town": "Santa Maria", "name": "Cabaroan", "old_ref": "012926008", "place": "village", "population": "1293", "population:2015": "1485", "ref": "0102926008", "source:name": "extrapolated"}}, {"type": "node", "id": 9711587893, "lat": 17.3685382, "lon": 120.4776621, "tags": {"admin_level": "10", "designation": "barangay", "is_in:town": "Santa Maria", "name": "Poblacion Norte", "place": "village"}}, {"type": "node", "id": 9727414716, "lat": 17.7368281, "lon": 120.4530984, "tags": {"admin_level": "10", "admin_type:PH": "barangay", "is_in:town": "San Juan", "name": "Baliw", "place": "village"}}, {"type": "node", "id": 9727421858, "lat": 17.7273013, "lon": 120.4708037, "tags": {"admin_level": "10", "admin_type:PH": "barangay", "is_in:town": "San Juan", "name": "Nagsuputan", "place": "village"}}, {"type": "node", "id": 9727443146, "lat": 17.7392755, "lon": 120.4740357, "tags": {"admin_level": "10", "admin_type:PH": "barangay", "is_in:town": "San Juan", "name": "Darao", "place": "village"}}, {"type": "node", "id": 9727443200, "lat": 17.7431585, "lon": 120.4959708, "tags": {"admin_level": "10", "designation": "barangay", "is_in:town": "San Juan", "name": "Malamin", "place": "village"}}, {"type": "node", "id": 9727446893, "lat": 17.7375587, "lon": 120.4372251, "tags": {"admin_level": "10", "designation": "barangay", "is_in:town": "San Juan", "name": "Sabangan", "place": "village"}}, {"type": "node", "id": 9727502135, "lat": 17.7319587, "lon": 120.4581356, "tags": {"admin_level": "10", "admin_type:PH": "barangay", "is_in:town": "San Juan", "name": "Immayos Norte", "place": "village"}}, {"type": "node", "id": 9727575159, "lat": 17.7175338, "lon": 120.4962927, "tags": {"admin_level": "10", "designation": "barangay", "name": "Barbar", "place": "village"}}, {"type": "node", "id": 9727618406, "lat": 17.684482, "lon": 120.4884553, "tags": {"admin_level": "10", "designation": "barangay", "is_in:town": "Magsingal", "name": "Maratudo", "place": "village"}}, {"type": "node", "id": 9727625575, "lat": 17.71991, "lon": 120.4567301, "tags": {"admin_level": "10", "admin_type:PH": "barangay", "is_in:town": "San Juan", "name": "Bacsil", "place": "village"}}, {"type": "node", "id": 9727689946, "lat": 17.6588681, "lon": 120.428524, "tags": {"admin_level": "10", "admin_type:PH": "barangay", "is_in:town": "Magsingal", "name": "Napo", "old_ref": "012928019", "place": "village", "population": "517", "population:2015": "554", "ref": "0102928019", "source:population": "Philippine Statistics Authority"}}, {"type": "node", "id": 9735479458, "lat": 17.5532907, "lon": 120.4872322, "tags": {"admin_level": "10", "alt_name": "Sallacong", "designation": "barangay", "is_in:town": "Bantay", "name": "San Mariano", "place": "village"}}, {"type": "node", "id": 9735501526, "lat": 17.5656882, "lon": 120.462285, "tags": {"admin_level": "10", "admin_type:PH": "barangay", "is_in:town": "Bantay", "name": "Banaoang", "place": "village"}}, {"type": "node", "id": 9735501527, "lat": 17.5781513, "lon": 120.4506898, "tags": {"admin_level": "10", "designation": "barangay", "is_in:town": "Bantay", "name": "Paing", "place": "village"}}, {"type": "node", "id": 9735530447, "lat": 17.5903016, "lon": 120.4270649, "tags": {"admin_level": "10", "designation": "barangay", "is_in:town": "Bantay", "name": "Bulag", "place": "village"}}, {"type": "node", "id": 9735559858, "lat": 17.6057452, "lon": 120.4262643, "tags": {"admin_level": "10", "designation": "barangay", "is_in:town": "Bantay", "name": "Malingeb", "place": "village"}}, {"type": "node", "id": 9735559859, "lat": 17.6103253, "lon": 120.4304445, "tags": {"admin_level": "10", "designation": "barangay", "is_in:town": "Bantay", "name": "Quimmarayan", "place": "village"}}, {"type": "node", "id": 9735583145, "lat": 17.5764688, "lon": 120.4081821, "tags": {"admin_level": "10", "designation": "barangay", "is_in:town": "Bantay", "name": "San Julian", "place": "village"}}, {"type": "node", "id": 9735634045, "lat": 17.5699637, "lon": 120.4238248, "tags": {"admin_level": "10", "admin_type:PH": "barangay", "is_in:city": "Vigan", "name": "Raois", "place": "village"}}, {"type": "node", "id": 9735660889, "lat": 17.5718559, "lon": 120.39792, "tags": {"admin_level": "10", "admin_type:PH": "barangay", "is_in:city": "Vigan", "name": "San Julian Norte", "place": "village"}}, {"type": "node", "id": 9735666081, "lat": 17.5614049, "lon": 120.4004386, "tags": {"admin_level": "10", "designation": "barangay", "is_in:city": "Vigan", "name": "Cabaroan Laud", "place": "village"}}, {"type": "node", "id": 9735666082, "lat": 17.5549747, "lon": 120.3970402, "tags": {"admin_level": "10", "designation": "barangay", "is_in:city": "Vigan", "name": "Camangaan", "place": "village"}}, {"type": "node", "id": 9749657365, "lat": 17.7083152, "lon": 120.4194877, "tags": {"admin_level": "10", "admin_type:PH": "barangay", "designation": "barangay", "is_in:town": "Magsingal", "name": "Miramar", "place": "village"}}, {"type": "node", "id": 9749697280, "lat": 17.7111258, "lon": 120.4460496, "tags": {"admin_level": "10", "admin_type:PH": "barangay", "is_in:town": "Magsingal", "name": "Barbarit", "place": "village"}}, {"type": "node", "id": 9749766641, "lat": 17.7007161, "lon": 120.4703772, "tags": {"admin_level": "10", "designation": "barangay", "is_in:town": "Magsingal", "name": "Macatcatud", "place": "village"}}, {"type": "node", "id": 9749766642, "lat": 17.6884097, "lon": 120.4712194, "tags": {"admin_level": "10", "designation": "barangay", "is_in:town": "Magsingal", "name": "Maas-asin", "place": "village"}}, {"type": "node", "id": 9749785023, "lat": 17.680314, "lon": 120.4658711, "tags": {"admin_level": "10", "designation": "barangay", "is_in:town": "Magsingal", "name": "Sarsaracat", "place": "village"}}, {"type": "node", "id": 9749799790, "lat": 17.6288692, "lon": 120.4462427, "tags": {"admin_level": "10", "designation": "barangay", "is_in:town": "Santo Domingo", "name": "Lagatit", "place": "village"}}, {"type": "node", "id": 9749799791, "lat": 17.619554, "lon": 120.436694, "tags": {"admin_level": "10", "designation": "barangay", "is_in:town": "San Ildefonso", "name": "Belen", "place": "village"}}, {"type": "node", "id": 9749799792, "lat": 17.622954, "lon": 120.4309648, "tags": {"admin_level": "10", "designation": "barangay", "is_in:town": "San Ildefonso", "name": "Bungro", "place": "village"}}, {"type": "node", "id": 9749799793, "lat": 17.6281305, "lon": 120.4299751, "tags": {"admin_level": "10", "designation": "barangay", "is_in:town": "Santo Domingo", "name": "Nambaran", "place": "village"}}, {"type": "node", "id": 9749824771, "lat": 17.6390326, "lon": 120.4396445, "tags": {"admin_level": "10", "designation": "barangay", "is_in:town": "Santo Domingo", "name": "Santo Tomas", "place": "village"}}, {"type": "node", "id": 9749824772, "lat": 17.6469512, "lon": 120.4426324, "tags": {"admin_level": "10", "admin_type:PH": "barangay", "is_in:town": "Santo Domingo", "name": "Lussoc", "place": "village"}}, {"type": "node", "id": 9749875146, "lat": 17.6011037, "lon": 120.3932825, "tags": {"admin_level": "10", "admin_type:PH": "barangay", "is_in:town": "Bantay", "name": "Guimod", "place": "village"}}, {"type": "node", "id": 9755070631, "lat": 17.6185213, "lon": 120.3950286, "tags": {"admin_level": "10", "designation": "barangay", "is_in:town": "San Ildefonso", "name": "Gongogong", "place": "village"}}, {"type": "node", "id": 9755253714, "lat": 17.5400613, "lon": 120.4119962, "tags": {"admin_level": "10", "admin_type:PH": "barangay", "is_in:town": "Santa", "name": "Nagpanaoan", "place": "village"}}, {"type": "node", "id": 9760074880, "lat": 17.6592553, "lon": 120.3866601, "tags": {"admin_level": "10", "designation": "barangay", "is_in:town": "Santo Domingo", "name": "Pangpangdan", "place": "village"}}, {"type": "node", "id": 9775366784, "lat": 17.4193044, "lon": 120.4699856, "tags": {"admin_level": "10", "designation": "barangay", "is_in:town": "Narvacan", "name": "Paratong", "place": "village"}}, {"type": "node", "id": 9775366789, "lat": 17.4119645, "lon": 120.4601245, "tags": {"admin_level": "10", "designation": "barangay", "is_in:town": "Narvacan", "name": "Pantoc", "place": "village"}}, {"type": "node", "id": 9775366799, "lat": 17.4206557, "lon": 120.4604959, "tags": {"admin_level": "10", "designation": "barangay", "is_in:town": "Narvacan", "name": "Turod", "place": "village"}}, {"type": "node", "id": 9775406433, "lat": 17.3977879, "lon": 120.460732, "tags": {"admin_level": "10", "designation": "barangay", "is_in:town": "Narvacan", "name": "San Pedro", "place": "village"}}, {"type": "node", "id": 9775428466, "lat": 17.386815, "lon": 120.4646105, "tags": {"admin_level": "10", "designation": "barangay", "is_in:town": "Santa Maria", "name": "Nagsayaoan", "place": "village"}}, {"type": "node", "id": 9775428472, "lat": 17.394243, "lon": 120.4650959, "tags": {"name": "Nanguneg West", "place": "neighbourhood"}}, {"type": "node", "id": 9775507068, "lat": 17.4031091, "lon": 120.4922533, "tags": {"admin_level": "10", "designation": "barangay", "is_in:town": "Narvacan", "name": "Cagayungan", "place": "village"}}, {"type": "node", "id": 9775555149, "lat": 17.4211701, "lon": 120.4890427, "tags": {"admin_level": "10", "designation": "barangay", "is_in:town": "Narvacan", "name": "Orence", "place": "village"}}, {"type": "node", "id": 9775555152, "lat": 17.4161898, "lon": 120.4910356, "tags": {"admin_level": "10", "designation": "barangay", "is_in:town": "Narvacan", "name": "Rivadavia", "place": "village"}}, {"type": "node", "id": 9775570474, "lat": 17.4318351, "lon": 120.5021895, "tags": {"admin_level": "10", "admin_type:PH": "barangay", "is_in:town": "Narvacan", "name": "San Pablo", "place": "village"}}, {"type": "node", "id": 9775570475, "lat": 17.4427247, "lon": 120.5117691, "tags": {"admin_level": "10", "admin_type:PH": "barangay", "is_in:town": "Narvacan", "name": "Codoog", "place": "village"}}, {"type": "node", "id": 9775601737, "lat": 17.4198521, "lon": 120.4969901, "tags": {"admin_level": "10", "designation": "barangay", "is_in:town": "Narvacan", "name": "Dasay", "place": "village"}}, {"type": "node", "id": 9775601738, "lat": 17.4159058, "lon": 120.5173749, "tags": {"admin_level": "10", "admin_type:PH": "barangay", "is_in:town": "Nagbukel", "name": "Bandril", "place": "village"}}, {"type": "node", "id": 9775631748, "lat": 17.4281642, "lon": 120.4845554, "tags": {"admin_level": "10", "designation": "barangay", "is_in:town": "Narvacan", "name": "Dinalaoan", "place": "village"}}, {"type": "node", "id": 9775658462, "lat": 17.4602778, "lon": 120.5109027, "tags": {"admin_level": "10", "admin_type:PH": "barangay", "is_in:town": "Narvacan", "name": "Banglayan", "place": "village"}}, {"type": "node", "id": 9775706741, "lat": 17.4715609, "lon": 120.4912984, "tags": {"admin_level": "10", "is_in:town": "Narvacan", "name": "Ambulogan", "place": "village"}}, {"type": "node", "id": 9775706769, "lat": 17.4815848, "lon": 120.4869265, "tags": {"admin_level": "11", "admin_type:PH": "sitio", "is_in:town": "Narvacan", "is_in:village": "Lungog", "name": "Kakaldingan", "place": "neighbourhood"}}, {"type": "node", "id": 9775748326, "lat": 17.4482057, "lon": 120.4622233, "tags": {"admin_level": "10", "designation": "barangay", "is_in:town": "Narvacan", "name": "Bantay Abot", "place": "village"}}, {"type": "node", "id": 9788634198, "lat": 17.3812502, "lon": 120.4824927, "tags": {"admin_level": "10", "designation": "barangay", "is_in:town": "Santa Maria", "name": "Maynganay Norte", "place": "village"}}, {"type": "node", "id": 9788716557, "lat": 17.3767374, "lon": 120.5116215, "tags": {"admin_level": "10", "designation": "barangay", "is_in:town": "Santa Maria", "name": "Butir", "place": "village"}}, {"type": "node", "id": 9788759878, "lat": 17.3874985, "lon": 120.5416166, "tags": {"admin_level": "10", "admin_type:PH": "barangay", "alt_name": "Baballasioan", "is_in:town": "Santa Maria", "name": "Babal-lasioan", "old_ref": "012926003", "place": "village", "population": "706", "ref": "0102926003", "source:population": "Philippine Statistics Authority"}}, {"type": "node", "id": 9788759879, "lat": 17.3831163, "lon": 120.5315986, "tags": {"admin_level": "10", "designation": "barangay", "is_in:town": "Santa Maria", "name": "Gusing", "place": "village"}}, {"type": "node", "id": 9788803085, "lat": 17.3546527, "lon": 120.5036312, "tags": {"admin_level": "10", "designation": "barangay", "is_in:town": "Santa Maria", "name": "Ampuagan", "place": "village"}}, {"type": "node", "id": 9788831039, "lat": 17.3385489, "lon": 120.5080019, "tags": {"admin_level": "10", "designation": "barangay", "is_in:town": "Burgos", "name": "Cabcaburao", "place": "village"}}, {"type": "node", "id": 9788879383, "lat": 17.3847468, "lon": 120.4545388, "tags": {"admin_level": "10", "designation": "barangay", "is_in:town": "Santa Maria", "name": "Ba-o", "place": "village"}}, {"type": "node", "id": 9788879402, "lat": 17.3761205, "lon": 120.4673745, "tags": {"admin_level": "10", "designation": "barangay", "is_in:town": "Santa Maria", "name": "Danuman West", "place": "village"}}, {"type": "node", "id": 9788941242, "lat": 17.3246253, "lon": 120.457921, "tags": {"admin_level": "10", "admin_type:PH": "barangay", "is_in:town": "San Esteban", "name": "Ansad", "place": "village"}}, {"type": "node", "id": 9788971641, "lat": 17.3036483, "lon": 120.5225998, "tags": {"admin_level": "10", "admin_type:PH": "barangay", "is_in:town": "Burgos", "name": "Balugang", "place": "village"}}, {"type": "node", "id": 9793386517, "lat": 17.3081963, "lon": 120.5031323, "tags": {"admin_level": "10", "admin_type:PH": "barangay", "is_in:town": "Burgos", "name": "Dirdirig", "place": "village"}}, {"type": "node", "id": 9793386518, "lat": 17.3145212, "lon": 120.4999566, "tags": {"admin_level": "11", "admin_type:PH": "sitio", "is_in:town": "Burgos", "is_in:village": "Dirdirig", "name": "Padayao", "place": "hamlet"}}, {"type": "node", "id": 9793386519, "lat": 17.3099247, "lon": 120.4955471, "tags": {"admin_level": "10", "admin_type:PH": "barangay", "is_in:town": "Burgos", "name": "Paduros", "place": "village"}}, {"type": "node", "id": 9846757349, "lat": 17.681786, "lon": 120.4078656, "tags": {"admin_level": "10", "designation": "barangay", "is_in:town": "Magsingal", "name": "Dacutan", "place": "village"}}, {"type": "node", "id": 9846772185, "lat": 17.6779323, "lon": 120.3870839, "tags": {"admin_level": "10", "admin_type:PH": "barangay", "is_in:town": "Magsingal", "name": "Namalpalan", "place": "village"}}, {"type": "node", "id": 10235958964, "lat": 17.513781, "lon": 120.7649213, "tags": {"admin_level": "10", "designation": "barangay", "is_in:town": "Sallapadan", "name": "Naguilian", "place": "village"}}, {"type": "node", "id": 10648035216, "lat": 17.5704112, "lon": 120.3974238, "tags": {"admin_level": "10", "admin_type:PH": "barangay", "is_in:city": "Vigan", "name": "San Julian Sur", "place": "village"}}, {"type": "node", "id": 10648035217, "lat": 17.5702859, "lon": 120.4022719, "tags": {"admin_level": "10", "admin_type:PH": "barangay", "is_in:city": "Vigan", "name": "San Jose", "place": "village"}}, {"type": "node", "id": 10648035236, "lat": 17.5714954, "lon": 120.3944814, "tags": {"admin_level": "10", "designation": "barangay", "is_in:city": "Vigan", "name": "Capangpangan", "place": "village"}}, {"type": "node", "id": 10648037613, "lat": 17.5697821, "lon": 120.4087588, "tags": {"admin_level": "10", "admin_type:PH": "barangay", "is_in:city": "Vigan", "name": "Nagsangalan", "place": "village"}}, {"type": "node", "id": 10687806746, "lat": 17.5947743, "lon": 120.6068917, "tags": {"admin_level": "11", "admin_type:PH": "sitio", "designation": "sitio", "is_in:quarter": "Cabuloan", "name": "Bangcag", "place": "neighbourhood"}}, {"type": "node", "id": 10687806787, "lat": 17.5979544, "lon": 120.602259, "tags": {"admin_level": "11", "admin_type:PH": "sitio", "designation": "sitio", "is_in:quarter": "Cabuloan", "name": "Tingnga", "place": "neighbourhood"}}, {"type": "node", "id": 10687831143, "lat": 17.59177, "lon": 120.6001004, "tags": {"admin_level": "11", "admin_type:PH": "sitio", "designation": "sitio", "is_in:quarter": "Cabuloan", "name": "Pudoc", "place": "neighbourhood"}}, {"type": "node", "id": 10939109781, "lat": 17.5443399, "lon": 120.5357802, "tags": {"admin_level": "11", "admin_type:PH": "sitio", "is_in:town": "San Quintin", "is_in:village": "Palang", "name": "Talaytay", "place": "hamlet"}}, {"type": "node", "id": 10939109782, "lat": 17.5478436, "lon": 120.5144003, "tags": {"admin_level": "10", "admin_type:PH": "barangay", "is_in:town": "San Quintin", "name": "Palang", "place": "village"}}, {"type": "node", "id": 10939121341, "lat": 17.6391348, "lon": 120.7113066, "tags": {"admin_level": "10", "admin_type:PH": "barangay", "is_in:town": "Dolores", "name": "Salucag", "place": "village"}}, {"type": "node", "id": 10939123663, "lat": 17.5199198, "lon": 120.6232282, "tags": {"admin_level": "10", "admin_type:PH": "barangay", "alt_name": "Calot", "is_in:town": "Bangued", "name": "Tablac", "place": "village"}}, {"type": "node", "id": 10939599432, "lat": 17.5536283, "lon": 120.5701876, "tags": {"admin_level": "10", "admin_type:PH": "barangay", "is_in:town": "Pidigan", "name": "Yuyeng", "place": "village"}}, {"type": "node", "id": 10939625473, "lat": 17.3304734, "lon": 120.5674517, "tags": {"admin_level": "10", "admin_type:PH": "barangay", "is_in:town": "Pilar", "name": "Nanangduan", "place": "village"}}, {"type": "node", "id": 11013415116, "lat": 17.5077944, "lon": 120.4053652, "tags": {"admin_level": "10", "admin_type:PH": "barangay", "is_in:town": "Santa", "name": "Oribi", "old_ref": "012922019", "place": "hamlet", "population": "171", "population:2015": "192", "ref": "0102922009", "source:population": "Philippine Statistics Authority"}}, {"type": "node", "id": 11034142174, "lat": 17.5802326, "lon": 120.3947711, "tags": {"admin_level": "10", "admin_type:PH": "barangay", "is_in:town": "Bantay", "name": "Buquig", "place": "village"}}, {"type": "node", "id": 11034142186, "lat": 17.5806903, "lon": 120.3965601, "tags": {"admin_level": "10", "admin_type:PH": "barangay", "is_in:town": "Bantay", "name": "Cabaroan", "place": "village"}}, {"type": "node", "id": 11034142187, "lat": 17.5840897, "lon": 120.393957, "tags": {"admin_level": "10", "admin_type:PH": "barangay", "is_in:town": "Bantay", "name": "Mira", "place": "village"}}, {"type": "node", "id": 11062873386, "lat": 17.4332515, "lon": 120.5172461, "tags": {"admin_level": "10", "admin_type:PH": "barangay", "is_in:town": "Nagbukel", "name": "Mission", "place": "village"}}, {"type": "node", "id": 11062873387, "lat": 17.4330238, "lon": 120.5132389, "tags": {"admin_level": "10", "admin_type:PH": "barangay", "is_in:town": "Nagbukel", "name": "Bantugo", "place": "village"}}, {"type": "node", "id": 11219492600, "lat": 17.5049919, "lon": 120.7102901, "tags": {"admin_level": "10", "admin_type:PH": "barangay", "is_in:town": "Bucay", "name": "Pakiling", "place": "village"}}, {"type": "node", "id": 11219492601, "lat": 17.5037027, "lon": 120.7071009, "tags": {"admin_level": "10", "admin_type:PH": "barangay", "is_in:town": "Bucay", "name": "Layugan", "place": "village"}}, {"type": "node", "id": 11219511770, "lat": 17.5668542, "lon": 120.6579682, "tags": {"admin_level": "10", "admin_type:PH": "barangay", "name": "Dumayco", "place": "village"}}, {"type": "node", "id": 11219545357, "lat": 17.6958611, "lon": 120.6985447, "tags": {"admin_level": "10", "admin_type:PH": "barangay", "is_in:town": "La Paz", "name": "Malabbaga", "place": "village"}}, {"type": "node", "id": 11219545358, "lat": 17.6873774, "lon": 120.6913698, "tags": {"admin_level": "10", "admin_type:PH": "barangay", "is_in:town": "La Paz", "name": "Buli", "place": "village"}}, {"type": "node", "id": 11219591972, "lat": 17.4052129, "lon": 120.6316531, "tags": {"admin_level": "10", "admin_type:PH": "barangay", "is_in:town": "Villaviciosa", "name": "Tuquib", "place": "village"}}, {"type": "node", "id": 11227569648, "lat": 17.6109874, "lon": 120.3953665, "tags": {"admin_level": "10", "admin_type:PH": "barangay", "is_in:town": "San Ildefonso", "name": "Bahet", "place": "village"}}, {"type": "node", "id": 11227569663, "lat": 17.6101361, "lon": 120.3877705, "tags": {"admin_level": "10", "admin_type:PH": "barangay", "is_in:town": "San Ildefonso", "name": "Busiing Norte", "place": "village"}}, {"type": "node", "id": 11227700014, "lat": 17.6699435, "lon": 120.3981346, "tags": {"admin_level": "10", "admin_type:PH": "barangay", "is_in:town": "Magsingal", "name": "Panay Sur", "place": "village"}}, {"type": "node", "id": 11227700015, "lat": 17.6671884, "lon": 120.4005969, "tags": {"admin_level": "10", "admin_type:PH": "barangay", "is_in:town": "Magsingal", "name": "Panay Norte", "place": "village"}}, {"type": "node", "id": 11232321461, "lat": 17.5873126, "lon": 120.394861}, {"type": "node", "id": 11232321462, "lat": 17.5871464, "lon": 120.3951734}, {"type": "node", "id": 11232321463, "lat": 17.5868217, "lon": 120.3956522}, {"type": "node", "id": 11232321464, "lat": 17.5863123, "lon": 120.3953833}, {"type": "node", "id": 11232321465, "lat": 17.586754, "lon": 120.3947932}, {"type": "node", "id": 11232321466, "lat": 17.586816, "lon": 120.3946725}, {"type": "node", "id": 11232321467, "lat": 17.5868115, "lon": 120.3946202}, {"type": "node", "id": 11232321468, "lat": 17.5864689, "lon": 120.3943875}, {"type": "node", "id": 11232321469, "lat": 17.5862567, "lon": 120.3946209}, {"type": "node", "id": 11232321470, "lat": 17.5856839, "lon": 120.3944144}, {"type": "node", "id": 11232321471, "lat": 17.5856328, "lon": 120.394527}, {"type": "node", "id": 11232321472, "lat": 17.5874124, "lon": 120.3946571}, {"type": "node", "id": 11232321473, "lat": 17.5877384, "lon": 120.3947322}, {"type": "node", "id": 11232321474, "lat": 17.5882715, "lon": 120.3948784}, {"type": "node", "id": 11232321475, "lat": 17.5881334, "lon": 120.3967398}, {"type": "node", "id": 11232321476, "lat": 17.5866095, "lon": 120.3967184}, {"type": "node", "id": 11232321477, "lat": 17.5861212, "lon": 120.3969276}, {"type": "node", "id": 11232321478, "lat": 17.5857325, "lon": 120.3973943}, {"type": "node", "id": 11232321479, "lat": 17.5849833, "lon": 120.3970027}, {"type": "node", "id": 11232321480, "lat": 17.5843953, "lon": 120.396249}, {"type": "node", "id": 11232321481, "lat": 17.5836359, "lon": 120.3962517}, {"type": "node", "id": 11232321482, "lat": 17.5833917, "lon": 120.3962852}, {"type": "node", "id": 11232321483, "lat": 17.5832421, "lon": 120.3964448}, {"type": "node", "id": 11232321484, "lat": 17.5828471, "lon": 120.3970885}, {"type": "node", "id": 11232321485, "lat": 17.5826591, "lon": 120.3972937}, {"type": "node", "id": 11232321486, "lat": 17.5821823, "lon": 120.39757}, {"type": "node", "id": 11232321487, "lat": 17.5816645, "lon": 120.3978677}, {"type": "node", "id": 11232321488, "lat": 17.581249, "lon": 120.3980407}, {"type": "node", "id": 11232321489, "lat": 17.5812234, "lon": 120.3979629}, {"type": "node", "id": 11232321490, "lat": 17.5813602, "lon": 120.3978878}, {"type": "node", "id": 11232321491, "lat": 17.5817463, "lon": 120.3975981}, {"type": "node", "id": 11232321492, "lat": 17.5820186, "lon": 120.3974654}, {"type": "node", "id": 11232321493, "lat": 17.5821759, "lon": 120.397393}, {"type": "node", "id": 11232321494, "lat": 17.5825799, "lon": 120.3971583}, {"type": "node", "id": 11232321495, "lat": 17.582787, "lon": 120.3969437}, {"type": "node", "id": 11232321496, "lat": 17.5831628, "lon": 120.3963268}, {"type": "node", "id": 11232321497, "lat": 17.5832549, "lon": 120.3961632}, {"type": "node", "id": 11232321498, "lat": 17.5834825, "lon": 120.39608}, {"type": "node", "id": 11232321499, "lat": 17.5843326, "lon": 120.3960921}, {"type": "node", "id": 11232321500, "lat": 17.5842061, "lon": 120.3956495}, {"type": "node", "id": 11232321501, "lat": 17.5845167, "lon": 120.395561}, {"type": "node", "id": 11232321502, "lat": 17.5847328, "lon": 120.3942816}, {"type": "node", "id": 11232321503, "lat": 17.5851022, "lon": 120.3943808}, {"type": "node", "id": 11232426077, "lat": 17.5830823, "lon": 120.4481377, "tags": {"admin_level": "10", "admin_type:PH": "barangay", "is_in:town": "Bantay", "name": "Taleb", "place": "village"}}, {"type": "node", "id": 11621713774, "lat": 17.6931116, "lon": 120.4494989, "tags": {"admin_level": "10", "admin_type:PH": "barangay", "name": "Maas-asin", "place": "village"}}, {"type": "node", "id": 11621713775, "lat": 17.699367, "lon": 120.4366672, "tags": {"admin_level": "10", "admin_type:PH": "barangay", "name": "Bungro", "place": "village"}}, {"type": "node", "id": 11621713776, "lat": 17.6920997, "lon": 120.4301387, "tags": {"admin_level": "10", "admin_type:PH": "barangay", "name": "Santa Monica", "place": "village"}}, {"type": "node", "id": 11621713777, "lat": 17.6873876, "lon": 120.4181707, "tags": {"admin_level": "10", "admin_type:PH": "barangay", "name": "Cabaroan", "place": "village"}}, {"type": "node", "id": 11621713778, "lat": 17.6968015, "lon": 120.4227465, "tags": {"admin_level": "10", "admin_type:PH": "barangay", "name": "Bacar", "place": "village"}}, {"type": "node", "id": 11621713873, "lat": 17.6890844, "lon": 120.3998351, "tags": {"admin_level": "10", "admin_type:PH": "barangay", "name": "Manzante", "place": "village"}}, {"type": "node", "id": 11621713874, "lat": 17.7005092, "lon": 120.4129779, "tags": {"admin_level": "10", "admin_type:PH": "barangay", "name": "Pagsanaan Sur", "place": "village"}}, {"type": "node", "id": 11621713876, "lat": 17.7027731, "lon": 120.4211372, "tags": {"admin_level": "10", "admin_type:PH": "barangay", "name": "Pagsanaan Norte", "place": "village"}}, {"type": "node", "id": 11621713877, "lat": 17.7252855, "lon": 120.4386413, "tags": {"admin_level": "10", "admin_type:PH": "barangay", "name": "Guisod Norte", "place": "village"}}, {"type": "node", "id": 11621713878, "lat": 17.7197158, "lon": 120.4405886, "tags": {"admin_level": "10", "admin_type:PH": "barangay", "name": "Guisod Sur", "place": "village"}}, {"type": "node", "id": 11621714128, "lat": 17.7264122, "lon": 120.4277971, "tags": {"admin_level": "10", "admin_type:PH": "barangay", "name": "Saoang", "place": "village"}}, {"type": "node", "id": 11621714129, "lat": 17.7175581, "lon": 120.4234479, "tags": {"admin_level": "10", "admin_type:PH": "barangay", "name": "San Isidro", "place": "village"}}, {"type": "node", "id": 11989421295, "lat": 17.6006409, "lon": 120.8490139, "tags": {"admin_level": "10", "admin_type:PH": "barangay", "is_in:municipality": "Licuan-Baay", "name": "Bonglo", "old_name": "Patagui", "place": "village", "postal_code": "2819"}}, {"type": "node", "id": 12125882385, "lat": 17.4383434, "lon": 120.5118237, "tags": {"admin_level": "10", "admin_type:PH": "barangay", "name": "Balaweg", "place": "village"}}, {"type": "node", "id": 12125882388, "lat": 17.4475867, "lon": 120.5371078, "tags": {"admin_level": "10", "admin_type:PH": "barangay", "is_in:town": "Nagbukel", "name": "Mapisi", "place": "village"}}, {"type": "node", "id": 12125882389, "lat": 17.4577106, "lon": 120.5305043, "tags": {"admin_level": "10", "admin_type:PH": "barangay", "is_in:town": "Narvacan", "place": "village"}}, {"type": "node", "id": 12125882390, "lat": 17.4724045, "lon": 120.5581288, "tags": {"admin_level": "10", "admin_type:PH": "barangay", "is_in:town": "Narvacan", "name": "Casilagan", "place": "village"}}, {"type": "node", "id": 12125882391, "lat": 17.48131, "lon": 120.5619113, "tags": {"admin_level": "10", "admin_type:PH": "barangay", "is_in:town": "Nagbukel", "name": "Cadacad", "place": "village"}}, {"type": "node", "id": 12125882392, "lat": 17.4866196, "lon": 120.559898, "tags": {"admin_level": "10", "admin_type:PH": "barangay", "is_in:town": "Narvacan", "name": "Cadacad", "place": "village"}}, {"type": "node", "id": 12125904346, "lat": 17.4936478, "lon": 120.4375445, "tags": {"admin_level": "10", "admin_type:PH": "barangay", "name": "Labut Sur", "place": "village"}}, {"type": "node", "id": 12125904347, "lat": 17.4974666, "lon": 120.4385267, "tags": {"admin_level": "10", "admin_type:PH": "barangay", "name": "Labut Norte", "place": "village"}}, {"type": "node", "id": 12125904348, "lat": 17.5092092, "lon": 120.4415883, "tags": {"admin_level": "10", "admin_type:PH": "barangay", "name": "Mabilbila Sur", "place": "village"}}, {"type": "node", "id": 12125904349, "lat": 17.5286591, "lon": 120.4054889, "tags": {"admin_level": "10", "admin_type:PH": "barangay", "name": "Pantay Tamurong", "place": "village"}}, {"type": "node", "id": 12125909952, "lat": 17.7077889, "lon": 120.4593372, "tags": {"admin_level": "10", "admin_type:PH": "barangay", "name": "Caraisan", "place": "village"}}, {"type": "node", "id": 12125909965, "lat": 17.7356376, "lon": 120.4711711, "tags": {"admin_level": "10", "admin_type:PH": "barangay", "name": "Muraya", "place": "village"}}, {"type": "node", "id": 12125919108, "lat": 17.5468973, "lon": 120.3965628, "tags": {"admin_level": "10", "admin_type:PH": "barangay", "name": "Nansuagao", "place": "village"}}, {"type": "node", "id": 12171169712, "lat": 17.313438, "lon": 120.5366868, "tags": {"admin_level": "10", "admin_type:PH": "barangay", "is_in:town": "Burgos", "name": "Lubing", "old_ref": "012904011", "place": "village", "ref": "0102904011"}}, {"type": "node", "id": 12189472320, "lat": 17.4587522, "lon": 120.5314028, "tags": {"admin_level": "10", "admin_type:PH": "barangay", "is_in:town": "Narvacan", "name": "Sarmingan Baranggay Hall", "old_ref": "012914031", "place": "village", "population": "640", "ref": "0102914031", "source:population": "Philippine Statistics Authority"}}, {"type": "node", "id": 12554390985, "lat": 17.617252, "lon": 120.4527779, "tags": {"admin_level": "10", "admin_type:PH": "barangay", "is_in:town": "Santo Domingo", "name": "Nagbettedan", "place": "village"}}, {"type": "node", "id": 12554415652, "lat": 17.6213665, "lon": 120.4618424, "tags": {"admin_level": "10", "admin_type:PH": "barangay", "is_in:town": "Bantay", "name": "Lingsat", "place": "village"}}, {"type": "node", "id": 12556601900, "lat": 17.655991, "lon": 120.4439214, "tags": {"admin_level": "10", "admin_type:PH": "barangay", "name": "Calautit", "place": "village"}}, {"type": "node", "id": 12790962872, "lat": 17.4813264, "lon": 120.4977438, "tags": {"admin_level": "11", "admin_type:PH": "sitio", "is_in:town": "Narvacan", "is_in:village": "Ambulogan", "name": "Labuac", "place": "neighbourhood"}}, {"type": "way", "id": 1212361314, "nodes": [11232321472, 11232321461, 11232321462, 11232321463, 11232321464, 11232321465, 11232321466, 11232321467, 11232321468, 11232321469, 11232321470, 11232321471, 11232321503, 11232321502, 11232321501, 11232321500, 11232321499, 11232321498, 11232321497, 11232321496, 11232321495, 11232321494, 11232321493, 11232321492, 11232321491, 11232321490, 11232321489, 11232321488, 11232321487, 11232321486, 11232321485, 11232321484, 11232321483, 11232321482, 11232321481, 11232321480, 11232321479, 11232321478, 11232321477, 11232321476, 11232321475, 11232321474, 11232321473, 11232321472], "tags": {"landuse": "residential", "name": "Camella Bantay", "place": "neighbourhood"}}]}