{"version": 0.6, "generator": "Overpass API 0.7.62.5 1bd436f1", "osm3s": {"timestamp_osm_base": "2025-05-24T18:04:28Z", "copyright": "The data included in this document is from www.openstreetmap.org. The data is made available under ODbL."}, "elements": [{"type": "node", "id": 198490578, "lat": 6.3779668, "lon": 125.2726669, "tags": {"admin_level": "6", "admin_subdivisions": "31 barangays", "admin_type:PH": "municipality", "ele": "150", "is_in:province": "Sarangani", "name": "Malungon", "official_name": "Municipality of Malungon", "place": "town", "population": "105465", "population:date": "2020-05-01", "postal_code": "9503", "related_law": "Republic Act No. 5522", "start_date": "1969-06-21", "was_in:municipality": "General Santos", "wikidata": "Q174468", "wikimedia_commons": "Category:Malungon", "wikipedia": "en:Malungon"}}, {"type": "node", "id": 681234604, "lat": 6.597391, "lon": 125.3246105, "tags": {"admin_level": "10", "admin_type:PH": "barangay", "is_in:municipality": "Sulop", "name": "McKinley", "official_name": "Barangay McKinley", "place": "village", "postal_code": "8009"}}, {"type": "node", "id": 681234619, "lat": 6.5932817, "lon": 125.267159, "tags": {"admin_level": "10", "admin_type:PH": "barangay", "is_in:municipality": "Kiblawan", "name": "Dapok", "official_name": "Barangay Dapok", "place": "village", "postal_code": "8008"}}, {"type": "node", "id": 681234634, "lat": 6.5966959, "lon": 125.3449838, "tags": {"admin_level": "6", "admin_subdivisions": "25 barangays", "admin_type:PH": "municipality", "ele": "15", "is_in:province": "Davao del Sur", "name": "Sulop", "official_name": "Municipality of Sulop", "old_ref": "112414000", "place": "town", "population": "35151", "population:date": "2020-05-01", "postal_code": "8009", "ref": "1102414000", "related_law": "Executive Order No. 295 s. 1958", "start_date": "1958-04-24", "was_in:municipality": "Padada", "wikidata": "Q315014", "wikimedia_commons": "Category:Sulop", "wikipedia": "en:Sulop"}}, {"type": "node", "id": 1383891298, "lat": 6.4894009, "lon": 125.3485388, "tags": {"admin_level": "10", "admin_type:PH": "barangay", "is_in:municipality": "Malungon", "name": "Jose P. Laurel", "nat_name": "Barangay J.P. Laurel", "official_name": "Barangay Jose P. Laurel", "old_ref": "128007010", "place": "village", "postal_code": "9503", "short_name": "J.P. Laurel", "start_date": "1991"}}, {"type": "node", "id": 1383924699, "lat": 6.3973757, "lon": 125.2829203, "tags": {"admin_level": "11", "name": "Coronado", "place": "hamlet", "place:PH": "sitio"}}, {"type": "node", "id": 1383924721, "lat": 6.3380384, "lon": 125.2589458, "tags": {"alt_name": "Sitio Rancho", "is_in:barangay": "Nagpan", "is_in:municipality": "Malungon", "name": "Rancho", "place": "hamlet", "postal_code": "9503"}}, {"type": "node", "id": 1384146032, "lat": 6.2390892, "lon": 125.2592392, "tags": {"admin_level": "10", "admin_type:PH": "barangay", "ele": "70", "is_in:city": "General Santos", "name": "Batomelong", "official_name": "Barangay Batomelong", "place": "village", "population": "2967", "population:date": "2020-05-01", "postal_code": "9500"}}, {"type": "node", "id": 1384147675, "lat": 6.2576227, "lon": 125.2606429, "tags": {"alt_name": "Sitio Pulatana", "is_in:barangay": "Malandag", "is_in:municipality": "Malungon", "name": "Pulatana", "place": "hamlet", "postal_code": "9503"}}, {"type": "node", "id": 1384203671, "lat": 6.3653408, "lon": 125.2717665, "tags": {"admin_level": "11", "name": "Majo", "place": "hamlet", "place:PH": "sitio"}}, {"type": "node", "id": 1642793337, "lat": 6.1763679, "lon": 125.1493784}, {"type": "node", "id": 1681690471, "lat": 6.1816267, "lon": 125.149344}, {"type": "node", "id": 1730019446, "lat": 6.1615073, "lon": 125.1073887}, {"type": "node", "id": 1730020025, "lat": 6.1667457, "lon": 125.1126065}, {"type": "node", "id": 2047617997, "lat": 6.2481162, "lon": 125.0947074}, {"type": "node", "id": 2117203795, "lat": 6.174743, "lon": 125.0886166}, {"type": "node", "id": 2117203807, "lat": 6.1726917, "lon": 125.0961256}, {"type": "node", "id": 2117203858, "lat": 6.1679268, "lon": 125.0967258}, {"type": "node", "id": 2117383432, "lat": 6.1774134, "lon": 125.1217895, "tags": {"admin_level": "11", "admin_type:PH": "purok", "is_in:barangay": "Silway 7", "is_in:municipality": "Polomolok", "name": "Mainuswagon", "place": "neighbourhood"}}, {"type": "node", "id": 2725000702, "lat": 6.1842565, "lon": 125.225103, "tags": {"admin_level": "11", "admin_type:PH": "purok", "is_in:city": "General Santos", "name": "Purok 5", "place": "neighbourhood", "postal_code": "9500"}}, {"type": "node", "id": 3072760752, "lat": 6.2438405, "lon": 125.0956125}, {"type": "node", "id": 3072760753, "lat": 6.2473428, "lon": 125.0991834}, {"type": "node", "id": 3072769008, "lat": 6.251056, "lon": 125.095259}, {"type": "node", "id": 3521184351, "lat": 6.2332719, "lon": 125.2312007, "tags": {"admin_level": "11", "admin_type:PH": "purok", "name": "Lower Labay", "place": "hamlet"}}, {"type": "node", "id": 3640156432, "lat": 6.2202374, "lon": 125.0628101, "tags": {"admin_level": "6", "admin_type:PH": "municipality", "contact:website": "https://polomolok.gov.ph/", "ele": "300", "is_in:province": "South Cotabato", "name": "Polomolok", "place": "town", "population": "172605", "population:date": "2020-05-01", "postal_code": "9504", "ref": "126312000", "start_date": "1957-08-21", "wikidata": "Q173944", "wikimedia_commons": "Category:Polomolok", "wikipedia": "en:Polomolok"}}, {"type": "node", "id": 3731137859, "lat": 6.1818304, "lon": 125.1493397}, {"type": "node", "id": 3731452785, "lat": 6.1710399, "lon": 125.1566698}, {"type": "node", "id": 3731452787, "lat": 6.1656025, "lon": 125.1567161}, {"type": "node", "id": 3731452792, "lat": 6.1710136, "lon": 125.154842}, {"type": "node", "id": 3731755718, "lat": 6.1763855, "lon": 125.1530169}, {"type": "node", "id": 3731755720, "lat": 6.180835, "lon": 125.1529314}, {"type": "node", "id": 3731755721, "lat": 6.1791603, "lon": 125.1511933}, {"type": "node", "id": 3731755722, "lat": 6.1791823, "lon": 125.1529633}, {"type": "node", "id": 3731755723, "lat": 6.1763707, "lon": 125.1512342}, {"type": "node", "id": 3731755724, "lat": 6.1710515, "lon": 125.1530366}, {"type": "node", "id": 3731755725, "lat": 6.1710527, "lon": 125.1511203}, {"type": "node", "id": 3731755726, "lat": 6.1740183, "lon": 125.1513789}, {"type": "node", "id": 3731755728, "lat": 6.1738939, "lon": 125.1530326}, {"type": "node", "id": 3731755730, "lat": 6.181864, "lon": 125.1511461}, {"type": "node", "id": 3762171466, "lat": 6.1688197, "lon": 125.147529}, {"type": "node", "id": 3762171467, "lat": 6.1688616, "lon": 125.1493696}, {"type": "node", "id": 3762171486, "lat": 6.1706576, "lon": 125.1475548}, {"type": "node", "id": 3762171487, "lat": 6.1706502, "lon": 125.1493628}, {"type": "node", "id": 4006783654, "lat": 6.5186376, "lon": 125.3535481, "tags": {"admin_level": "10", "admin_type:PH": "barangay", "is_in:municipality": "Malungon", "name": "Malungon Gamay", "official_name": "Barangay Malungon Gamay", "place": "village", "postal_code": "9503", "was_in:municipality": "Malalag"}}, {"type": "node", "id": 4006788585, "lat": 6.4758782, "lon": 125.320214, "tags": {"admin_level": "10", "admin_type:PH": "barangay", "is_in:municipality": "Malungon", "name": "Banate", "official_name": "Barangay Banate", "place": "village", "postal_code": "9503", "was_in:municipality": "Malalag"}}, {"type": "node", "id": 4006789365, "lat": 6.4340167, "lon": 125.3061957, "tags": {"admin_level": "10", "admin_type:PH": "barangay", "is_in:municipality": "Malungon", "name": "Talus", "official_name": "Barangay Talus", "place": "village", "postal_code": "9503"}}, {"type": "node", "id": 4006789965, "lat": 6.4073582, "lon": 125.2885532, "tags": {"admin_level": "10", "admin_type:PH": "barangay", "is_in:municipality": "Malungon", "name": "Malalag Cogon", "official_name": "Barangay Malalag Cogon", "place": "village", "postal_code": "9503", "was_in:municipality": "Malalag"}}, {"type": "node", "id": 4006799041, "lat": 6.3533525, "lon": 125.271976, "tags": {"admin_level": "10", "admin_type:PH": "barangay", "is_in:municipality": "Malungon", "name": "Nagpan", "official_name": "Barangay Nagpan", "place": "village", "postal_code": "9503", "start_date": "1991"}}, {"type": "node", "id": 4006800073, "lat": 6.308396, "lon": 125.2522511, "tags": {"admin_level": "10", "admin_type:PH": "barangay", "is_in:municipality": "Malungon", "name": "Malandag", "official_name": "Barangay Malandag", "place": "village", "postal_code": "9503"}}, {"type": "node", "id": 4006803877, "lat": 6.2111432, "lon": 125.2382604, "tags": {"admin_level": "10", "admin_type:PH": "barangay", "ele": "50", "is_in:city": "General Santos", "name": "Tinagacan", "official_name": "Barangay Tinagacan", "old_ref": "126303028", "place": "village", "population": "8344", "population:date": "2020-05-01", "postal_code": "9500", "ref": "1206303028"}}, {"type": "node", "id": 4627343996, "lat": 6.5918589, "lon": 125.4008825, "tags": {"admin_level": "6", "admin_subdivisions": "15 barangays", "admin_type:PH": "municipality", "ele": "15", "is_in:province": "Davao del Sur", "name": "Malalag", "official_name": "Municipality of Malalag", "old_ref": "112408000", "place": "town", "population": "40158", "population:date": "2020-05-01", "postal_code": "8010", "ref": "1102408000", "related_law": "Executive Order No. 596 s. 1953", "start_date": "1953-05-28", "was_in:municipality": "Padada", "wikidata": "Q314885", "wikimedia_commons": "Category:Malalag", "wikipedia": "en:Malalag"}}, {"type": "node", "id": 4784330881, "lat": 6.1656129, "lon": 125.1603886}, {"type": "node", "id": 4873094422, "lat": 6.2682496, "lon": 125.0112345, "tags": {"admin_level": "10", "designation": "barangay", "is_in:town": "Polomolok", "name": "Crossing Palkan", "place": "village"}}, {"type": "node", "id": 5253261322, "lat": 6.2506379, "lon": 125.0921506}, {"type": "node", "id": 5253261323, "lat": 6.2516044, "lon": 125.0931031}, {"type": "node", "id": 5253261324, "lat": 6.2509322, "lon": 125.0937285}, {"type": "node", "id": 5253261325, "lat": 6.2517627, "lon": 125.0945249}, {"type": "node", "id": 5320655301, "lat": 6.2857165, "lon": 125.0947308}, {"type": "node", "id": 5320655302, "lat": 6.2844368, "lon": 125.0940549}, {"type": "node", "id": 5320655303, "lat": 6.2861004, "lon": 125.0936687}, {"type": "node", "id": 5320655304, "lat": 6.2891718, "lon": 125.092746}, {"type": "node", "id": 5320655305, "lat": 6.2901209, "lon": 125.0924885}, {"type": "node", "id": 5320655306, "lat": 6.291006, "lon": 125.0927997}, {"type": "node", "id": 5320655307, "lat": 6.2919125, "lon": 125.0933039}, {"type": "node", "id": 5320655308, "lat": 6.2924243, "lon": 125.0938296}, {"type": "node", "id": 5320655309, "lat": 6.2926909, "lon": 125.0956213}, {"type": "node", "id": 5320655310, "lat": 6.2929042, "lon": 125.095557}, {"type": "node", "id": 5320655311, "lat": 6.2927656, "lon": 125.0949561}, {"type": "node", "id": 5320655312, "lat": 6.2931175, "lon": 125.0948381}, {"type": "node", "id": 5320655313, "lat": 6.2930109, "lon": 125.0941622}, {"type": "node", "id": 5320655314, "lat": 6.2935494, "lon": 125.0940281}, {"type": "node", "id": 5320655329, "lat": 6.2869376, "lon": 125.0956321}, {"type": "node", "id": 5320655350, "lat": 6.288276, "lon": 125.0961149}, {"type": "node", "id": 5320655351, "lat": 6.2870602, "lon": 125.0960398}, {"type": "node", "id": 5320655448, "lat": 6.2914912, "lon": 125.0968552}, {"type": "node", "id": 5320655449, "lat": 6.2926536, "lon": 125.0973809}, {"type": "node", "id": 5320655450, "lat": 6.2928242, "lon": 125.0972468}, {"type": "node", "id": 5320655451, "lat": 6.2933415, "lon": 125.0971663}, {"type": "node", "id": 5320655452, "lat": 6.293784, "lon": 125.0973648}, {"type": "node", "id": 5320655453, "lat": 6.2941386, "lon": 125.0969919}, {"type": "node", "id": 5333322058, "lat": 6.1730197, "lon": 125.2196252, "tags": {"admin_level": "10", "admin_type:PH": "barangay", "ele": "40", "is_in:city": "General Santos", "name": "Katangawan", "official_name": "Barangay Katangawan", "place": "village", "population": "17355", "population:date": "2020-05-01", "postal_code": "9500"}}, {"type": "node", "id": 5333506059, "lat": 6.1845538, "lon": 125.1434389, "tags": {"admin_level": "10", "admin_type:PH": "barangay", "ele": "150", "is_in:city": "General Santos", "name": "Mabuhay", "official_name": "Barangay Mabuhay", "place": "village", "population": "37629", "population:date": "2020-05-01", "postal_code": "9500"}}, {"type": "node", "id": 5333506060, "lat": 6.2015121, "lon": 125.1878084, "tags": {"admin_level": "10", "admin_type:PH": "barangay", "ele": "100", "is_in:city": "General Santos", "name": "Conel", "official_name": "Barangay Conel", "place": "village", "population": "15931", "population:date": "2020-05-01", "postal_code": "9500"}}, {"type": "node", "id": 5333509633, "lat": 6.2228048, "lon": 125.1935543, "tags": {"admin_level": "10", "admin_type:PH": "barangay", "ele": "130", "is_in:city": "General Santos", "name": "Olympog", "official_name": "Barangay Olympog", "place": "village", "population": "4455", "population:date": "2020-05-01", "postal_code": "9500"}}, {"type": "node", "id": 5335281125, "lat": 6.165625, "lon": 125.1549115}, {"type": "node", "id": 5335282328, "lat": 6.1762876, "lon": 125.149405}, {"type": "node", "id": 5335282329, "lat": 6.1762996, "lon": 125.1547238}, {"type": "node", "id": 5335282330, "lat": 6.176295, "lon": 125.1530166}, {"type": "node", "id": 5335282336, "lat": 6.171057, "lon": 125.1548432}, {"type": "node", "id": 5335282422, "lat": 6.1741343, "lon": 125.151368}, {"type": "node", "id": 5335282426, "lat": 6.1710583, "lon": 125.1603377}, {"type": "node", "id": 5335282725, "lat": 6.1762863, "lon": 125.1512235}, {"type": "node", "id": 5335283221, "lat": 6.1741583, "lon": 125.1494265}, {"type": "node", "id": 5335283222, "lat": 6.1661092, "lon": 125.1549053}, {"type": "node", "id": 5655814721, "lat": 6.2458708, "lon": 125.0898977, "tags": {"name": "Octavio Village", "place": "neighbourhood", "postal_code": "9504"}}, {"type": "node", "id": 5997777660, "lat": 6.3471121, "lon": 125.0406315, "tags": {"name": "Glandang", "place": "hamlet"}}, {"type": "node", "id": 6060939486, "lat": 6.174145, "lon": 125.1508231}, {"type": "node", "id": 6060939487, "lat": 6.1741403, "lon": 125.1506334}, {"type": "node", "id": 6060939624, "lat": 6.1762728, "lon": 125.1494064}, {"type": "node", "id": 6060939627, "lat": 6.1761744, "lon": 125.1494086}, {"type": "node", "id": 6060939634, "lat": 6.1762893, "lon": 125.1496931}, {"type": "node", "id": 6060939635, "lat": 6.1762865, "lon": 125.1497684}, {"type": "node", "id": 6060939647, "lat": 6.1762837, "lon": 125.1500371}, {"type": "node", "id": 6060939658, "lat": 6.1762812, "lon": 125.1502754}, {"type": "node", "id": 6060939659, "lat": 6.1762824, "lon": 125.1503141}, {"type": "node", "id": 6060939670, "lat": 6.1762824, "lon": 125.1505091}, {"type": "node", "id": 6060939671, "lat": 6.1762864, "lon": 125.1506003}, {"type": "node", "id": 6086206308, "lat": 6.495682, "lon": 125.0136694, "tags": {"admin_level": "10", "designation": "barangay", "ele": "400", "is_in:town": "Tampakan", "name": "Danlag", "place": "village", "postal_code": "9507"}}, {"type": "node", "id": 6086301012, "lat": 6.4359302, "lon": 124.9990135, "tags": {"name": "Lampitak", "place": "village"}}, {"type": "node", "id": 6086301013, "lat": 6.4220054, "lon": 125.0361386, "tags": {"is_in:town": "Tampakan", "name": "Albagan", "place": "village"}}, {"type": "node", "id": 6086301018, "lat": 6.4727097, "lon": 125.0036401, "tags": {"admin_level": "10", "admin_type:PH": "barangay", "is_in:municipality": "Tampakan", "name": "Pula Bato", "place": "village", "postal_code": "9507"}}, {"type": "node", "id": 6086301019, "lat": 6.4424135, "lon": 125.0470933, "tags": {"admin_level": "10", "admin_type:PH": "barangay", "is_in:municipality": "Tampakan", "name": "Tablu", "place": "village", "postal_code": "9507"}}, {"type": "node", "id": 6087001712, "lat": 6.4042409, "lon": 125.1118192, "tags": {"admin_level": "10", "admin_type:PH": "barangay", "alt_name": "Datalbatong", "is_in:municipality": "Malungon", "name": "Datal Batong", "official_name": "Barangay Datal Batong", "place": "village", "postal_code": "9503"}}, {"type": "node", "id": 6087002334, "lat": 6.4139733, "lon": 125.0932077, "tags": {"admin_level": "10", "admin_type:PH": "barangay", "is_in:town": "Tupi", "name": "Miasong", "place": "village", "source:name": "extrapolated from OSMaPaaralan"}}, {"type": "node", "id": 6087084474, "lat": 6.3892688, "lon": 125.1468455, "tags": {"admin_level": "10", "admin_type:PH": "barangay", "alt_name": "Blaan", "is_in:municipality": "Malungon", "name": "B'laan", "official_name": "Barangay B'laan", "place": "village", "postal_code": "9503", "start_date": "1991"}}, {"type": "node", "id": 6087084711, "lat": 6.3770465, "lon": 125.1589564, "tags": {"admin_level": "10", "admin_type:PH": "barangay", "is_in:municipality": "Malungon", "name": "Alkikan", "official_name": "Barangay Alkikan", "place": "village", "postal_code": "9503", "start_date": "1991"}}, {"type": "node", "id": 6087084767, "lat": 6.361941, "lon": 125.1390377, "tags": {"admin_level": "10", "admin_type:PH": "barangay", "alt_name": "Datalbila", "is_in:municipality": "Malungon", "name": "Datal Bila", "official_name": "Barangay Datal Bila", "place": "village", "postal_code": "9503", "start_date": "1991"}}, {"type": "node", "id": 6087085360, "lat": 6.3812577, "lon": 125.1746038, "tags": {"admin_level": "10", "admin_type:PH": "barangay", "is_in:municipality": "Malungon", "name": "Kibala", "official_name": "Barangay Kibala", "old_ref": "128007012", "place": "village", "postal_code": "9503", "start_date": "1991"}}, {"type": "node", "id": 6087085361, "lat": 6.3742832, "lon": 125.2007208, "tags": {"admin_level": "10", "admin_type:PH": "barangay", "is_in:municipality": "Malungon", "name": "Kiblat", "official_name": "Barangay Kiblat", "place": "village", "postal_code": "9503", "start_date": "1991"}}, {"type": "node", "id": 6087085377, "lat": 6.3388133, "lon": 125.220789, "tags": {"admin_level": "10", "admin_type:PH": "barangay", "alt_name": "Atla-e", "is_in:municipality": "Malungon", "name": "Atlae", "official_name": "Barangay Atlae", "place": "village", "postal_code": "9503", "start_date": "1991"}}, {"type": "node", "id": 6087161309, "lat": 6.3311227, "lon": 125.217969, "tags": {"admin_level": "10", "admin_type:PH": "barangay", "is_in:municipality": "Malungon", "name": "Datal Tampal", "official_name": "Barangay Datal Tampal", "place": "village", "postal_code": "9503", "start_date": "1991"}}, {"type": "node", "id": 6087161401, "lat": 6.3232353, "lon": 125.2619259, "tags": {"admin_level": "11", "name": "Buayan", "place": "hamlet", "place:PH": "sitio"}}, {"type": "node", "id": 6087161421, "lat": 6.4029165, "lon": 125.2014737, "tags": {"admin_level": "10", "admin_type:PH": "barangay", "is_in:municipality": "Malungon", "name": "Malabod", "official_name": "Barangay Malabod", "place": "village", "postal_code": "9503", "start_date": "1991"}}, {"type": "node", "id": 6087161808, "lat": 6.3460744, "lon": 125.2068039, "tags": {"admin_level": "11", "name": "Lamlifew", "place": "hamlet", "place:PH": "sitio"}}, {"type": "node", "id": 6088692780, "lat": 6.190934, "lon": 125.2468846, "tags": {"admin_level": "10", "admin_type:PH": "barangay", "designation": "barangay", "ele": "40", "is_in:town": "Alabel", "name": "Domolok", "old_ref": "128001005", "place": "village", "population": "5432", "postal_code": "9501", "ref": "1208001005", "source:population": "Philippine Statistics Authority"}}, {"type": "node", "id": 6089835181, "lat": 6.3162618, "lon": 125.0144426, "tags": {"admin_level": "10", "admin_type:PH": "barangay", "is_in:municipality": "Tupi", "name": "Kablon", "old_ref": "126317006", "place": "village", "population": "5912", "population:2015": "5553", "population:date": "2020-05-01", "ref": "1206317006"}}, {"type": "node", "id": 6089835775, "lat": 6.3218456, "lon": 125.0358543, "tags": {"admin_level": "10", "is_in:town": "Polomolok", "name": "Lemblisong", "place": "hamlet", "place:PH": "barangay"}}, {"type": "node", "id": 6089835781, "lat": 6.3219748, "lon": 125.0472796, "tags": {"admin_level": "11", "name": "Keumang", "place": "hamlet", "place:PH": "sitio"}}, {"type": "node", "id": 6089835793, "lat": 6.3634243, "lon": 125.043372, "tags": {"admin_level": "11", "name": "Datal Ngisi", "place": "hamlet", "place:PH": "sitio"}}, {"type": "node", "id": 6384095495, "lat": 6.1692037, "lon": 125.0727153}, {"type": "node", "id": 6449748115, "lat": 6.1679703, "lon": 125.0731914}, {"type": "node", "id": 6449748136, "lat": 6.1696923, "lon": 125.0725624}, {"type": "node", "id": 6456221438, "lat": 6.326256, "lon": 125.0599833, "tags": {"name": "Alnamang", "place": "hamlet"}}, {"type": "node", "id": 6484932078, "lat": 6.5467922, "lon": 125.2973986, "tags": {"admin_level": "10", "admin_type:PH": "barangay", "is_in:municipality": "Sulop", "name": "Labon", "official_name": "Barangay Labon", "place": "village", "postal_code": "8009"}}, {"type": "node", "id": 6563272044, "lat": 6.1654543, "lon": 125.0642637}, {"type": "node", "id": 6563272047, "lat": 6.1660489, "lon": 125.0647652}, {"type": "node", "id": 6563272052, "lat": 6.1669236, "lon": 125.0648135}, {"type": "node", "id": 6563272053, "lat": 6.1669636, "lon": 125.0649959}, {"type": "node", "id": 6563272058, "lat": 6.1665449, "lon": 125.0661895}, {"type": "node", "id": 6563272060, "lat": 6.1663023, "lon": 125.0665274}, {"type": "node", "id": 6563272062, "lat": 6.1665636, "lon": 125.0668091}, {"type": "node", "id": 6563272065, "lat": 6.1668276, "lon": 125.0677586}, {"type": "node", "id": 6563272068, "lat": 6.1673289, "lon": 125.0680885}, {"type": "node", "id": 6563272071, "lat": 6.1677126, "lon": 125.0685953}, {"type": "node", "id": 6563272073, "lat": 6.1675413, "lon": 125.0688662}, {"type": "node", "id": 6563272075, "lat": 6.1674029, "lon": 125.0689945}, {"type": "node", "id": 6563272083, "lat": 6.1675572, "lon": 125.0694676}, {"type": "node", "id": 6563272096, "lat": 6.1692356, "lon": 125.0699821}, {"type": "node", "id": 6563272101, "lat": 6.1700863, "lon": 125.0704488}, {"type": "node", "id": 6563272105, "lat": 6.1702196, "lon": 125.071224}, {"type": "node", "id": 6563272110, "lat": 6.1709716, "lon": 125.0711811}, {"type": "node", "id": 6563272113, "lat": 6.1708053, "lon": 125.0716259}, {"type": "node", "id": 6563272115, "lat": 6.1705653, "lon": 125.0719651}, {"type": "node", "id": 6563272118, "lat": 6.1706463, "lon": 125.0723988}, {"type": "node", "id": 6563272214, "lat": 6.1764729, "lon": 125.0884652}, {"type": "node", "id": 6563272216, "lat": 6.1761903, "lon": 125.0889373}, {"type": "node", "id": 6563272218, "lat": 6.1762809, "lon": 125.089396}, {"type": "node", "id": 6563272221, "lat": 6.1770543, "lon": 125.089699}, {"type": "node", "id": 6563272223, "lat": 6.1771316, "lon": 125.0899834}, {"type": "node", "id": 6563272224, "lat": 6.1773849, "lon": 125.090155}, {"type": "node", "id": 6563272227, "lat": 6.1779849, "lon": 125.0902999}, {"type": "node", "id": 6563272229, "lat": 6.1782222, "lon": 125.0906619}, {"type": "node", "id": 6563272232, "lat": 6.1779209, "lon": 125.0910643}, {"type": "node", "id": 6563272234, "lat": 6.1775423, "lon": 125.0913593}, {"type": "node", "id": 6563272235, "lat": 6.1775556, "lon": 125.0914747}, {"type": "node", "id": 6563272241, "lat": 6.1778462, "lon": 125.0922203}, {"type": "node", "id": 6563272244, "lat": 6.1775343, "lon": 125.0929418}, {"type": "node", "id": 6563272249, "lat": 6.1770863, "lon": 125.0942508}, {"type": "node", "id": 6563272254, "lat": 6.1782302, "lon": 125.0949776}, {"type": "node", "id": 6563272257, "lat": 6.1788382, "lon": 125.095911}, {"type": "node", "id": 6563272258, "lat": 6.1791356, "lon": 125.0962852}, {"type": "node", "id": 6563272260, "lat": 6.1796329, "lon": 125.0966996}, {"type": "node", "id": 6563272263, "lat": 6.179855, "lon": 125.0978905}, {"type": "node", "id": 6563272267, "lat": 6.1805235, "lon": 125.0976706}, {"type": "node", "id": 6563272268, "lat": 6.1806729, "lon": 125.0976867}, {"type": "node", "id": 6578574115, "lat": 6.2327654, "lon": 125.1926771, "tags": {"admin_level": "11", "admin_type:PH": "purok", "alt_name": "Sitio Balsinang", "is_in:barangay": "Olympog", "is_in:city": "General Santos", "name": "Balsinang", "official_name": "Purok Balsinang", "place": "hamlet", "postal_code": "9500"}}, {"type": "node", "id": 6578574199, "lat": 6.2489127, "lon": 125.1977269, "tags": {"admin_level": "11", "admin_type:PH": "purok", "alt_name": "Sitio Balakayo", "ele": "300", "is_in:barangay": "Olympog", "is_in:city": "General Santos", "name": "Balakayo", "official_name": "Purok Balakayo", "place": "hamlet", "postal_code": "9500"}}, {"type": "node", "id": 6585923073, "lat": 6.2444019, "lon": 125.0961928}, {"type": "node", "id": 6585923074, "lat": 6.2444886, "lon": 125.0962758}, {"type": "node", "id": 6598899792, "lat": 6.1710493, "lon": 125.1523741}, {"type": "node", "id": 6598901136, "lat": 6.2912062, "lon": 125.0971297}, {"type": "node", "id": 6598901137, "lat": 6.2909551, "lon": 125.0971029}, {"type": "node", "id": 6598901138, "lat": 6.2906008, "lon": 125.0970904}, {"type": "node", "id": 6598901139, "lat": 6.2897947, "lon": 125.0968741}, {"type": "node", "id": 6598901140, "lat": 6.2896579, "lon": 125.09664}, {"type": "node", "id": 6687070400, "lat": 6.5578808, "lon": 125.3660845, "tags": {"admin_level": "10", "admin_type:PH": "barangay", "is_in:municipality": "Malalag", "name": "Tagansule", "official_name": "Barangay Tagansule", "place": "village", "postal_code": "8010"}}, {"type": "node", "id": 6725632883, "lat": 6.2507773, "lon": 125.0954963}, {"type": "node", "id": 6725703185, "lat": 6.2502356, "lon": 125.0960778}, {"type": "node", "id": 6725703186, "lat": 6.2510144, "lon": 125.095243}, {"type": "node", "id": 6725703187, "lat": 6.2490351, "lon": 125.0938723}, {"type": "node", "id": 6725703188, "lat": 6.2494264, "lon": 125.0959615}, {"type": "node", "id": 6725703189, "lat": 6.2487103, "lon": 125.0941705}, {"type": "node", "id": 6725703190, "lat": 6.2505344, "lon": 125.0957557}, {"type": "node", "id": 6725703191, "lat": 6.2492288, "lon": 125.0935897}, {"type": "node", "id": 6725703192, "lat": 6.2499054, "lon": 125.0964335}, {"type": "node", "id": 6725703193, "lat": 6.2486214, "lon": 125.0951682}, {"type": "node", "id": 6725703199, "lat": 6.248562, "lon": 125.09791}, {"type": "node", "id": 6749259625, "lat": 6.2450407, "lon": 125.0941957}, {"type": "node", "id": 6794271445, "lat": 6.3432004, "lon": 125.1199541}, {"type": "node", "id": 6794271446, "lat": 6.3431619, "lon": 125.1199254}, {"type": "node", "id": 6794271447, "lat": 6.3429461, "lon": 125.1201326}, {"type": "node", "id": 6794271448, "lat": 6.3429883, "lon": 125.1202137}, {"type": "node", "id": 6794271449, "lat": 6.3430937, "lon": 125.1201625}, {"type": "node", "id": 6794271450, "lat": 6.3431197, "lon": 125.1201039}, {"type": "node", "id": 6829338136, "lat": 6.1758367, "lon": 125.1530197}, {"type": "node", "id": 6829338137, "lat": 6.1757527, "lon": 125.1530202}, {"type": "node", "id": 6829338143, "lat": 6.1760154, "lon": 125.1530185}, {"type": "node", "id": 6829338149, "lat": 6.1760082, "lon": 125.1530195}, {"type": "node", "id": 6829338150, "lat": 6.1762962, "lon": 125.153606}, {"type": "node", "id": 6829338151, "lat": 6.1762973, "lon": 125.1537253}, {"type": "node", "id": 6829338154, "lat": 6.1762973, "lon": 125.1537343}, {"type": "node", "id": 6829338155, "lat": 6.1762974, "lon": 125.1537692}, {"type": "node", "id": 6829338205, "lat": 6.1762989, "lon": 125.1544062}, {"type": "node", "id": 6829338206, "lat": 6.1762987, "lon": 125.1543459}, {"type": "node", "id": 6877034558, "lat": 6.1595915, "lon": 125.1092952}, {"type": "node", "id": 6877069775, "lat": 6.1561278, "lon": 125.0974719}, {"type": "node", "id": 6894303721, "lat": 6.1711563, "lon": 125.1081483}, {"type": "node", "id": 6898020553, "lat": 6.3742257, "lon": 125.4459581, "tags": {"alt_name": "Sitio Aglaungan", "is_in:barangay": "Demoloc", "is_in:municipality": "Malita", "name": "Aglaungan", "place": "hamlet", "postal_code": "8012"}}, {"type": "node", "id": 6898020555, "lat": 6.4257288, "lon": 125.4338893, "tags": {"admin_level": "10", "admin_type:PH": "barangay", "is_in:municipality": "Santa Maria", "name": "San Pedro", "official_name": "Barangay San Pedro", "place": "village", "postal_code": "8011"}}, {"type": "node", "id": 6898020556, "lat": 6.4047234, "lon": 125.41706, "tags": {"admin_level": "10", "admin_type:PH": "barangay", "is_in:municipality": "Santa Maria", "name": "San Juan", "official_name": "Barangay San Juan", "place": "village", "postal_code": "8011"}}, {"type": "node", "id": 6898083027, "lat": 6.3912454, "lon": 125.394457, "tags": {"fixme": "name", "place": "hamlet"}}, {"type": "node", "id": 6898083050, "lat": 6.419414, "lon": 125.3123171, "tags": {"admin_level": "11", "designation": "sitio", "is_in:town": "Malungon", "is_in:village": "Kawayan", "name": "Docientos", "place": "hamlet"}}, {"type": "node", "id": 6898083051, "lat": 6.4088536, "lon": 125.3372884, "tags": {"admin_level": "10", "admin_type:PH": "barangay", "is_in:municipality": "Malungon", "name": "San Miguel", "official_name": "Barangay San Miguel", "place": "village", "postal_code": "9503", "was_in:municipality": "Malalag"}}, {"type": "node", "id": 6898083052, "lat": 6.4032774, "lon": 125.3604519, "tags": {"place": "hamlet"}}, {"type": "node", "id": 6898083053, "lat": 6.4084698, "lon": 125.3649366, "tags": {"place": "hamlet"}}, {"type": "node", "id": 6898083054, "lat": 6.4091521, "lon": 125.3763199, "tags": {"place": "hamlet"}}, {"type": "node", "id": 6898083055, "lat": 6.3922583, "lon": 125.4070473, "tags": {"admin_level": "10", "admin_type:PH": "barangay", "is_in:municipality": "Malungon", "name": "San Juan", "official_name": "Barangay San Juan", "old_ref": "128007024", "place": "village", "postal_code": "9503", "was_in:municipality": "Santa Maria"}}, {"type": "node", "id": 6898083057, "lat": 6.3574559, "lon": 125.4210779, "tags": {"alt_name": "Sitio Guisok", "is_in:barangay": "Demoloc", "is_in:municipality": "Malita", "name": "Guisok", "place": "hamlet", "postal_code": "8012"}}, {"type": "node", "id": 6898083058, "lat": 6.3711255, "lon": 125.4049391, "tags": {"fixme": "name", "place": "hamlet"}}, {"type": "node", "id": 6898083059, "lat": 6.3834673, "lon": 125.3719425, "tags": {"place": "hamlet"}}, {"type": "node", "id": 6898083060, "lat": 6.3419678, "lon": 125.2765739, "tags": {"place": "hamlet"}}, {"type": "node", "id": 6898083061, "lat": 6.3356659, "lon": 125.2816057, "tags": {"place": "hamlet"}}, {"type": "node", "id": 6898083062, "lat": 6.3338105, "lon": 125.3072369, "tags": {"place": "hamlet"}}, {"type": "node", "id": 6898083063, "lat": 6.3386089, "lon": 125.3310871, "tags": {"place": "hamlet"}}, {"type": "node", "id": 6898083064, "lat": 6.3265246, "lon": 125.3319025, "tags": {"admin_level": "10", "admin_type:PH": "barangay", "is_in:municipality": "Malungon", "name": "Lutay", "official_name": "Barangay Lutay", "place": "village", "postal_code": "9503"}}, {"type": "node", "id": 6898083065, "lat": 6.3235522, "lon": 125.3464615, "tags": {"place": "hamlet"}}, {"type": "node", "id": 6898083066, "lat": 6.3238081, "lon": 125.3541434, "tags": {"place": "hamlet"}}, {"type": "node", "id": 6898083067, "lat": 6.3237202, "lon": 125.3759134, "tags": {"admin_level": "11", "admin_type:PH": "sitio", "is_in:quarter": "Lutay", "is_in:town": "Malungon", "name": "Dalamuan", "place": "hamlet", "source:name": "extrapolated from OSMaPaaralan, way/977124055"}}, {"type": "node", "id": 6898083068, "lat": 6.3244266, "lon": 125.3882074, "tags": {"place": "hamlet"}}, {"type": "node", "id": 6898083069, "lat": 6.3332595, "lon": 125.2955522, "tags": {"admin_level": "10", "admin_type:PH": "barangay", "is_in:municipality": "Malungon", "name": "Ampon", "official_name": "Barangay Ampon", "place": "village", "postal_code": "9503"}}, {"type": "node", "id": 6898083070, "lat": 6.3763902, "lon": 125.2931794, "tags": {"alt_name": "Sitio Kityan Daku", "is_in:barangay": "Poblacion", "is_in:municipality": "Malungon", "name": "Kityan Daku", "place": "hamlet", "postal_code": "9503"}}, {"type": "node", "id": 6898083071, "lat": 6.350509, "lon": 125.2905321, "tags": {"place": "hamlet"}}, {"type": "node", "id": 6898083072, "lat": 6.3631551, "lon": 125.3121856, "tags": {"admin_level": "10", "admin_type:PH": "barangay", "is_in:municipality": "Malungon", "name": "Lower Mainit", "official_name": "Barangay Lower Mainit", "place": "village", "postal_code": "9503"}}, {"type": "node", "id": 6898083073, "lat": 6.3701925, "lon": 125.2996194, "tags": {"place": "hamlet"}}, {"type": "node", "id": 6898083074, "lat": 6.3631978, "lon": 125.2970767, "tags": {"place": "hamlet"}}, {"type": "node", "id": 6898083075, "lat": 6.341648, "lon": 125.3476202, "tags": {"place": "hamlet"}}, {"type": "node", "id": 6898083076, "lat": 6.3547997, "lon": 125.3330394, "tags": {"admin_level": "11", "alt_name": "Sitio Taclobo", "designation": "sitio", "is_in:town": "Malungon", "name": "Taclobo", "place": "hamlet", "postal_code": "9503"}}, {"type": "node", "id": 6898083078, "lat": 6.3666418, "lon": 125.3258139, "tags": {"place": "hamlet"}}, {"type": "node", "id": 6898083079, "lat": 6.3828328, "lon": 125.3252506, "tags": {"admin_level": "10", "admin_type:PH": "barangay", "is_in:municipality": "Malungon", "name": "Upper Mainit", "official_name": "Barangay Upper Mainit", "place": "village", "postal_code": "9503"}}, {"type": "node", "id": 6898083080, "lat": 6.3974295, "lon": 125.3400698, "tags": {"admin_level": "10", "admin_type:PH": "barangay", "is_in:municipality": "Malungon", "name": "San Roque", "official_name": "Barangay San Roque", "place": "village", "postal_code": "9503"}}, {"type": "node", "id": 6898083081, "lat": 6.4015129, "lon": 125.362705, "tags": {"admin_level": "11", "designation": "sitio", "is_in:town": "Malungon", "is_in:village": "San Roque", "name": "Kisablay", "place": "hamlet", "postal_code": "9503"}}, {"type": "node", "id": 6898083082, "lat": 6.3868073, "lon": 125.3872391, "tags": {"admin_level": "10", "admin_type:PH": "barangay", "ele": "300", "is_in:municipality": "Malungon", "name": "Upper Lumabat", "official_name": "Barangay Upper Lumabat", "old_ref": "128007030", "place": "village", "population": "1945", "population:date": "2020-05-01", "postal_code": "9503"}}, {"type": "node", "id": 6898083083, "lat": 6.3742, "lon": 125.3804158, "tags": {"admin_level": "10", "admin_type:PH": "barangay", "is_in:municipality": "Malungon", "name": "Panamin", "official_name": "Barangay Panamin", "place": "village", "postal_code": "9503", "start_date": "1991"}}, {"type": "node", "id": 6898084309, "lat": 6.4283296, "lon": 125.3316343, "tags": {"admin_level": "10", "admin_type:PH": "barangay", "is_in:municipality": "Malungon", "name": "Kawayan", "official_name": "Barangay Kawayan", "place": "village", "postal_code": "9503", "was_in:municipality": "Malalag"}}, {"type": "node", "id": 6910713848, "lat": 6.595202, "lon": 125.2350331, "tags": {"admin_level": "10", "admin_type:PH": "barangay", "is_in:municipality": "Kiblawan", "name": "Panaglib", "official_name": "Barangay Panaglib", "place": "village", "postal_code": "8008"}}, {"type": "node", "id": 6910713849, "lat": 6.4742488, "lon": 125.1898956, "tags": {"admin_level": "10", "admin_type:PH": "barangay", "is_in:municipality": "Kiblawan", "name": "Bulol-Salo", "official_name": "Barangay Bulol-Salo", "place": "village", "postal_code": "8008"}}, {"type": "node", "id": 6910742108, "lat": 6.4481088, "lon": 125.2555883, "tags": {"admin_level": "10", "admin_type:PH": "barangay", "is_in:municipality": "Kiblawan", "name": "Bunot", "official_name": "Barangay Bunot", "place": "village", "postal_code": "8008"}}, {"type": "node", "id": 6910742109, "lat": 6.4628634, "lon": 125.2590859, "tags": {"admin_level": "10", "admin_type:PH": "barangay", "is_in:municipality": "Kiblawan", "name": "Bonifacio", "official_name": "Barangay Bonifacio", "place": "village", "postal_code": "8008"}}, {"type": "node", "id": 6910742110, "lat": 6.5639162, "lon": 125.2580291, "tags": {"admin_level": "10", "admin_type:PH": "barangay", "is_in:municipality": "Kiblawan", "name": "Lati-an", "official_name": "Barangay Lati-an", "place": "village", "postal_code": "8008"}}, {"type": "node", "id": 6910742193, "lat": 6.562392, "lon": 125.1386547, "tags": {"admin_level": "10", "admin_type:PH": "barangay", "is_in:municipality": "Kiblawan", "name": "Abnate", "official_name": "Barangay Abnate", "place": "village", "postal_code": "8008"}}, {"type": "node", "id": 6910742195, "lat": 6.5792429, "lon": 125.3281045, "tags": {"admin_level": "10", "admin_type:PH": "barangay", "is_in:municipality": "Sulop", "name": "Waterfall", "official_name": "Barangay Waterfall", "place": "village", "postal_code": "8009"}}, {"type": "node", "id": 6910742196, "lat": 6.6077869, "lon": 125.1863731, "tags": {"admin_level": "10", "admin_type:PH": "barangay", "is_in:municipality": "Kiblawan", "name": "Bagong Silang", "official_name": "Barangay Bagong Silang", "place": "village", "postal_code": "8008"}}, {"type": "node", "id": 6910742198, "lat": 6.5335383, "lon": 125.3300559, "tags": {"alt_name": "Sitio Ngub", "ele": "300", "is_in:barangay": "Mabini", "is_in:municipality": "Malalag", "name": "Ngub", "place": "hamlet", "postal_code": "8010"}}, {"type": "node", "id": 6910742199, "lat": 6.480144, "lon": 125.2628732, "tags": {"admin_level": "10", "admin_type:PH": "barangay", "is_in:municipality": "Kiblawan", "name": "Bagong Negros", "official_name": "Barangay Bagong Negros", "place": "village", "postal_code": "8008"}}, {"type": "node", "id": 6910742200, "lat": 6.4868066, "lon": 125.2078235, "tags": {"admin_level": "10", "admin_type:PH": "barangay", "is_in:municipality": "Kiblawan", "name": "Tacub", "official_name": "Barangay Tacub", "place": "village", "postal_code": "8008"}}, {"type": "node", "id": 6910742203, "lat": 6.4940715, "lon": 125.2484348, "tags": {"admin_level": "10", "admin_type:PH": "barangay", "is_in:municipality": "Kiblawan", "name": "Balasiao", "official_name": "Barangay Balasiao", "old_ref": "112406005", "place": "village", "population": "2912", "population:date": "2020-05-01", "postal_code": "8008", "ref": "1102406005"}}, {"type": "node", "id": 6910742204, "lat": 6.503692, "lon": 125.2723119, "tags": {"admin_level": "10", "admin_type:PH": "barangay", "is_in:municipality": "Kiblawan", "name": "Pocaleel", "official_name": "Barangay Pocaleel", "old_ref": "112406024", "place": "village", "population": "651", "population:date": "2020-05-01", "postal_code": "8008", "ref": "1102406024"}}, {"type": "node", "id": 6910742205, "lat": 6.5098427, "lon": 125.2504277, "tags": {"admin_level": "10", "admin_type:PH": "barangay", "is_in:municipality": "Kiblawan", "name": "Pasig", "official_name": "Barangay Pasig", "place": "village", "postal_code": "8008"}}, {"type": "node", "id": 6910742206, "lat": 6.4628687, "lon": 125.0808182, "tags": {"admin_level": "11", "alt_name": "Tukay Mal", "designation": "sitio", "ele": "1270", "is_in:town": "Tampakan", "is_in:village": "Tablu", "name": "Tokay Mal", "place": "hamlet", "postal_code": "9507"}}, {"type": "node", "id": 6910742207, "lat": 6.4961702, "lon": 125.0713956, "tags": {"admin_level": "11", "designation": "sitio", "ele": "1200", "is_in:town": "Tampakan", "is_in:village": "Danlag", "name": "Datal Biao", "place": "village", "postal_code": "9507"}}, {"type": "node", "id": 6910742226, "lat": 6.5237623, "lon": 125.1756666, "tags": {"admin_level": "10", "admin_type:PH": "barangay", "ele": "630", "is_in:municipality": "Kiblawan", "name": "Kimlawis", "official_name": "Barangay Kimlawis", "place": "village", "postal_code": "8008"}}, {"type": "node", "id": 6910742227, "lat": 6.5575152, "lon": 125.2106407, "tags": {"alt_name": "Sitio Domino", "ele": "330", "is_in:barangay": "Ihan", "is_in:municipality": "Kiblawan", "name": "Domino", "place": "hamlet", "postal_code": "8008"}}, {"type": "node", "id": 6910742228, "lat": 6.5319184, "lon": 125.2478099, "tags": {"admin_level": "10", "admin_type:PH": "barangay", "is_in:municipality": "Kiblawan", "name": "Cogon-Bacaca", "official_name": "Barangay Cogon-Bacaca", "place": "village", "postal_code": "8008"}}, {"type": "node", "id": 6910742229, "lat": 6.5522557, "lon": 125.236845, "tags": {"admin_level": "10", "admin_type:PH": "barangay", "is_in:municipality": "Kiblawan", "name": "Kisulan", "official_name": "Barangay Kisulan", "place": "village", "postal_code": "8008"}}, {"type": "node", "id": 6910742230, "lat": 6.579179, "lon": 125.1653695, "tags": {"admin_level": "10", "admin_type:PH": "barangay", "is_in:municipality": "Kiblawan", "name": "Tacul", "official_name": "Barangay Tacul", "place": "village", "postal_code": "8008"}}, {"type": "node", "id": 6910742231, "lat": 6.5765144, "lon": 125.2077162, "tags": {"admin_level": "10", "admin_type:PH": "barangay", "is_in:municipality": "Kiblawan", "name": "San Jose", "official_name": "Barangay San Jose", "place": "village", "postal_code": "8008"}}, {"type": "node", "id": 6910742232, "lat": 6.5892189, "lon": 125.2204299, "tags": {"admin_level": "10", "admin_type:PH": "barangay", "is_in:municipality": "Kiblawan", "name": "Maraga-a", "official_name": "Barangay Maraga-a", "place": "village", "postal_code": "8008"}}, {"type": "node", "id": 6910742233, "lat": 6.5723151, "lon": 125.2338195, "tags": {"admin_level": "10", "admin_type:PH": "barangay", "is_in:municipality": "Kiblawan", "name": "Ihan", "official_name": "Barangay Ihan", "place": "village", "postal_code": "8008"}}, {"type": "node", "id": 6910742234, "lat": 6.603473, "lon": 125.2556864, "tags": {"admin_level": "10", "admin_type:PH": "barangay", "is_in:municipality": "Kiblawan", "name": "San Pedro", "official_name": "Barangay San Pedro", "place": "village", "postal_code": "8008"}}, {"type": "node", "id": 6910742235, "lat": 6.5916915, "lon": 125.2017188, "tags": {"admin_level": "10", "admin_type:PH": "barangay", "is_in:municipality": "Kiblawan", "name": "Waterfall", "official_name": "Barangay Waterfall", "place": "village", "postal_code": "8008"}}, {"type": "node", "id": 6910742236, "lat": 6.6083523, "lon": 125.2238969, "tags": {"admin_level": "10", "admin_type:PH": "barangay", "is_in:municipality": "Kiblawan", "name": "Santo Ni\u00f1o", "official_name": "Barangay Santo Ni\u00f1o", "place": "village", "postal_code": "8008"}}, {"type": "node", "id": 6910742239, "lat": 6.6140193, "lon": 125.1834744, "tags": {"admin_level": "10", "admin_type:PH": "barangay", "is_in:municipality": "Kiblawan", "name": "Kibongbong", "official_name": "Barangay Kibongbong", "place": "village", "postal_code": "8008"}}, {"type": "node", "id": 6910742269, "lat": 6.6144137, "lon": 125.215795, "tags": {"is_in:municipality": "Kiblawan", "place": "hamlet", "postal_code": "8008"}}, {"type": "node", "id": 6910742778, "lat": 6.611323, "lon": 125.1530099, "tags": {"place": "hamlet"}}, {"type": "node", "id": 6910742779, "lat": 6.5604629, "lon": 125.1978242, "tags": {"is_in:municipality": "Kiblawan", "place": "hamlet", "postal_code": "8008"}}, {"type": "node", "id": 6910742782, "lat": 6.5784595, "lon": 125.096831, "tags": {"alt_name": "Sitio Datal Fitak;Datal Pitak;Datalpitak;Datalfitak", "ele": "930", "is_in:barangay": "Colonsabak", "is_in:municipality": "Matanao", "name": "Datal Fitak", "place": "hamlet", "postal_code": "8003"}}, {"type": "node", "id": 6960293083, "lat": 6.2943339, "lon": 125.0964119}, {"type": "node", "id": 6960293116, "lat": 6.2795478, "lon": 125.1091269, "tags": {"admin_level": "10", "admin_type:PH": "barangay", "is_in:town": "Polomolok", "name": "Polo", "place": "village", "place:PH": "barangay", "source:name": "extrapolated from OSMaPaaralan, way/691924113"}}, {"type": "node", "id": 6960293131, "lat": 6.3990287, "lon": 125.0471538, "tags": {"alt_name": "Sitio Alpha", "is_in:barangay": "Miasong", "is_in:municipality": "Tupi", "name": "Alpha", "place": "hamlet", "postal_code": "9505"}}, {"type": "node", "id": 6960293138, "lat": 6.3965071, "lon": 125.0682735, "tags": {"admin_level": "11", "alt_name": "Datalmatang", "name": "Datal Matang", "place": "hamlet", "place:PH": "sitio"}}, {"type": "node", "id": 6960293409, "lat": 6.3034973, "lon": 125.1345926, "tags": {"admin_level": "10", "admin_type:PH": "barangay", "is_in:quarter": "Maligo", "is_in:town": "Polomolok", "name": "Maligo", "old_ref": "126312011", "place": "village", "population": "3498", "ref": "1206312011", "source:name": "extrapolated from OSMaPaaralan, way/196803238", "source:population": "Philippine Statistics Authority"}}, {"type": "node", "id": 6960293474, "lat": 6.3102789, "lon": 125.1457394, "tags": {"admin_level": "10", "admin_type:PH": "barangay", "is_in:town": "Polomolok", "name": "Landan", "place": "village", "place:PH": "barangay", "source:name": "extrapolated from OSMaPaaralan, way/691923809"}}, {"type": "node", "id": 6969044816, "lat": 6.1603636, "lon": 125.0634188}, {"type": "node", "id": 6969044821, "lat": 6.156357, "lon": 125.0635364}, {"type": "node", "id": 7007008461, "lat": 6.5443655, "lon": 125.3814322, "tags": {"admin_level": "10", "admin_type:PH": "barangay", "is_in:municipality": "Malalag", "name": "Bolton", "official_name": "Barangay Bolton", "place": "village", "postal_code": "8010"}}, {"type": "node", "id": 7033817905, "lat": 6.1832515, "lon": 125.0904821}, {"type": "node", "id": 7140735916, "lat": 6.1647423, "lon": 125.0725047}, {"type": "node", "id": 7140735923, "lat": 6.1621403, "lon": 125.0735434}, {"type": "node", "id": 7140735941, "lat": 6.1632703, "lon": 125.073096}, {"type": "node", "id": 7465192828, "lat": 6.1831969, "lon": 125.0913888}, {"type": "node", "id": 7465192829, "lat": 6.1827715, "lon": 125.0918207}, {"type": "node", "id": 7465192831, "lat": 6.1819795, "lon": 125.0929257}, {"type": "node", "id": 7465192833, "lat": 6.1812516, "lon": 125.0936311}, {"type": "node", "id": 7465192835, "lat": 6.1815129, "lon": 125.092341}, {"type": "node", "id": 7465192837, "lat": 6.1824382, "lon": 125.0948086}, {"type": "node", "id": 7465192840, "lat": 6.1821795, "lon": 125.0917509}, {"type": "node", "id": 7465192841, "lat": 6.1819129, "lon": 125.0915095}, {"type": "node", "id": 7465192842, "lat": 6.1820782, "lon": 125.0912306}, {"type": "node", "id": 7465192843, "lat": 6.1840968, "lon": 125.0922659}, {"type": "node", "id": 7465192844, "lat": 6.1844808, "lon": 125.0918582}, {"type": "node", "id": 7485735967, "lat": 6.1796008, "lon": 125.1493492}, {"type": "node", "id": 7528840233, "lat": 6.167777, "lon": 125.2001578}, {"type": "node", "id": 7528840234, "lat": 6.1677183, "lon": 125.2057314}, {"type": "node", "id": 7528840235, "lat": 6.1705077, "lon": 125.2057528}, {"type": "node", "id": 7528840236, "lat": 6.1706997, "lon": 125.2001685}, {"type": "node", "id": 7529959137, "lat": 6.2493758, "lon": 125.0915125}, {"type": "node", "id": 7529959138, "lat": 6.2492055, "lon": 125.0916584}, {"type": "node", "id": 7529959139, "lat": 6.2494417, "lon": 125.0927384}, {"type": "node", "id": 7530030355, "lat": 6.2450538, "lon": 125.0942095}, {"type": "node", "id": 7587323653, "lat": 6.1732527, "lon": 125.0956387}, {"type": "node", "id": 7587323656, "lat": 6.1717881, "lon": 125.0961793}, {"type": "node", "id": 7690315210, "lat": 6.1738881, "lon": 125.1547604}, {"type": "node", "id": 7697776862, "lat": 6.1563154, "lon": 125.1056783}, {"type": "node", "id": 7697776866, "lat": 6.1570768, "lon": 125.1044297}, {"type": "node", "id": 7697776868, "lat": 6.1570368, "lon": 125.1042205}, {"type": "node", "id": 7697776873, "lat": 6.1577855, "lon": 125.1039724}, {"type": "node", "id": 7697776880, "lat": 6.1575595, "lon": 125.1026689}, {"type": "node", "id": 7697776881, "lat": 6.1572034, "lon": 125.1021297}, {"type": "node", "id": 7697828187, "lat": 6.1563701, "lon": 125.1011615}, {"type": "node", "id": 7697828202, "lat": 6.1570114, "lon": 125.0993657}, {"type": "node", "id": 7697828207, "lat": 6.1562021, "lon": 125.0986161}, {"type": "node", "id": 7699370209, "lat": 6.2469989, "lon": 125.0918911}, {"type": "node", "id": 7699370211, "lat": 6.2464459, "lon": 125.0924074}, {"type": "node", "id": 7699370212, "lat": 6.2467852, "lon": 125.0920996}, {"type": "node", "id": 7699370213, "lat": 6.2470625, "lon": 125.0918233}, {"type": "node", "id": 7699370247, "lat": 6.248298, "lon": 125.0907529}, {"type": "node", "id": 7699370248, "lat": 6.2488931, "lon": 125.0908057}, {"type": "node", "id": 7699370251, "lat": 6.247905, "lon": 125.0944835}, {"type": "node", "id": 7699370252, "lat": 6.2485673, "lon": 125.091068}, {"type": "node", "id": 7699370253, "lat": 6.2465047, "lon": 125.092843}, {"type": "node", "id": 7699370254, "lat": 6.2466303, "lon": 125.0922493}, {"type": "node", "id": 7699370255, "lat": 6.2466044, "lon": 125.0929555}, {"type": "node", "id": 7699370256, "lat": 6.2462762, "lon": 125.0925457}, {"type": "node", "id": 7699370258, "lat": 6.2474666, "lon": 125.0940466}, {"type": "node", "id": 7699370259, "lat": 6.2472633, "lon": 125.0916215}, {"type": "node", "id": 7699370261, "lat": 6.2469302, "lon": 125.0933938}, {"type": "node", "id": 7699370262, "lat": 6.246945, "lon": 125.0919586}, {"type": "node", "id": 7699370263, "lat": 6.2476817, "lon": 125.0912452}, {"type": "node", "id": 7699370265, "lat": 6.2471725, "lon": 125.0917168}, {"type": "node", "id": 7723425963, "lat": 6.2180042, "lon": 125.0692981, "tags": {"name": "Citizen Village", "place": "neighbourhood", "source": "extrapolated, OSMaPaaralan/DepEd"}}, {"type": "node", "id": 7878344845, "lat": 6.3647645, "lon": 125.1317648, "tags": {"fixme": "name", "place": "hamlet"}}, {"type": "node", "id": 7878344846, "lat": 6.3742643, "lon": 125.1230049, "tags": {"alt_name": "Sitio Datal Baca", "is_in:barangay": "Datal Batong", "is_in:municipality": "Malungon", "name": "Datal Baca", "place": "hamlet", "postal_code": "9503"}}, {"type": "node", "id": 7878344847, "lat": 6.378264, "lon": 125.10885, "tags": {"place": "hamlet"}}, {"type": "node", "id": 7878344848, "lat": 6.4002388, "lon": 125.0891358, "tags": {"place": "hamlet"}}, {"type": "node", "id": 7878344893, "lat": 6.4773776, "lon": 125.1466101, "tags": {"is_in:municipality": "Kiblawan", "place": "hamlet", "postal_code": "8008"}}, {"type": "node", "id": 7878344894, "lat": 6.4848185, "lon": 125.1081848, "tags": {"place": "hamlet"}}, {"type": "node", "id": 7878344895, "lat": 6.4866361, "lon": 125.0933575, "tags": {"admin_level": "11", "alt_name": "Sitio Alyong", "designation": "sitio", "fixme": "confirm location", "is_in:town": "Tampakan", "is_in:village": "Danlag", "name": "Alyong", "place": "hamlet", "postal_code": "9507"}}, {"type": "node", "id": 7878344896, "lat": 6.4904097, "lon": 125.0857937, "tags": {"place": "hamlet"}}, {"type": "node", "id": 7878344897, "lat": 6.4756774, "lon": 125.1261663, "tags": {"alt_name": "Sitio Bong Mal", "ele": "910", "is_in:barangay": "Kimlawis", "is_in:municipality": "Kiblawan", "name": "Bong Mal", "place": "village", "postal_code": "8008"}}, {"type": "node", "id": 7878344898, "lat": 6.4407113, "lon": 125.1058365, "tags": {"admin_level": "11", "admin_type:PH": "sitio", "is_in:town": "Tupi", "is_in:village": "Miasong", "name": "Benigno S. Aquino", "place": "hamlet", "source:name": "extrapolated from OSMaPaaralan, way/980763748"}}, {"type": "node", "id": 7878344899, "lat": 6.4389403, "lon": 125.1340198, "tags": {"place": "hamlet"}}, {"type": "node", "id": 7878344900, "lat": 6.4387057, "lon": 125.1215422, "tags": {"place": "hamlet"}}, {"type": "node", "id": 7878345027, "lat": 6.4120895, "lon": 125.1692105, "tags": {"place": "hamlet"}}, {"type": "node", "id": 7878345028, "lat": 6.4201763, "lon": 125.1664209, "tags": {"fixme": "name", "place": "hamlet"}}, {"type": "node", "id": 7891348324, "lat": 6.5726348, "lon": 125.1212203, "tags": {"place": "hamlet"}}, {"type": "node", "id": 7891348325, "lat": 6.4817697, "lon": 125.1588303, "tags": {"is_in:municipality": "Kiblawan", "place": "hamlet", "postal_code": "8008"}}, {"type": "node", "id": 7891348359, "lat": 6.50681, "lon": 125.1707554, "tags": {"is_in:municipality": "Kiblawan", "place": "hamlet", "postal_code": "8008"}}, {"type": "node", "id": 7891348360, "lat": 6.4998971, "lon": 125.165568, "tags": {"is_in:municipality": "Kiblawan", "place": "hamlet", "postal_code": "8008"}}, {"type": "node", "id": 7891348361, "lat": 6.5077587, "lon": 125.1588303, "tags": {"is_in:municipality": "Kiblawan", "place": "hamlet", "postal_code": "8008"}}, {"type": "node", "id": 7891348362, "lat": 6.5294614, "lon": 125.1503384, "tags": {"is_in:municipality": "Kiblawan", "place": "hamlet", "postal_code": "8008"}}, {"type": "node", "id": 7948993610, "lat": 6.2498373, "lon": 125.0929624}, {"type": "node", "id": 7969362792, "lat": 6.1676032, "lon": 125.0683384}, {"type": "node", "id": 7990628158, "lat": 6.1713876, "lon": 125.1511495}, {"type": "node", "id": 8001979038, "lat": 6.1781369, "lon": 125.1011219}, {"type": "node", "id": 8002158408, "lat": 6.1746123, "lon": 125.094826}, {"type": "node", "id": 8002384074, "lat": 6.172529, "lon": 125.0959197}, {"type": "node", "id": 8002384079, "lat": 6.1730677, "lon": 125.0957769}, {"type": "node", "id": 8006517301, "lat": 6.1756956, "lon": 125.0883995}, {"type": "node", "id": 8014654395, "lat": 6.1645139, "lon": 125.0933566}, {"type": "node", "id": 8014654401, "lat": 6.1695721, "lon": 125.0925559}, {"type": "node", "id": 8014654402, "lat": 6.1718191, "lon": 125.0920371}, {"type": "node", "id": 8014654406, "lat": 6.1700877, "lon": 125.0964014}, {"type": "node", "id": 8041122085, "lat": 6.3297453, "lon": 125.0742959, "tags": {"admin_level": "11", "admin_type:PH": "purok", "is_in:barangay": "Kinilis", "is_in:municipality": "Polomolok", "name": "Purok 8", "place": "neighbourhood"}}, {"type": "node", "id": 8066663967, "lat": 6.5633193, "lon": 125.4374206, "tags": {"admin_level": "10", "admin_type:PH": "barangay", "is_in:municipality": "Malalag", "name": "Caputian", "official_name": "Barangay Caputian", "place": "village", "postal_code": "8010"}}, {"type": "node", "id": 8066663976, "lat": 6.53344, "lon": 125.3684825, "tags": {"alt_name": "Sitio Baluyan", "ele": "360", "is_in:barangay": "Bolton", "is_in:municipality": "Malalag", "name": "Baluyan", "place": "hamlet", "postal_code": "8010"}}, {"type": "node", "id": 8066663977, "lat": 6.5679824, "lon": 125.4153514, "tags": {"admin_level": "10", "admin_type:PH": "barangay", "is_in:municipality": "Malalag", "name": "Bulacan", "official_name": "Barangay Bulacan", "place": "village", "postal_code": "8010"}}, {"type": "node", "id": 8066672817, "lat": 6.4294038, "lon": 125.2651155, "tags": {"admin_level": "10", "admin_type:PH": "barangay", "is_in:municipality": "Malungon", "name": "Upper Biangan", "official_name": "Barangay Upper Biangan", "place": "village", "postal_code": "9503", "was_in:municipality": "Malalag"}}, {"type": "node", "id": 8072627602, "lat": 6.15503, "lon": 125.0968245}, {"type": "node", "id": 8080763980, "lat": 6.1632849, "lon": 125.0630379}, {"type": "node", "id": 8080763989, "lat": 6.1620743, "lon": 125.0629373}, {"type": "node", "id": 8080763998, "lat": 6.1610236, "lon": 125.0631116}, {"type": "node", "id": 8081201027, "lat": 6.1664343, "lon": 125.073752}, {"type": "node", "id": 8081201030, "lat": 6.1660836, "lon": 125.0721923}, {"type": "node", "id": 8081201031, "lat": 6.1660796, "lon": 125.0721252}, {"type": "node", "id": 8113760296, "lat": 6.1561928, "lon": 125.0978637}, {"type": "node", "id": 8243116686, "lat": 6.5435127, "lon": 125.3149992, "tags": {"admin_level": "10", "admin_type:PH": "barangay", "is_in:municipality": "Sulop", "name": "Laperas", "official_name": "Barangay Laperas", "place": "village", "postal_code": "8009"}}, {"type": "node", "id": 8283779507, "lat": 6.1706665, "lon": 125.1032866}, {"type": "node", "id": 8390649814, "lat": 6.1747604, "lon": 125.0912628}, {"type": "node", "id": 8396327636, "lat": 6.1914819, "lon": 125.2475269, "tags": {"admin_level": "11", "admin_type:PH": "purok", "is_in:barangay": "Domolok", "is_in:municipality": "Alabel", "name": "Purok 2", "place": "neighbourhood"}}, {"type": "node", "id": 8396352332, "lat": 6.1937632, "lon": 125.2630408, "tags": {"is_in:town": "Alabel", "is_in:village": "Domolok", "name": "Upper Domolok", "place": "neighbourhood", "source:name": "extrapolated from OSMaPaaralan, way/904064391"}}, {"type": "node", "id": 8407301152, "lat": 6.2416047, "lon": 125.2612077, "tags": {"admin_level": "11", "admin_type:PH": "purok", "is_in:barangay": "Batomelong", "is_in:city": "General Santos", "name": "Purok 2", "place": "neighbourhood", "postal_code": "9500"}}, {"type": "node", "id": 8407441369, "lat": 6.1862701, "lon": 125.0778973, "tags": {"admin_level": "10", "designation": "barangay", "is_in:town": "Polomolok", "name": "Upper Matin-ao", "place": "hamlet", "source:name": "extrapolated from OSMaPaaralan, way/905330513"}}, {"type": "node", "id": 8407453606, "lat": 6.1985656, "lon": 125.0618014, "tags": {"admin_level": "11", "admin_type:PH": "purok", "is_in:barangay": "Magsaysay", "is_in:municipality": "Polomolok", "name": "Mabuhay", "place": "neighbourhood"}}, {"type": "node", "id": 8418439620, "lat": 6.1677198, "lon": 125.2052234}, {"type": "node", "id": 8418751234, "lat": 6.1781262, "lon": 125.091008}, {"type": "node", "id": 8418751248, "lat": 6.1779769, "lon": 125.0917402}, {"type": "node", "id": 8468868370, "lat": 6.577868, "lon": 125.3480252, "tags": {"admin_level": "10", "admin_type:PH": "barangay", "is_in:municipality": "Sulop", "name": "Kiblagon", "official_name": "Barangay Kiblagon", "place": "village", "postal_code": "8009"}}, {"type": "node", "id": 8473586639, "lat": 6.3848374, "lon": 125.4200667, "tags": {"place": "hamlet"}}, {"type": "node", "id": 8473586641, "lat": 6.4346012, "lon": 125.4439115, "tags": {"place": "hamlet"}}, {"type": "node", "id": 8473586643, "lat": 6.3953823, "lon": 125.4266435, "tags": {"place": "hamlet"}}, {"type": "node", "id": 8473586644, "lat": 6.3988368, "lon": 125.4259944, "tags": {"place": "hamlet"}}, {"type": "node", "id": 8473586645, "lat": 6.4098878, "lon": 125.4147184, "tags": {"fixme": "name", "place": "hamlet"}}, {"type": "node", "id": 8473586646, "lat": 6.4151174, "lon": 125.4206032, "tags": {"place": "hamlet"}}, {"type": "node", "id": 8473586647, "lat": 6.4184012, "lon": 125.3400993, "tags": {"place": "hamlet"}}, {"type": "node", "id": 8473586649, "lat": 6.4347931, "lon": 125.3451902, "tags": {"place": "hamlet"}}, {"type": "node", "id": 8473586650, "lat": 6.4617645, "lon": 125.3326786, "tags": {"admin_level": "10", "admin_type:PH": "barangay", "ele": "260", "is_in:municipality": "Malungon", "name": "Kinabalan", "official_name": "Barangay Kinabalan", "old_ref": "128007014", "place": "village", "population": "2096", "population:date": "2020-05-01", "postal_code": "9503", "ref": "1208007014", "start_date": "1991"}}, {"type": "node", "id": 8473586651, "lat": 6.4182466, "lon": 125.4222876, "tags": {"place": "hamlet"}}, {"type": "node", "id": 8473586652, "lat": 6.4254271, "lon": 125.4306829, "tags": {"fixme": "name", "is_in:town": "Santa Maria", "is_in:village": "San Pedro", "place": "neighbourhood"}}, {"type": "node", "id": 8473586653, "lat": 6.4245422, "lon": 125.4264128, "tags": {"fixme": "name", "place": "hamlet"}}, {"type": "node", "id": 8473586658, "lat": 6.4473226, "lon": 125.4268996, "tags": {"is_in:barangay": "San Antonio", "is_in:municipality": "Santa Maria", "name": "Lais", "place": "hamlet", "postal_code": "8011"}}, {"type": "node", "id": 8473586659, "lat": 6.4555768, "lon": 125.4339176, "tags": {"fixme": "name", "place": "hamlet"}}, {"type": "node", "id": 8473586660, "lat": 6.4734466, "lon": 125.4350593, "tags": {"admin_level": "10", "admin_type:PH": "barangay", "is_in:municipality": "Santa Maria", "name": "San Antonio", "official_name": "Barangay San Antonio", "place": "village", "postal_code": "8011"}}, {"type": "node", "id": 8473586661, "lat": 6.4637358, "lon": 125.4002439, "tags": {"admin_level": "10", "admin_type:PH": "barangay", "is_in:municipality": "Santa Maria", "name": "Datu Intan", "official_name": "Barangay Datu Intan", "place": "village", "postal_code": "8011"}}, {"type": "node", "id": 8473586662, "lat": 6.4560245, "lon": 125.3961307, "tags": {"place": "hamlet"}}, {"type": "node", "id": 8473586663, "lat": 6.4444787, "lon": 125.3906456, "tags": {"place": "hamlet"}}, {"type": "node", "id": 8473586664, "lat": 6.4424851, "lon": 125.3683805, "tags": {"place": "hamlet"}}, {"type": "node", "id": 8473586665, "lat": 6.4210665, "lon": 125.357759, "tags": {"place": "hamlet"}}, {"type": "node", "id": 8473586666, "lat": 6.422943, "lon": 125.3668088, "tags": {"admin_level": "11", "designation": "sitio", "is_in:town": "Malungon", "is_in:village": "San Miguel", "name": "Bantalan", "place": "hamlet"}}, {"type": "node", "id": 8473586667, "lat": 6.429729, "lon": 125.3892749, "tags": {"place": "hamlet"}}, {"type": "node", "id": 8473586668, "lat": 6.4377489, "lon": 125.3896397, "tags": {"alt_name": "Sitio Migsulang", "ele": "380", "is_in:barangay": "Datu Intan", "is_in:municipality": "Santa Maria", "name": "Migsulang", "place": "hamlet", "postal_code": "8011"}}, {"type": "node", "id": 8473605574, "lat": 6.4189449, "lon": 125.3890175, "tags": {"place": "hamlet"}}, {"type": "node", "id": 8477108063, "lat": 6.3117075, "lon": 125.3777522, "tags": {"place": "hamlet"}}, {"type": "node", "id": 8477108064, "lat": 6.3413547, "lon": 125.3876576, "tags": {"place": "hamlet"}}, {"type": "node", "id": 8477108065, "lat": 6.3290812, "lon": 125.3972465, "tags": {"place": "hamlet"}}, {"type": "node", "id": 8477108066, "lat": 6.3264633, "lon": 125.4053494, "tags": {"place": "hamlet"}}, {"type": "node", "id": 8477133602, "lat": 6.3192441, "lon": 125.4458266, "tags": {"place": "hamlet"}}, {"type": "node", "id": 8477133621, "lat": 6.3256316, "lon": 125.4289663, "tags": {"place": "hamlet"}}, {"type": "node", "id": 8477133623, "lat": 6.3314112, "lon": 125.4159737, "tags": {"place": "hamlet"}}, {"type": "node", "id": 8477133624, "lat": 6.3354526, "lon": 125.4074013, "tags": {"place": "hamlet"}}, {"type": "node", "id": 8477133625, "lat": 6.3417599, "lon": 125.4092681, "tags": {"place": "hamlet"}}, {"type": "node", "id": 8477133906, "lat": 6.3408642, "lon": 125.4362029, "tags": {"place": "hamlet"}}, {"type": "node", "id": 8477133907, "lat": 6.3461958, "lon": 125.4303342, "tags": {"place": "hamlet"}}, {"type": "node", "id": 8477133908, "lat": 6.3713387, "lon": 125.4213595, "tags": {"place": "hamlet"}}, {"type": "node", "id": 8477134057, "lat": 6.3404643, "lon": 125.4259086, "tags": {"place": "hamlet"}}, {"type": "node", "id": 8477134058, "lat": 6.3437379, "lon": 125.4171216, "tags": {"place": "hamlet"}}, {"type": "node", "id": 8477134059, "lat": 6.3533667, "lon": 125.4409933, "tags": {"place": "hamlet"}}, {"type": "node", "id": 8477134062, "lat": 6.3713441, "lon": 125.4351783, "tags": {"place": "hamlet"}}, {"type": "node", "id": 8477143145, "lat": 6.3879774, "lon": 125.4350549, "tags": {"place": "hamlet"}}, {"type": "node", "id": 8477269161, "lat": 6.458194, "lon": 125.4451185, "tags": {"place": "hamlet"}}, {"type": "node", "id": 8477270434, "lat": 6.4425171, "lon": 125.4253668, "tags": {"place": "hamlet"}}, {"type": "node", "id": 8477270435, "lat": 6.4376183, "lon": 125.4382092, "tags": {"place": "hamlet"}}, {"type": "node", "id": 8477270436, "lat": 6.4521813, "lon": 125.4037186, "tags": {"place": "hamlet"}}, {"type": "node", "id": 8477270437, "lat": 6.4380634, "lon": 125.401192, "tags": {"place": "hamlet"}}, {"type": "node", "id": 8477270438, "lat": 6.422815, "lon": 125.3930944, "tags": {"place": "hamlet"}}, {"type": "node", "id": 8477270439, "lat": 6.4386738, "lon": 125.4222232, "tags": {"place": "hamlet"}}, {"type": "node", "id": 8477270441, "lat": 6.4745047, "lon": 125.392102, "tags": {"place": "hamlet"}}, {"type": "node", "id": 8477270442, "lat": 6.463535, "lon": 125.4088873, "tags": {"place": "hamlet"}}, {"type": "node", "id": 8477270443, "lat": 6.4577782, "lon": 125.4277486, "tags": {"place": "hamlet"}}, {"type": "node", "id": 8477270444, "lat": 6.4485672, "lon": 125.4104912, "tags": {"place": "hamlet"}}, {"type": "node", "id": 8477270445, "lat": 6.4396866, "lon": 125.4077661, "tags": {"place": "hamlet"}}, {"type": "node", "id": 8478858501, "lat": 6.4754428, "lon": 125.4424792, "tags": {"fixme": "name", "place": "neighbourhood"}}, {"type": "node", "id": 8501596368, "lat": 6.3259515, "lon": 125.2517205, "tags": {"place": "hamlet"}}, {"type": "node", "id": 8616889734, "lat": 6.2597829, "lon": 125.2274841, "tags": {"admin_level": "10", "admin_type:PH": "barangay", "ele": "140", "is_in:city": "General Santos", "name": "Upper Labay", "official_name": "Barangay Upper Labay", "place": "village", "population": "3759", "population:date": "2020-05-01", "postal_code": "9500"}}, {"type": "node", "id": 8692038381, "lat": 6.174857, "lon": 125.0989446, "tags": {"admin_level": "11", "admin_type:PH": "purok", "is_in:municipality": "Polomolok", "name": "Purok 2", "place": "neighbourhood"}}, {"type": "node", "id": 8692045259, "lat": 6.1765223, "lon": 125.1478681, "tags": {"name": "Golingan I", "place": "neighbourhood"}}, {"type": "node", "id": 8692060218, "lat": 6.1764823, "lon": 125.1555513, "tags": {"admin_level": "11", "admin_type:PH": "purok", "is_in:barangay": "Mabuhay", "is_in:city": "General Santos", "name": "Purok 4", "place": "neighbourhood"}}, {"type": "node", "id": 8789947423, "lat": 6.3232989, "lon": 125.4333222, "tags": {"place": "hamlet"}}, {"type": "node", "id": 8789947424, "lat": 6.3218994, "lon": 125.4092735, "tags": {"place": "hamlet"}}, {"type": "node", "id": 8789947425, "lat": 6.3190575, "lon": 125.3973001, "tags": {"place": "hamlet"}}, {"type": "node", "id": 8789947426, "lat": 6.3004917, "lon": 125.3839835, "tags": {"admin_level": "11", "designation": "sitio", "is_in:town": "Malungon", "is_in:village": "Tamban", "name": "Danao", "place": "hamlet"}}, {"type": "node", "id": 8789947427, "lat": 6.313531, "lon": 125.4133666, "tags": {"place": "hamlet"}}, {"type": "node", "id": 8789947428, "lat": 6.2198387, "lon": 125.4163398, "tags": {"place": "hamlet"}}, {"type": "node", "id": 8789947429, "lat": 6.2576472, "lon": 125.3921664, "tags": {"place": "hamlet"}}, {"type": "node", "id": 8789947430, "lat": 6.2814828, "lon": 125.405269, "tags": {"place": "hamlet"}}, {"type": "node", "id": 8789947434, "lat": 6.2432734, "lon": 125.4417658, "tags": {"place": "hamlet"}}, {"type": "node", "id": 8789947441, "lat": 6.1873474, "lon": 125.3713015, "tags": {"fixme": "name", "place": "hamlet"}}, {"type": "node", "id": 8789947442, "lat": 6.1968617, "lon": 125.3603353, "tags": {"fixme": "name", "place": "hamlet"}}, {"type": "node", "id": 8789947443, "lat": 6.2050319, "lon": 125.3745899, "tags": {"admin_level": "11", "is_in:town": "Alabel", "is_in:village": "Datal Anggas", "name": "Ihan", "place": "hamlet", "postal_code": "9501"}}, {"type": "node", "id": 8789947444, "lat": 6.2003095, "lon": 125.3905141, "tags": {"place": "hamlet"}}, {"type": "node", "id": 8789947445, "lat": 6.1920166, "lon": 125.416435, "tags": {"admin_level": "11", "designation": "sitio", "ele": "390", "is_in:town": "Alabel", "is_in:village": "Datal Anggas", "name": "Glamang", "place": "hamlet"}}, {"type": "node", "id": 8789947446, "lat": 6.2053279, "lon": 125.4225665, "tags": {"place": "hamlet"}}, {"type": "node", "id": 8790889001, "lat": 6.5320796, "lon": 125.4244119, "tags": {"admin_level": "10", "admin_type:PH": "barangay", "is_in:municipality": "Santa Maria", "name": "Malalag Tubig", "official_name": "Barangay Malalag Tubig", "place": "village", "postal_code": "8011"}}, {"type": "node", "id": 8790901339, "lat": 6.4991789, "lon": 125.4384748, "tags": {"admin_level": "10", "admin_type:PH": "barangay", "is_in:municipality": "Santa Maria", "name": "Kidadan", "official_name": "Barangay Kidadan", "place": "village", "postal_code": "8011"}}, {"type": "node", "id": 8796066476, "lat": 6.5137068, "lon": 125.4172343, "tags": {"admin_level": "10", "admin_type:PH": "barangay", "is_in:municipality": "Malalag", "name": "Pitu", "official_name": "Barangay Pitu", "place": "village", "postal_code": "8010"}}, {"type": "node", "id": 8809124655, "lat": 6.5408107, "lon": 125.3931615, "tags": {"admin_level": "10", "admin_type:PH": "barangay", "is_in:municipality": "Malalag", "name": "Ibo", "official_name": "Barangay Ibo", "place": "village", "postal_code": "8010"}}, {"type": "node", "id": 8809128118, "lat": 6.4092827, "lon": 125.3590465, "tags": {"place": "hamlet"}}, {"type": "node", "id": 8809128119, "lat": 6.4110739, "lon": 125.3843263, "tags": {"alt_name": "Sitio Columbio", "is_in:barangay": "San Roque", "is_in:municipality": "Malungon", "name": "Columbio", "place": "hamlet", "postal_code": "9503"}}, {"type": "node", "id": 8809163222, "lat": 6.6024785, "lon": 125.3990972, "tags": {"admin_level": "10", "admin_type:PH": "barangay", "is_in:municipality": "Malalag", "name": "Bagumbayan", "official_name": "Barangay Bagumbayan", "old_ref": "112408019", "place": "village", "population": "2783", "population:date": "2020-05-01", "postal_code": "8010"}}, {"type": "node", "id": 8809163223, "lat": 6.598394, "lon": 125.4042055, "tags": {"admin_level": "10", "admin_type:PH": "barangay", "is_in:municipality": "Malalag", "name": "Baybay", "official_name": "Barangay Baybay", "place": "village", "postal_code": "8010"}}, {"type": "node", "id": 8810212977, "lat": 6.5797693, "lon": 125.4342551, "tags": {"alt_name": "Sitio Bulo", "ele": "10", "is_in:barangay": "Bulacan", "is_in:municipality": "Malalag", "name": "Bulo", "place": "hamlet", "postal_code": "8010"}}, {"type": "node", "id": 8810234325, "lat": 6.5079093, "lon": 125.3750083, "tags": {"admin_level": "11", "alt_name": "Purok 9", "designation": "sitio", "is_in:town": "Malungon", "is_in:village": "Malungon Gamay", "name": "Kibawalan", "place": "hamlet", "postal_code": "9503"}}, {"type": "node", "id": 8810252170, "lat": 6.503708, "lon": 125.3267205, "tags": {"admin_level": "10", "admin_type:PH": "barangay", "is_in:municipality": "Malalag", "name": "Mabini", "official_name": "Barangay Mabini", "place": "village", "postal_code": "8010"}}, {"type": "node", "id": 8810283957, "lat": 6.5249192, "lon": 125.299142, "tags": {"admin_level": "10", "admin_type:PH": "barangay", "is_in:municipality": "Sulop", "name": "Lapla", "official_name": "Barangay Lapla", "place": "village", "postal_code": "8009"}}, {"type": "node", "id": 8810288766, "lat": 6.5199799, "lon": 125.3171933, "tags": {"admin_level": "10", "admin_type:PH": "barangay", "is_in:municipality": "Malalag", "name": "Lapu-Lapu", "official_name": "Barangay Lapu-Lapu", "old_name": "Lapla", "place": "village", "postal_code": "8010"}}, {"type": "node", "id": 8810302067, "lat": 6.6059289, "lon": 125.3868878, "tags": {"admin_level": "10", "admin_type:PH": "barangay", "is_in:municipality": "Sulop", "name": "Balasinon", "official_name": "Barangay Balasinon", "place": "village", "postal_code": "8009"}}, {"type": "node", "id": 8810341825, "lat": 6.5825869, "lon": 125.3692657, "tags": {"admin_level": "10", "admin_type:PH": "barangay", "is_in:municipality": "Malalag", "name": "New Baclayon", "official_name": "Barangay New Baclayon", "place": "village", "postal_code": "8010"}}, {"type": "node", "id": 8810349495, "lat": 6.521792, "lon": 125.2836227, "tags": {"admin_level": "10", "admin_type:PH": "barangay", "is_in:municipality": "Sulop", "name": "Osme\u00f1a", "official_name": "Barangay Osme\u00f1a", "place": "village", "postal_code": "8009"}}, {"type": "node", "id": 8810401357, "lat": 6.4600516, "lon": 125.3056276, "tags": {"admin_level": "10", "admin_type:PH": "barangay", "is_in:municipality": "Malalag", "name": "San Isidro", "official_name": "Barangay San Isidro", "place": "village", "postal_code": "8010"}}, {"type": "node", "id": 8810404619, "lat": 6.492122, "lon": 125.2871445, "tags": {"admin_level": "10", "admin_type:PH": "barangay", "is_in:municipality": "Malalag", "name": "Rizal", "official_name": "Barangay Rizal", "old_name": "Parame", "place": "village", "postal_code": "8010"}}, {"type": "node", "id": 8811137163, "lat": 6.5735514, "lon": 125.3482372, "tags": {"admin_level": "10", "admin_type:PH": "barangay", "is_in:municipality": "Malalag", "name": "Kiblagon", "official_name": "Barangay Kiblagon", "place": "village", "postal_code": "8010"}}, {"type": "node", "id": 8811488765, "lat": 6.4579621, "lon": 125.3121346, "tags": {"admin_level": "11", "designation": "sitio", "is_in:town": "Malungon", "is_in:village": "Banate", "name": "Tagaytay", "place": "hamlet", "postal_code": "9503"}}, {"type": "node", "id": 8816688618, "lat": 6.3893835, "lon": 125.2782302, "tags": {"admin_level": "11", "designation": "sitio", "is_in:town": "Malungon", "is_in:village": "Poblacion", "name": "Balacayo", "place": "hamlet", "postal_code": "9503"}}, {"type": "node", "id": 8821095793, "lat": 6.5733569, "lon": 125.30754, "tags": {"admin_level": "10", "admin_type:PH": "barangay", "is_in:municipality": "Sulop", "name": "Luparan", "official_name": "Barangay Luparan", "place": "village", "postal_code": "8009"}}, {"type": "node", "id": 8821153990, "lat": 6.5730998, "lon": 125.2871089, "tags": {"admin_level": "10", "admin_type:PH": "barangay", "is_in:municipality": "Sulop", "name": "Tagolilong", "official_name": "Barangay Tagolilong", "place": "village", "postal_code": "8009"}}, {"type": "node", "id": 8821161224, "lat": 6.5703459, "lon": 125.2723535, "tags": {"admin_level": "10", "admin_type:PH": "barangay", "ele": "150", "is_in:municipality": "Sulop", "name": "Buguis", "official_name": "Barangay Buguis", "place": "village", "postal_code": "8009"}}, {"type": "node", "id": 8821527438, "lat": 6.1889634, "lon": 125.2887109, "tags": {"admin_level": "11", "designation": "sitio", "is_in:town": "Alabel", "is_in:village": "Domolok", "name": "Latian", "place": "hamlet", "postal_code": "9501"}}, {"type": "node", "id": 8821677632, "lat": 6.2276193, "lon": 125.2839527, "tags": {"admin_level": "11", "designation": "sitio", "is_in:town": "Alabel", "is_in:village": "Domolok", "name": "Datal Conde", "place": "hamlet", "postal_code": "9501"}}, {"type": "node", "id": 8821720926, "lat": 6.2519295, "lon": 125.2769682, "tags": {"admin_level": "11", "designation": "sitio", "is_in:town": "Alabel", "is_in:village": "Domolok", "name": "Dacera", "place": "hamlet", "postal_code": "9501"}}, {"type": "node", "id": 8821836328, "lat": 6.289617, "lon": 125.3042248, "tags": {"admin_level": "11", "designation": "sitio", "is_in:town": "Malungon", "is_in:village": "Tamban", "name": "Malinis", "place": "hamlet", "postal_code": "9503"}}, {"type": "node", "id": 8825648843, "lat": 6.472043, "lon": 125.3639819, "tags": {"admin_level": "11", "admin_type:PH": "sitio", "designation": "sitio", "is_in:city": "Malungon", "is_in:quarter": "Kinabalan", "name": "Baliton", "place": "hamlet", "postal_code": "9503", "source:name": "extrapolated from OSMaPaaralan, way/997809093"}}, {"type": "node", "id": 8837346176, "lat": 6.6069348, "lon": 125.2884239, "tags": {"admin_level": "10", "admin_type:PH": "barangay", "is_in:municipality": "Sulop", "name": "New Cebu", "official_name": "Barangay New Cebu", "place": "village", "postal_code": "8009"}}, {"type": "node", "id": 8837348961, "lat": 6.5850644, "lon": 125.2900807, "tags": {"admin_level": "10", "admin_type:PH": "barangay", "is_in:municipality": "Sulop", "name": "Carre", "official_name": "Barangay Carre", "place": "village", "postal_code": "8009"}}, {"type": "node", "id": 8837360834, "lat": 6.5215415, "lon": 125.2532575, "tags": {"admin_level": "10", "admin_type:PH": "barangay", "is_in:municipality": "Sulop", "name": "Litos", "official_name": "Barangay Litos", "place": "village", "postal_code": "8009"}}, {"type": "node", "id": 8837364425, "lat": 6.5941934, "lon": 125.2716064, "tags": {"admin_level": "10", "admin_type:PH": "barangay", "is_in:municipality": "Sulop", "name": "Roxas", "official_name": "Barangay Roxas", "place": "village", "postal_code": "8009"}}, {"type": "node", "id": 8837384426, "lat": 6.5391659, "lon": 125.2687613, "tags": {"admin_level": "10", "admin_type:PH": "barangay", "is_in:municipality": "Sulop", "name": "Clib", "official_name": "Barangay Clib", "place": "village", "postal_code": "8009"}}, {"type": "node", "id": 8837422307, "lat": 6.4966512, "lon": 125.2825016, "tags": {"admin_level": "10", "admin_type:PH": "barangay", "alt_name": "Parami", "is_in:municipality": "Sulop", "name": "Parame", "official_name": "Barangay Parame", "place": "village", "postal_code": "8009"}}, {"type": "node", "id": 9013169840, "lat": 6.3138154, "lon": 125.2951882, "tags": {"admin_level": "10", "admin_type:PH": "barangay", "is_in:municipality": "Malungon", "name": "Tamban", "official_name": "Barangay Tamban", "place": "village", "postal_code": "9503"}}, {"type": "node", "id": 9013194281, "lat": 6.4039767, "lon": 125.2284893, "tags": {"alt_name": "Sitio Kalonbarak", "ele": "700", "is_in:barangay": "Poblacion", "is_in:municipality": "Malungon", "name": "Kalonbarak", "place": "hamlet", "postal_code": "9503"}}, {"type": "node", "id": 9042270671, "lat": 6.4831002, "lon": 125.388471, "tags": {"admin_level": "11", "admin_type:PH": "purok", "alt_name": "Sitio Sabangan", "ele": "440", "is_in:barangay": "J. P. Laurel", "is_in:municipality": "Malungon", "name": "Sabangan", "official_name": "Purok Sabangan", "place": "hamlet", "postal_code": "9503"}}, {"type": "node", "id": 9044578900, "lat": 6.512726, "lon": 125.0472901, "tags": {"admin_level": "11", "alt_name": "Sitio Salnaong;Sal-naong;Sal Naong", "designation": "sitio", "ele": "880", "is_in:town": "Columbio", "is_in:village": "Datal Blao", "name": "Salnaong", "place": "hamlet", "postal_code": "9801"}}, {"type": "node", "id": 9044670427, "lat": 6.6087738, "lon": 125.2234056, "tags": {"admin_level": "11", "admin_type:PH": "purok", "is_in:municipality": "Kiblawan", "name": "Purok 4", "place": "neighbourhood", "postal_code": "8008"}}, {"type": "node", "id": 9046819827, "lat": 6.2589617, "lon": 125.2266157, "tags": {"admin_level": "11", "admin_type:PH": "purok", "is_in:barangay": "Upper Labay", "is_in:city": "General Santos", "name": "Purok 2", "place": "neighbourhood"}}, {"type": "node", "id": 9046826679, "lat": 6.2614439, "lon": 125.2232797, "tags": {"admin_level": "11", "admin_type:PH": "purok", "is_in:barangay": "Upper Labay", "is_in:city": "General Santos", "name": "Purok 1", "place": "neighbourhood"}}, {"type": "node", "id": 9047030759, "lat": 6.2821173, "lon": 125.2059326, "tags": {"admin_level": "11", "admin_type:PH": "sitio", "is_in:city": "General Santos", "is_in:quarter": "Upper Labay", "name": "Daan Banwang", "place": "hamlet", "source:name": "extrapolated from OSMaPaaralan, way/977753259"}}, {"type": "node", "id": 9048256240, "lat": 6.1572248, "lon": 125.0945109}, {"type": "node", "id": 9048256243, "lat": 6.1568115, "lon": 125.0944465}, {"type": "node", "id": 9048256448, "lat": 6.1565521, "lon": 125.0968887}, {"type": "node", "id": 9048989705, "lat": 6.1564568, "lon": 125.0754914}, {"type": "node", "id": 9048989738, "lat": 6.1562461, "lon": 125.0756067}, {"type": "node", "id": 9048989742, "lat": 6.1555048, "lon": 125.0747551}, {"type": "node", "id": 9048989748, "lat": 6.1551074, "lon": 125.0737479}, {"type": "node", "id": 9048989750, "lat": 6.1549261, "lon": 125.0737627}, {"type": "node", "id": 9048989776, "lat": 6.153078, "lon": 125.0700867}, {"type": "node", "id": 9048989787, "lat": 6.152974, "lon": 125.0685324}, {"type": "node", "id": 9048989791, "lat": 6.152682, "lon": 125.0683808}, {"type": "node", "id": 9048989798, "lat": 6.1526967, "lon": 125.0674622}, {"type": "node", "id": 9048989802, "lat": 6.1529647, "lon": 125.0669633}, {"type": "node", "id": 9048989805, "lat": 6.1526607, "lon": 125.0663812}, {"type": "node", "id": 9048989844, "lat": 6.1528247, "lon": 125.0652426}, {"type": "node", "id": 9048989847, "lat": 6.1525207, "lon": 125.0646579}, {"type": "node", "id": 9048989854, "lat": 6.1527313, "lon": 125.0634482}, {"type": "node", "id": 9052075425, "lat": 6.2008274, "lon": 125.1890465, "tags": {"admin_level": "11", "admin_type:PH": "purok", "is_in:barangay": "Conel", "is_in:city": "General Santos", "name": "Purok 2", "place": "neighbourhood"}}, {"type": "node", "id": 9052121343, "lat": 6.2330238, "lon": 125.2323545, "tags": {"admin_level": "11", "admin_type:PH": "purok", "is_in:barangay": "Tinagacan", "is_in:city": "General Santos", "name": "Purok 6", "place": "neighbourhood"}}, {"type": "node", "id": 9052122144, "lat": 6.1770801, "lon": 125.1214283, "tags": {"admin_level": "10", "admin_type:PH": "barangay", "is_in:town": "Polomolok", "name": "Silway 7", "place": "village", "source:name": "extrapolated from OSMaPaaralan, way/978276153"}}, {"type": "node", "id": 9052124916, "lat": 6.2211137, "lon": 125.1941203, "tags": {"admin_level": "11", "admin_type:PH": "purok", "is_in:barangay": "Olympog", "is_in:city": "General Santos", "name": "Purok 1", "place": "neighbourhood"}}, {"type": "node", "id": 9052138521, "lat": 6.2265545, "lon": 125.1220405, "tags": {"admin_level": "11", "admin_type:PH": "purok", "alt_name": "Purok 12", "is_in:barangay": "Upper Klinan", "is_in:municipality": "Polomolok", "name": "Makugihon", "place": "neighbourhood"}}, {"type": "node", "id": 9052138526, "lat": 6.2256731, "lon": 125.120666, "tags": {"admin_level": "10", "admin_type:PH": "barangay", "is_in:town": "Polomolok", "name": "Upper Klinan", "place": "village", "source:name": "extrapolated from OSMaPaaralan, way/771548241"}}, {"type": "node", "id": 9052196868, "lat": 6.4602151, "lon": 125.4396209, "tags": {"place": "hamlet"}}, {"type": "node", "id": 9052196883, "lat": 6.4791283, "lon": 125.4465353, "tags": {"fixme": "name", "place": "neighbourhood"}}, {"type": "node", "id": 9052567345, "lat": 6.1831626, "lon": 125.1423065, "tags": {"admin_level": "11", "admin_type:PH": "purok", "is_in:barangay": "Mabuhay", "is_in:city": "General Santos", "name": "Klinan 5", "place": "neighbourhood"}}, {"type": "node", "id": 9052567358, "lat": 6.1800628, "lon": 125.1423918, "tags": {"admin_level": "11", "admin_type:PH": "purok", "is_in:barangay": "Mabuhay", "is_in:city": "General Santos", "name": "Purok 3", "place": "neighbourhood"}}, {"type": "node", "id": 9054781690, "lat": 6.5851779, "lon": 125.2901794, "tags": {"admin_level": "11", "admin_type:PH": "purok", "is_in:barangay": "Carre", "is_in:municipality": "Sulop", "name": "Purok 1", "place": "neighbourhood", "postal_code": "8009"}}, {"type": "node", "id": 9054800277, "lat": 6.530464, "lon": 125.1862781, "tags": {"is_in:municipality": "Kiblawan", "place": "neighbourhood", "postal_code": "8008"}}, {"type": "node", "id": 9054826455, "lat": 6.5402118, "lon": 125.195724, "tags": {"alt_name": "Sitio Overland", "ele": "620", "is_in:barangay": "Kimlawis", "is_in:municipality": "Kiblawan", "name": "Overland", "place": "hamlet", "postal_code": "8008"}}, {"type": "node", "id": 9055139234, "lat": 6.6076487, "lon": 125.186452, "tags": {"admin_level": "11", "admin_type:PH": "purok", "is_in:barangay": "Bagong Silang", "is_in:municipality": "Kiblawan", "name": "Purok 2", "place": "neighbourhood", "postal_code": "8008"}}, {"type": "node", "id": 9055327220, "lat": 6.2069725, "lon": 125.1774707, "tags": {"admin_level": "11", "admin_type:PH": "purok", "is_in:barangay": "Conel", "is_in:city": "General Santos", "name": "New Guadalupe", "official_name": "Purok New Guadalupe", "place": "hamlet"}}, {"type": "node", "id": 9057568957, "lat": 6.1950889, "lon": 125.0909918, "tags": {"admin_level": "10", "admin_type:PH": "barangay", "is_in:town": "Polomolok", "name": "Silway 8", "place": "village", "source:name": "extrapolated from OSMaPaaralan, relation/13159915"}}, {"type": "node", "id": 9057571905, "lat": 6.1969833, "lon": 125.0824149, "tags": {"admin_level": "11", "admin_type:PH": "purok", "is_in:barangay": "Silway 8", "is_in:municipality": "Polomolok", "name": "Masigla", "place": "neighbourhood"}}, {"type": "node", "id": 9057639025, "lat": 6.3108528, "lon": 125.1442122, "tags": {"admin_level": "11", "admin_type:PH": "purok", "is_in:barangay": "Landan", "is_in:municipality": "Polomolok", "name": "Purok 1-A", "place": "neighbourhood"}}, {"type": "node", "id": 9057639514, "lat": 6.3207589, "lon": 125.1678251, "tags": {"ele": "745", "is_in:barangay": "Landan", "is_in:municipality": "Polomolok", "name": "Jacinta B. Guaza", "official_name": "Jacinta B. Guaza Village", "place": "hamlet", "postal_code": "9504"}}, {"type": "node", "id": 9057691580, "lat": 6.3054865, "lon": 125.1345764, "tags": {"admin_level": "11", "admin_type:PH": "purok", "is_in:barangay": "Maligo", "is_in:municipality": "Polomolok", "name": "Center", "place": "neighbourhood"}}, {"type": "node", "id": 9057694769, "lat": 6.3365999, "lon": 125.1123564, "tags": {"admin_level": "11", "admin_type:PH": "sitio", "is_in:quarter": "Maligo", "is_in:town": "Polomolok", "name": "Kawit", "place": "hamlet", "source:name": "extrapolated from OSMaPaaralan, way/0"}}, {"type": "node", "id": 9057712197, "lat": 6.3372257, "lon": 125.1614033, "tags": {"admin_level": "11", "admin_type:PH": "purok", "alt_name": "Purok 8;Purok Bukay-eel;Sitio Bukay-eel", "ele": "680", "is_in:barangay": "Landan", "is_in:municipality": "Polomolok", "name": "Bukay-eel", "official_name": "Purok 8 Bukay-eel", "place": "hamlet", "postal_code": "9504"}}, {"type": "node", "id": 9057722043, "lat": 6.3417245, "lon": 125.1393137, "tags": {"admin_level": "10", "admin_type:PH": "barangay", "ele": "840", "is_in:municipality": "Polomolok", "name": "Kalyong", "official_name": "Barangay Kalyong", "place": "village", "postal_code": "9504"}}, {"type": "node", "id": 9057839369, "lat": 6.2943727, "lon": 125.0738707, "tags": {"admin_level": "11", "admin_type:PH": "purok", "is_in:barangay": "Kinilis", "is_in:municipality": "Polomolok", "name": "Purok 1", "place": "neighbourhood"}}, {"type": "node", "id": 9057839370, "lat": 6.2955701, "lon": 125.0729374, "tags": {"admin_level": "10", "admin_type:PH": "barangay", "alt_name": "Kiniles", "is_in:town": "Polomolok", "name": "Kinilis", "place": "village", "source:name": "extrapolated from OSMaPaaralan, way/978926535"}}, {"type": "node", "id": 9057958401, "lat": 6.3099063, "lon": 125.0561684, "tags": {"admin_level": "11", "admin_type:PH": "sitio", "is_in:quarter": "Palkan", "is_in:town": "Polomolok", "name": "Palakasam", "place": "hamlet", "source:name": "extrapolated from OSMaPaaralan, way/978940150"}}, {"type": "node", "id": 9057958512, "lat": 6.2825874, "lon": 125.0483365, "tags": {"admin_level": "11", "admin_type:PH": "purok", "is_in:barangay": "Lamcaliaf", "is_in:municipality": "Polomolok", "name": "Purok 3", "place": "neighbourhood", "postal_code": "9504"}}, {"type": "node", "id": 9057958513, "lat": 6.282428, "lon": 125.047816, "tags": {"admin_level": "10", "admin_type:PH": "barangay", "alt_name": "Lam-caliaf", "is_in:town": "Polomolok", "name": "Lam Caliaf", "place": "village", "source:name": "extrapolated from OSMaPaaralan, way/978941488"}}, {"type": "node", "id": 9058104714, "lat": 6.3173383, "lon": 125.0149364, "tags": {"admin_level": "11", "admin_type:PH": "purok", "is_in:barangay": "Kablon", "is_in:municipality": "Tupi", "name": "Pagkakaisa", "official_name": "Purok Pagkakaisa", "place": "neighbourhood", "postal_code": "9505"}}, {"type": "node", "id": 9058107348, "lat": 6.2938037, "lon": 125.0337434, "tags": {"admin_level": "10", "admin_type:PH": "barangay", "is_in:municipality": "Polomolok", "name": "Palkan", "place": "village", "postal_code": "9504"}}, {"type": "node", "id": 9058107378, "lat": 6.2920334, "lon": 125.0311005, "tags": {"admin_level": "11", "admin_type:PH": "purok", "is_in:barangay": "Palkan", "is_in:municipality": "Polomolok", "name": "Purok 1", "place": "neighbourhood"}}, {"type": "node", "id": 9058124058, "lat": 6.2704726, "lon": 125.013745, "tags": {"admin_level": "11", "admin_type:PH": "purok", "is_in:barangay": "Crossing Palkan", "is_in:municipality": "Polomolok", "name": "Purok 3", "place": "neighbourhood"}}, {"type": "node", "id": 9058143386, "lat": 6.2716958, "lon": 125.1327406, "tags": {"admin_level": "11", "admin_type:PH": "sitio", "is_in:quarter": "Maligo", "is_in:town": "Polomolok", "name": "Cassava", "place": "hamlet", "source:name": "extrapolated from OSMaPaaralan, way/0"}}, {"type": "node", "id": 9063287050, "lat": 6.2057316, "lon": 125.0467425, "tags": {"admin_level": "10", "admin_type:PH": "barangay", "is_in:town": "Polomolok", "name": "Rubber", "place": "village", "source:name": "extrapolated from OSMaPaaralan, way/979722551"}}, {"type": "node", "id": 9063287051, "lat": 6.1986938, "lon": 125.0442915, "tags": {"admin_level": "11", "admin_type:PH": "purok", "is_in:barangay": "Rubber", "is_in:municipality": "Polomolok", "name": "Purok 2", "place": "neighbourhood"}}, {"type": "node", "id": 9063322115, "lat": 6.1854322, "lon": 125.020024, "tags": {"admin_level": "11", "admin_type:PH": "sitio", "is_in:quarter": "Basag", "is_in:town": "T'boli", "name": "Upper Bianan", "place": "hamlet", "source:name": "extrapolated from OSMaPaaralan, way/979722205"}}, {"type": "node", "id": 9063334656, "lat": 6.2163852, "lon": 125.0401536, "tags": {"admin_level": "10", "admin_type:PH": "barangay", "is_in:town": "Polomolok", "name": "Lumakil", "place": "village", "source:name": "extrapolated from OSMaPaaralan, way/979723528"}}, {"type": "node", "id": 9063334669, "lat": 6.2146473, "lon": 125.0364101, "tags": {"admin_level": "11", "admin_type:PH": "purok", "is_in:barangay": "Lumakil", "is_in:municipality": "Polomolok", "name": "Masagana", "place": "neighbourhood"}}, {"type": "node", "id": 9063339472, "lat": 6.2361343, "lon": 125.0237959, "tags": {"admin_level": "10", "admin_type:PH": "barangay", "is_in:town": "Polomolok", "name": "Sulit", "place": "village", "source:name": "extrapolated from OSMaPaaralan"}}, {"type": "node", "id": 9070516767, "lat": 6.2349588, "lon": 125.0087931, "tags": {"name": "Bentung", "place": "village"}}, {"type": "node", "id": 9070516768, "lat": 6.2304125, "lon": 125.0149576, "tags": {"name": "Lapu", "place": "village"}}, {"type": "node", "id": 9070516770, "lat": 6.1983014, "lon": 125.0590624, "tags": {"name": "Magsaysay", "place": "village"}}, {"type": "node", "id": 9070516788, "lat": 6.1873003, "lon": 125.1358042, "tags": {"name": "Klinan 6", "place": "village"}}, {"type": "node", "id": 9070516789, "lat": 6.2439111, "lon": 125.0918052, "tags": {"admin_level": "10", "designation": "barangay", "is_in:town": "Polomolok", "name": "Cannery Site", "place": "village", "population": "24543", "population:date": "2020-05-01", "postal_code": "9504", "ref": "126312024"}}, {"type": "node", "id": 9070516801, "lat": 6.3142821, "lon": 125.0480631, "tags": {"name": "Salol", "place": "hamlet"}}, {"type": "node", "id": 9072531345, "lat": 6.4150001, "lon": 125.0922981, "tags": {"admin_level": "11", "admin_type:PH": "purok", "is_in:barangay": "Miasong", "is_in:municipality": "Tupi", "name": "Purok 4", "place": "neighbourhood"}}, {"type": "node", "id": 9072531401, "lat": 6.4120068, "lon": 125.0932878, "tags": {"admin_level": "11", "admin_type:PH": "purok", "is_in:barangay": "Miasong", "is_in:municipality": "Tupi", "name": "Purok 3", "place": "neighbourhood"}}, {"type": "node", "id": 9072664287, "lat": 6.5598926, "lon": 125.0130281, "tags": {"fixme": "name", "place": "neighbourhood"}}, {"type": "node", "id": 9072664296, "lat": 6.5564312, "lon": 125.0099194, "tags": {"fixme": "name", "place": "neighbourhood"}}, {"type": "node", "id": 9072664315, "lat": 6.553993, "lon": 125.0181149, "tags": {"admin_level": "11", "admin_type:PH": "purok", "alt_name": "Sitio Lamalis;Lam-alis;Sitio Lam-alis", "ele": "540", "is_in:barangay": "Datal Blao", "is_in:municipality": "Columbio", "name": "Lamalis", "official_name": "Purok Lamalis", "place": "hamlet", "postal_code": "9801"}}, {"type": "node", "id": 9072711372, "lat": 6.5858276, "lon": 125.0037986, "tags": {"fixme": "name", "place": "neighbourhood"}}, {"type": "node", "id": 9072711395, "lat": 6.5803341, "lon": 124.9986903, "tags": {"admin_level": "10", "alt_name": "Datalblao", "designation": "barangay", "ele": "270", "is_in:town": "Columbio", "name": "Datal Blao", "official_name": "Datablao", "place": "village", "population": "3731", "population:date": "2020-05-01", "postal_code": "9801", "ref": "126502009"}}, {"type": "node", "id": 9072719227, "lat": 6.5792829, "lon": 124.9981284, "tags": {"admin_level": "11", "admin_type:PH": "sitio", "is_in:barangay": "Datalblao", "is_in:municipality": "Columbio", "name": "Bliss", "place": "neighbourhood"}}, {"type": "node", "id": 9072755018, "lat": 6.5518986, "lon": 125.0333512, "tags": {"fixme": "name", "place": "hamlet"}}, {"type": "node", "id": 9079559342, "lat": 6.1982065, "lon": 125.0335852, "tags": {"admin_level": "11", "admin_type:PH": "sitio", "is_in:town": "T'boli", "name": "Lower Bianan", "place": "hamlet"}}, {"type": "node", "id": 9156712248, "lat": 6.5545859, "lon": 125.1116422, "tags": {"place": "hamlet"}}, {"type": "node", "id": 9158133390, "lat": 6.5285474, "lon": 125.0306502, "tags": {"admin_level": "11", "alt_name": "Sitio Limonzo", "designation": "sitio", "ele": "580", "is_in:town": "Columbio", "is_in:village": "Datal Blao", "name": "Limonzo", "place": "hamlet", "postal_code": "9801"}}, {"type": "node", "id": 9158233238, "lat": 6.4899034, "lon": 125.0538647, "tags": {"admin_level": "11", "alt_name": "Sitio Campo Singko;Camp 5;Sitio Camp 5", "designation": "sitio", "ele": "1280", "is_in:town": "Tampakan", "is_in:village": "Danlag", "name": "Campo Singko", "place": "hamlet", "postal_code": "9507"}}, {"type": "node", "id": 9199372553, "lat": 6.3176179, "lon": 125.2064851, "tags": {"place": "hamlet"}}, {"type": "node", "id": 9207039659, "lat": 6.172901, "lon": 125.3616428, "tags": {"fixme": "name", "place": "neighbourhood"}}, {"type": "node", "id": 9207058787, "lat": 6.1993802, "lon": 125.3687225, "tags": {"admin_level": "11", "admin_type:PH": "sitio", "is_in:quarter": "Alegria", "is_in:town": "Alabel", "name": "Tagaytay", "place": "hamlet"}}, {"type": "node", "id": 9213034071, "lat": 6.3955902, "lon": 125.1365089, "tags": {"fixme": "name", "place": "neighbourhood"}}, {"type": "node", "id": 9213040814, "lat": 6.3016061, "lon": 125.288853, "tags": {"fixme": "name", "place": "neighbourhood"}}, {"type": "node", "id": 9213089651, "lat": 6.3022646, "lon": 125.2797811, "tags": {"admin_level": "10", "admin_type:PH": "barangay", "is_in:municipality": "Malungon", "name": "Banahaw", "official_name": "Barangay Banahaw", "place": "village", "postal_code": "9503", "start_date": "1991"}}, {"type": "node", "id": 9213089677, "lat": 6.3187043, "lon": 125.2708789, "tags": {"alt_name": "Sitio Consolacion", "is_in:barangay": "Banahaw", "is_in:municipality": "Malungon", "name": "Consolacion", "place": "hamlet", "postal_code": "9503"}}, {"type": "node", "id": 9213103091, "lat": 6.4564802, "lon": 125.3758411, "tags": {"alt_name": "Sitio Patulang", "ele": "350", "is_in:barangay": "Kinabalan", "is_in:town": "Malungon", "name": "Patulang", "note": "verify location", "place": "hamlet", "postal_code": "9503"}}, {"type": "node", "id": 9213104317, "lat": 6.4557107, "lon": 125.3515008, "tags": {"alt_name": "Sitio Landayan", "ele": "460", "is_in:barangay": "Kinabalan", "is_in:town": "Malungon", "name": "Landayan", "place": "hamlet", "postal_code": "9503"}}, {"type": "node", "id": 9213193410, "lat": 6.3311713, "lon": 125.3322713, "tags": {"admin_level": "11", "admin_type:PH": "sitio", "is_in:quarter": "Lutay", "is_in:town": "Malungon", "name": "Lower Mainit", "place": "hamlet", "source:name": "extrapolated from OSMaPaaralan, way/997819441"}}, {"type": "node", "id": 9213235043, "lat": 6.4960525, "lon": 125.3520822, "tags": {"alt_name": "Sitio Lagas", "is_in:barangay": "J. P. Laurel", "is_in:municipality": "Malungon", "name": "Lagas", "place": "hamlet", "postal_code": "9503"}}, {"type": "node", "id": 9369121064, "lat": 6.2514026, "lon": 125.0941796}, {"type": "node", "id": 9369121072, "lat": 6.2514967, "lon": 125.0948012}, {"type": "node", "id": 9369121073, "lat": 6.2511704, "lon": 125.0951404}, {"type": "node", "id": 9506676966, "lat": 6.6076195, "lon": 125.4454351, "tags": {"admin_level": "10", "admin_type:PH": "barangay", "is_in:municipality": "Santa Maria", "name": "Tanglad", "official_name": "Barangay Tanglad", "old_ref": "118604018", "place": "village", "population": "3108", "population:date": "2020-05-01", "postal_code": "8011"}}, {"type": "node", "id": 9506722318, "lat": 6.6123168, "lon": 125.4333276, "tags": {"fixme": "name", "place": "neighbourhood"}}, {"type": "node", "id": 9506747479, "lat": 6.5994904, "lon": 125.4450113, "tags": {"fixme": "name", "place": "neighbourhood"}}, {"type": "node", "id": 9656067399, "lat": 6.4608232, "lon": 125.2870654, "tags": {"admin_level": "11", "admin_type:PH": "purok", "alt_name": "Purok 4;Purok Malbong;Sitio Malbong", "ele": "190", "is_in:barangay": "San Isidro", "is_in:municipality": "Malalag", "name": "Malbong", "official_name": "Purok 4 Malbong", "place": "hamlet", "postal_code": "8010"}}, {"type": "node", "id": 9892790589, "lat": 6.3809163, "lon": 125.2760763, "tags": {"admin_level": "11", "admin_type:PH": "purok", "alt_name": "Sitio Talaytay", "is_in:barangay": "Poblacion", "is_in:town": "Malungon", "name": "Talaytay", "official_name": "Purok Talaytay", "place": "neighbourhood"}}, {"type": "node", "id": 9892792066, "lat": 6.3744895, "lon": 125.2667999, "tags": {"admin_level": "11", "admin_type:PH": "purok", "is_in:barangay": "Poblacion", "is_in:town": "Malungon", "name": "Cebuano", "official_name": "Purok Cebuano", "place": "neighbourhood"}}, {"type": "node", "id": 10235468565, "lat": 6.5964609, "lon": 125.3963291, "tags": {"admin_level": "11", "admin_type:PH": "purok", "is_in:barangay": "Poblacion", "is_in:municipality": "Malalag", "name": "Lumbia", "official_name": "Purok Lumbia", "place": "neighbourhood", "postal_code": "8010"}}, {"type": "node", "id": 10261450346, "lat": 6.6070547, "lon": 125.1986866, "tags": {"alt_name": "Sitio Lomboy", "ele": "170", "is_in:barangay": "San Isidro", "is_in:municipality": "Kiblawan", "name": "Lomboy", "place": "hamlet", "postal_code": "8008"}}, {"type": "node", "id": 10261460637, "lat": 6.4820162, "lon": 125.3422344, "tags": {"is_in:barangay": "Jose P. Laurel", "is_in:municipality": "Malungon", "name": "Bangkerohan Uno", "place": "hamlet"}}, {"type": "node", "id": 10261522591, "lat": 6.5901994, "lon": 125.2706623, "tags": {"admin_level": "11", "admin_type:PH": "purok", "is_in:barangay": "Roxas", "is_in:municipality": "Sulop", "name": "Purok 2", "place": "neighbourhood", "postal_code": "8009"}}, {"type": "node", "id": 10261522592, "lat": 6.595134, "lon": 125.2717982, "tags": {"admin_level": "11", "admin_type:PH": "purok", "is_in:barangay": "Roxas", "is_in:municipality": "Sulop", "name": "Purok 1", "place": "neighbourhood", "postal_code": "8009"}}, {"type": "node", "id": 10261522593, "lat": 6.5968952, "lon": 125.2811551, "tags": {"admin_level": "11", "admin_type:PH": "purok", "is_in:barangay": "Roxas", "is_in:municipality": "Sulop", "name": "Purok 4", "place": "neighbourhood", "postal_code": "8009"}}, {"type": "node", "id": 10261523016, "lat": 6.600367, "lon": 125.292584, "tags": {"admin_level": "11", "admin_type:PH": "purok", "is_in:barangay": "New Cebu", "is_in:municipality": "Sulop", "name": "Purok 5", "place": "neighbourhood", "postal_code": "8009"}}, {"type": "node", "id": 10261531363, "lat": 6.5200539, "lon": 125.2168827, "tags": {"alt_name": "Sitio Camlot", "ele": "430", "is_in:barangay": "Cogon Bacaca", "is_in:municipality": "Kiblawan", "name": "Camlot", "place": "hamlet", "postal_code": "8008"}}, {"type": "node", "id": 10489434450, "lat": 6.2217679, "lon": 125.1006263, "tags": {"is_in:barangay": "Cannery Site", "is_in:municipality": "Polomolok", "is_in:purok": "Trencera", "name": "Busgano Village", "place": "neighbourhood"}},