{"version": 0.6, "generator": "Overpass API 0.7.62.5 1bd436f1", "osm3s": {"timestamp_osm_base": "2025-05-24T18:03:28Z", "copyright": "The data included in this document is from www.openstreetmap.org. The data is made available under ODbL."}, "elements": [{"type": "node", "id": 198491064, "lat": 12.3867359, "lon": 125.3015079, "tags": {"admin_level": "6", "gns_classification": "ADM2", "gns_uni": "-3345463", "is_in:province": "Northern Samar", "name": "Gamay", "place": "town", "place:PH": "municipality", "population": "23511", "population:date": "2015-08-01", "source": "GNS", "source:population": "Philippine Statistics Authority", "wikidata": "Q174919", "wikimedia_commons": "Category:Gamay, Northern Samar", "wikipedia": "en:Gamay, Northern Samar"}}, {"type": "node", "id": 198499425, "lat": 12.2395304, "lon": 125.3185446, "tags": {"is_in:state": "Eastern Samar", "is_in:town": "Oras", "name": "Cagpile", "place": "village"}}, {"type": "node", "id": 198501900, "lat": 12.2860714, "lon": 125.2352904, "tags": {"admin_level": "6", "gns_classification": "ADM2", "gns_uni": "-3349498", "is_in:province": "Eastern Samar", "name": "Jipapad", "place": "town", "place:PH": "municipality", "population": "7885", "population:date": "2015-08-01", "source": "GNS", "source:population": "Philippine Statistics Authority", "wikidata": "Q314021", "wikimedia_commons": "Category:Jipapad", "wikipedia": "en:Jipapad"}}, {"type": "node", "id": 198515854, "lat": 12.3381782, "lon": 125.0310474, "tags": {"admin_level": "6", "name": "Las Navas", "place": "town", "place:PH": "municipality", "population": "37947", "population:date": "2015-08-01", "ref": "084810000", "source:population": "Philippine Statistics Authority", "wikidata": "Q174987", "wikimedia_commons": "Category:Las Navas, Northern Samar", "wikipedia": "en:Las Navas"}}, {"type": "node", "id": 198523195, "lat": 12.0374468, "lon": 125.4831175, "tags": {"admin_level": "6", "gns_classification": "ADM2", "gns_uni": "-3343971", "is_in:province": "Eastern Samar", "name": "Dolores", "place": "town", "place:PH": "municipality", "population": "42866", "population:date": "2015-08-01", "source": "GNS", "source:population": "Philippine Statistics Authority", "wikidata": "Q313939", "wikimedia_commons": "Category:Dolores, Eastern Samar", "wikipedia": "en:Dolores, Eastern Samar"}}, {"type": "node", "id": 198525404, "lat": 12.3172219, "lon": 125.3016342, "tags": {"admin_level": "6", "gns_classification": "ADM2", "gns_uni": "-3353138", "is_in:province": "Northern Samar", "name": "Lapinig", "place": "town", "place:PH": "municipality", "population": "13020", "population:date": "2015-08-01", "source": "GNS", "source:population": "Philippine Statistics Authority", "wikidata": "Q174962", "wikimedia_commons": "Category:Lapinig", "wikipedia": "en:Lapinig"}}, {"type": "node", "id": 1737946520, "lat": 12.3709731, "lon": 125.2628711, "tags": {"name": "Bato", "place": "village"}}, {"type": "node", "id": 1737946521, "lat": 12.3740466, "lon": 125.2553702, "tags": {"admin_level": "10", "admin_type:PH": "barangay", "alt_name": "Guibwangan", "is_in:town": "Gamay", "name": "Guibuangan", "place": "village", "source:name": "extrapolated from OSMaPaaralan"}}, {"type": "node", "id": 1737946522, "lat": 12.3640304, "lon": 125.2363327, "tags": {"admin_level": "10", "admin_type:PH": "barangay", "is_in:town": "Gamay", "name": "Bangon", "place": "village"}}, {"type": "node", "id": 1737946523, "lat": 12.3890322, "lon": 125.2618839, "tags": {"name": "Cadac-an", "place": "village"}}, {"type": "node", "id": 1737985298, "lat": 12.37757, "lon": 125.2435953, "tags": {"admin_level": "10", "admin_type:PH": "barangay", "alt_name": "Cadean", "is_in:town": "Gamay", "name": "Cade-an", "place": "village", "source:name": "extrapolated from OSMaPaaralan"}}, {"type": "node", "id": 1742515973, "lat": 12.35952, "lon": 125.2859123, "tags": {"name": "Cagamutan del Norte", "place": "village"}}, {"type": "node", "id": 1742515975, "lat": 12.3557072, "lon": 125.2829469, "tags": {"name": "Cagamutan del Sur", "place": "neighbourhood"}}, {"type": "node", "id": 1742515996, "lat": 12.3874861, "lon": 125.3072152, "tags": {"name": "Baybay", "place": "neighbourhood"}}, {"type": "node", "id": 2529139765, "lat": 12.223922, "lon": 125.2888377, "tags": {"admin_level": "10", "designation": "barangay", "is_in:state": "Eastern Samar", "is_in:town": "Arteche", "is_in:village": "Tawagan", "name": "Tawagan", "place": "village", "source:name": "extrapolated from OSMaPaaralan, way/316158422"}}, {"type": "node", "id": 2529139868, "lat": 12.228196, "lon": 125.2761191, "tags": {"admin_level": "10", "admin_type:PH": "barangay", "is_in:town": "Arteche", "name": "Cagsalay", "old_ref": "082601008", "place": "hamlet", "population": "431", "population:2015": "372", "ref": "0802601008", "source:population": "Philippine Statistics Authority"}}, {"type": "node", "id": 2529140052, "lat": 12.2389378, "lon": 125.2861716, "tags": {"designation": "barangay", "is_in:town": "Arteche", "name": "Inayawan", "place": "hamlet", "source:name": "extrapolated from OSMaPaaralan"}}, {"type": "node", "id": 2529161826, "lat": 12.2949883, "lon": 125.2552523, "tags": {"admin_level": "10", "admin_type:PH": "barangay", "designation": "barangay", "is_in:town": "Jipapad", "name": "Roxas", "old_ref": "082611020", "place": "hamlet", "population": "295", "ref": "0802611020", "source:name": "extrapolated from OSMaPaaralan, way/884970282", "source:population": "Philippine Statistics Authority"}}, {"type": "node", "id": 2529161940, "lat": 12.3065072, "lon": 125.2733038, "tags": {"name": "Imelda", "place": "village"}}, {"type": "node", "id": 2529593542, "lat": 12.2469459, "lon": 125.2821395, "tags": {"alt_name": "Tebalawon", "designation": "sitio", "is_in:town": "Arteche", "name": "Tibalawon", "place": "hamlet", "source:name": "extrapolated from OSMaPaaralan"}}, {"type": "node", "id": 2529593617, "lat": 12.2578295, "lon": 125.2789789, "tags": {"designation": "barangay", "is_in:town": "Arteche", "name": "Campacion", "place": "hamlet", "source:name": "extrapolated from OSMaPaaralan, way/915305700"}}, {"type": "node", "id": 2531384738, "lat": 12.2637135, "lon": 125.4033386, "tags": {"alt_name": "Arteche", "name": "Carapdapan", "nga:ufi": "-2415924", "place": "village", "source": "Bing;USGS, 2013-10-11;NGA"}}, {"type": "node", "id": 2531384739, "lat": 12.2263386, "lon": 125.3152696, "tags": {"alt_name": "Bulingcasog", "is_in:state": "Eastern Samar", "name": "Balingasag", "nga:ufi": "-2416484", "place": "village", "source": "Bing; USGS, 2013-10-11; NGA"}}, {"type": "node", "id": 2531384740, "lat": 12.216667, "lon": 125.3, "tags": {"fixme": "Confirm name.", "name": "Bundulun", "nga:ufi": "-2416649", "place": "hamlet", "source": "Bing; USGS, 2013-10-11; NGA"}}, {"type": "node", "id": 2531384745, "lat": 12.2168922, "lon": 125.3553747, "tags": {"admin_level": "10", "admin_type:PH": "barangay", "alt_name": "Cagtuog Bato", "is_in:town": "Oras", "name": "Buntay", "nga:ufi": "-2418431", "old_ref": "082617009", "place": "village", "population": "730", "population:2015": "709", "ref": "0802617009", "source": "Bing; USGS, 2013-10-11; NGA", "source:population": "Philippine Statistics Authority"}}, {"type": "node", "id": 2531384751, "lat": 12.3127471, "lon": 125.0867743, "tags": {"admin_level": "10", "designation": "barangay", "is_in:town": "Las Navas", "name": "Catoto-ogan", "nga:ufi": "-2421589", "place": "village", "source": "DepEd;Bing;USGS, 2013-10-11;NGA"}}, {"type": "node", "id": 2531384753, "lat": 12.288333, "lon": 125.04, "tags": {"admin_level": "10", "designation": "barangay", "is_in:town": "Las Navas", "name": "Dapdap", "nga:ufi": "-2423827", "place": "village", "source": "DepEd;Bing;USGS, 2013-10-11;NGA", "source:name": "extrapolated from OSMaPaaralan, way/884572316"}}, {"type": "node", "id": 2531384763, "lat": 12.3394407, "lon": 125.2481563, "tags": {"name": "Lo-oc", "nga:ufi": "-2433871", "place": "hamlet", "source": "Bing; USGS, 2013-10-11; NGA"}}, {"type": "node", "id": 2531384777, "lat": 12.1578533, "lon": 125.2471693, "tags": {"admin_level": "6", "gns_classification": "ADM2", "is_in:province": "Eastern Samar", "name": "Maslog", "nga:ufi": "-2438950", "place": "town", "place:PH": "municipality", "population": "5407", "population:date": "2015-08-01", "source": "Bing; USGS, 2013-10-11; NGA", "source:population": "Philippine Statistics Authority", "wikidata": "Q314096", "wikimedia_commons": "Category:Maslog", "wikipedia": "en:Maslog"}}, {"type": "node", "id": 2531384852, "lat": 12.135391, "lon": 125.2383346, "tags": {"admin_level": "10", "admin_type:PH": "barangay", "is_in:town": "Maslog", "name": "San Miguel", "nga:ufi": "-2456517", "place": "village", "source": "DepEd;Bing;USGS, 2013-10-11;NGA", "source:name": "extrapolated from OSMaPaaralan, way/954855575"}}, {"type": "node", "id": 2531584307, "lat": 11.966667, "lon": 125.333333, "tags": {"fixme": "Location approximate.", "name": "Cagcacalao", "nga:ufi": "-2418345", "place": "hamlet", "source": "Bing; USGS, 2013-10-11; NGA"}}, {"type": "node", "id": 2531584322, "lat": 11.9894188, "lon": 125.3315017, "tags": {"admin_level": "10", "admin_type:PH": "barangay", "is_in:town": "Can-avid", "name": "Can-ilay", "nga:ufi": "-2420260", "place": "village", "source": "DepEd;Bing;USGS, 2013-10-11;NGA", "source:name": "extrapolated from OSMaPaaralan, way/913400086"}}, {"type": "node", "id": 2531584328, "lat": 11.9648791, "lon": 125.4353515, "tags": {"admin_level": "10", "admin_type:PH": "barangay", "is_in:town": "Can-avid", "name": "Cansangaya", "nga:ufi": "-2421187", "place": "village", "source": "Bing; USGS, 2013-10-11; NGA"}}, {"type": "node", "id": 2531584364, "lat": 11.9968852, "lon": 125.4485155, "tags": {"admin_level": "6", "gns_classification": "ADM2", "gns_uni": "-3337900", "is_in:province": "Eastern Samar", "name": "Can-avid", "nga:ufi": "-2419987", "place": "town", "place:PH": "municipality", "population": "21015", "population:date": "2015-08-01", "source": "GNS", "source:population": "Philippine Statistics Authority", "wikidata": "Q313926", "wikimedia_commons": "Category:Can-avid", "wikipedia": "en:Can-avid"}}, {"type": "node", "id": 2531584453, "lat": 11.983333, "lon": 125.1, "tags": {"fixme": "Location approximate.", "name": "Mabuhay", "nga:ufi": "-2435026", "place": "hamlet", "source": "Bing; USGS, 2013-10-11; NGA"}}, {"type": "node", "id": 2531776505, "lat": 11.9803574, "lon": 125.405668, "tags": {"admin_level": "10", "admin_type:PH": "barangay", "is_in:town": "Can-avid", "name": "Guibuangan", "old_ref": "082605011", "place": "hamlet", "population": "386", "population:2015": "381", "ref": "0802605011", "source:name": "extrapolated from OSMaPaaralan, way/915314280", "source:population": "Philippine Statistics Authority"}}, {"type": "node", "id": 2531776506, "lat": 11.9813837, "lon": 125.4326116, "tags": {"admin_level": "10", "admin_type:PH": "barangay", "is_in:town": "Can-avid", "name": "Canteros", "place": "village", "source": "US Army Topo Map"}}, {"type": "node", "id": 2531798356, "lat": 12.008614, "lon": 125.3502433, "tags": {"admin_level": "10", "designation": "barangay", "is_in:town": "Can-avid", "name": "Caghalong", "place": "hamlet", "source": "DepEd;US Army Topo Map", "source:name": "extrapolated from OSMaPaaralan"}}, {"type": "node", "id": 2531798357, "lat": 12.0190358, "lon": 125.456979, "tags": {"admin_level": "10", "designation": "barangay", "is_in:town": "Can-avid", "is_in:village": "Carolina", "name": "Carolina", "place": "village", "source": "US Army Topo Map", "source:name": "extrapolated from OSMaPaaralan"}}, {"type": "node", "id": 2531798358, "lat": 12.0327138, "lon": 125.4408001, "tags": {"name": "Dampigan", "place": "village", "source": "US Army Topo Map"}}, {"type": "node", "id": 2531798359, "lat": 12.034191, "lon": 125.29985, "tags": {"fixme": "Copied from topo map, please add name and correct location, then remove this fixme.", "place": "hamlet", "source": "US Army Topo Map"}}, {"type": "node", "id": 2531798362, "lat": 12.0458933, "lon": 125.2456126, "tags": {"fixme": "Copied from topo map, please add name and correct location, then remove this fixme.", "place": "hamlet", "source": "US Army Topo Map"}}, {"type": "node", "id": 2531798363, "lat": 12.0487597, "lon": 125.3927545, "tags": {"admin_level": "10", "admin_type:PH": "barangay", "is_in:town": "Dolores", "name": "Aroganga", "place": "village", "population": "1012", "population:2015": "1176", "population:date": "2020-05-01", "ref": "082606001", "source:name": "extrapolated from OSMaPaaralan", "source:population": "Philippine Statistics Authority"}}, {"type": "node", "id": 2531798369, "lat": 12.0540739, "lon": 125.4686513, "tags": {"fixme": "Copied from topo map, please add name and correct location, then remove this fixme.", "place": "hamlet", "source": "US Army Topo Map"}}, {"type": "node", "id": 2531798370, "lat": 12.0562013, "lon": 125.4170187, "tags": {"admin_level": "10", "admin_type:PH": "barangay", "is_in:town": "Dolores", "name": "Tanauan", "place": "village", "source": "US Army Topo Map"}}, {"type": "node", "id": 2531798373, "lat": 12.058422, "lon": 125.2850091, "tags": {"fixme": "Copied from topo map, please add name and correct location, then remove this fixme.", "place": "hamlet", "source": "US Army Topo Map"}}, {"type": "node", "id": 2531798374, "lat": 12.0600328, "lon": 125.2690759, "tags": {"fixme": "Copied from topo map, please add name and correct location, then remove this fixme.", "place": "hamlet", "source": "US Army Topo Map"}}, {"type": "node", "id": 2531798376, "lat": 12.0624439, "lon": 125.409243, "tags": {"admin_level": "10", "admin_type:PH": "barangay", "is_in:municipality": "Dolores", "name": "San Isidro", "old_name": "Malabag", "place": "village"}}, {"type": "node", "id": 2531798381, "lat": 12.0737576, "lon": 125.2677612, "tags": {"fixme": "Copied from topo map, please add name and correct location, then remove this fixme.", "place": "hamlet", "source": "US Army Topo Map"}}, {"type": "node", "id": 2531798389, "lat": 12.0739838, "lon": 125.4770855, "tags": {"name": "Malobago", "place": "village", "source": "US Army Topo Map"}}, {"type": "node", "id": 2531798393, "lat": 12.0828129, "lon": 125.468379, "tags": {"name": "Factoria", "place": "village", "source": "US Army Topo Map"}}, {"type": "node", "id": 2531798395, "lat": 12.0870208, "lon": 125.4561752, "tags": {"name": "Dalid", "place": "village", "source": "US Army Topo Map"}}, {"type": "node", "id": 2531798396, "lat": 12.0930604, "lon": 125.2903662, "tags": {"place": "village"}}, {"type": "node", "id": 2531798403, "lat": 12.0971569, "lon": 125.2889164, "tags": {"fixme": "Copied from topo map, please add name and correct location, then remove this fixme.", "place": "hamlet", "source": "US Army Topo Map"}}, {"type": "node", "id": 2531798406, "lat": 12.0997077, "lon": 125.4676822, "tags": {"name": "Saugan", "place": "hamlet", "source": "US Army Topo Map"}}, {"type": "node", "id": 2531798418, "lat": 12.1129549, "lon": 125.4332797, "tags": {"admin_level": "10", "admin_type:PH": "barangay", "is_in:town": "Oras", "name": "Burak", "old_ref": "082617010", "place": "village", "population": "1148", "ref": "0802617010", "source": "US Army Topo Map", "source:population": "Philippine Statistics Authority"}}, {"type": "node", "id": 2531798419, "lat": 12.1191654, "lon": 125.2605317, "tags": {"name": "Villahermosa", "place": "village", "source": "US Army Topo Map"}}, {"type": "node", "id": 2531798457, "lat": 12.1410311, "lon": 125.4408359, "tags": {"admin_level": "6", "gns_classification": "ADM2", "is_in:province": "Eastern Samar", "name": "Oras", "place": "town", "place:PH": "municipality", "population": "36540", "population:date": "2015-08-01", "source": "US Army Topo Map", "source:population": "Philippine Statistics Authority", "wikidata": "Q314154", "wikimedia_commons": "Category:Oras, Eastern Samar", "wikipedia": "en:Oras, Eastern Samar"}}, {"type": "node", "id": 2531798501, "lat": 12.1767472, "lon": 125.4837487, "tags": {"name": "Binogawan", "place": "village", "source": "US Army Topo Map"}}, {"type": "node", "id": 2531798508, "lat": 12.189105, "lon": 125.3786125, "tags": {"admin_level": "10", "admin_type:PH": "barangay", "is_in:town": "Oras", "name": "Minap-os", "place": "village", "source": "Bing"}}, {"type": "node", "id": 2531798515, "lat": 12.2055897, "lon": 125.3864252, "tags": {"admin_level": "10", "admin_type:PH": "barangay", "designation": "barangay", "is_in:town": "Oras", "name": "Cadi-an", "old_ref": "082617012", "place": "village", "population": "1193", "population:2015": "1257", "ref": "0802617012", "source:name": "extrapolated from OSMaPaaralan", "source:population": "Philippine Statistics Authority"}}, {"type": "node", "id": 2531798516, "lat": 12.2060756, "lon": 125.4450275, "tags": {"name": "Santa Cruz", "place": "hamlet", "source": "US Army Topo Map"}}, {"type": "node", "id": 2531798520, "lat": 12.218753, "lon": 125.4821759, "tags": {"name": "Alugan", "place": "hamlet", "source": "US Army Topo Map"}}, {"type": "node", "id": 2531798522, "lat": 12.2224144, "lon": 125.4250079, "tags": {"name": "Bangon", "place": "hamlet", "source": "US Army Topo Map"}}, {"type": "node", "id": 2531798525, "lat": 12.2354915, "lon": 125.2370551, "tags": {"admin_level": "10", "admin_type:PH": "barangay", "fixme": "Copied from topo map, please add name and correct location, then remove this fixme.", "is_in:town": "Arteche", "name": "Casidman", "old_ref": "082601011", "place": "hamlet", "population": "261", "population:2015": "223", "ref": "0802601011", "source": "US Army Topo Map", "source:population": "Philippine Statistics Authority"}}, {"type": "node", "id": 2531798526, "lat": 12.2290272, "lon": 125.4614737, "tags": {"name": "Cajagwayan", "place": "village", "source": "US Army Topo Map"}}, {"type": "node", "id": 2531798528, "lat": 12.2303541, "lon": 125.2560128, "tags": {"fixme": "Copied from topo map, please add name and correct location, then remove this fixme.", "place": "hamlet", "source": "US Army Topo Map"}}, {"type": "node", "id": 2531798533, "lat": 12.2314729, "lon": 125.4549444, "tags": {"alt_name": "Pangpang", "name": "Pangpang", "place": "hamlet", "source": "US Army Topo Map"}}, {"type": "node", "id": 2531798537, "lat": 12.2438213, "lon": 125.4258907, "tags": {"fixme": "Copied from topo map, please add name and correct location, then remove this fixme.", "name": "Tanauan", "place": "hamlet", "source": "US Army Topo Map"}}, {"type": "node", "id": 2531798553, "lat": 12.2522386, "lon": 125.4513923, "tags": {"name": "Japunan", "place": "village", "source": "US Army Topo Map"}}, {"type": "node", "id": 2531798557, "lat": 12.2557557, "lon": 125.3368527, "tags": {"fixme": "add name then remove this fixme.", "name": "Bato", "place": "hamlet"}}, {"type": "node", "id": 2531798564, "lat": 12.2611492, "lon": 125.4359035, "tags": {"admin_level": "10", "designation": "barangay", "is_in:town": "San Policarpo", "name": "Natividad", "place": "village", "source": "DepEd;US Army Topo Map", "source:name": "extrapolated from OSMaPaaralan, way/954849936"}}, {"type": "node", "id": 2531798586, "lat": 12.2709176, "lon": 125.34583, "tags": {"fixme": "Copied from topo map, please add name and correct location, then remove this fixme.", "name": "Buang", "place": "hamlet", "source": "US Army Topo Map"}}, {"type": "node", "id": 2531798604, "lat": 12.2754414, "lon": 125.3181037, "tags": {"admin_level": "10", "designation": "barangay", "is_in:town": "Arteche", "name": "Catumsan", "place": "village"}}, {"type": "node", "id": 2531798619, "lat": 12.2850034, "lon": 125.194944, "tags": {"fixme": "Copied from topo map, please add name and correct location, then remove this fixme.", "place": "hamlet", "source": "US Army Topo Map"}}, {"type": "node", "id": 2531798631, "lat": 12.2945187, "lon": 125.3033201, "tags": {"designation": "barangay", "is_in:town": "Lapinig", "name": "Palanas", "place": "hamlet", "source": "US Army Topo Map", "source:name": "extrapolated from OSMaPaaralan"}}, {"type": "node", "id": 2531798634, "lat": 12.2954415, "lon": 125.2873056, "tags": {"admin_level": "10", "designation": "barangay", "is_in:town": "Lapinig", "name": "Lo-ok", "place": "village", "source": "US Army Topo Map", "source:name": "extrapolated from OSMaPaaralan, way/316167296"}}, {"type": "node", "id": 2531798635, "lat": 12.2967218, "lon": 125.3262887, "tags": {"designation": "barangay", "is_in:town": "Lapinig", "is_in:village": "?", "name": "May-igot", "place": "village", "source": "US Army Topo Map", "source:name": "extrapolated from OSMaPaaralan, way/884619551"}}, {"type": "node", "id": 2531798637, "lat": 12.3093125, "lon": 125.1756802, "tags": {"admin_type:PH": "barangay", "alt_name": "Usang", "is_in:town": "Catubig", "name": "Osang", "old_ref": "084806030", "place": "hamlet", "population": "348", "population:2015": "362", "ref": "0804806030", "source": "US Army Topo Map", "source:population": "Philippine Statistics Authority"}}, {"type": "node", "id": 2531798639, "lat": 12.2994319, "lon": 125.13559, "tags": {"fixme": "Copied from topo map, please add name and correct location, then remove this fixme.", "place": "hamlet", "source": "US Army Topo Map"}}, {"type": "node", "id": 2531798652, "lat": 12.3095244, "lon": 125.0650995, "tags": {"fixme": "Copied from topo map, please add name and correct location, then remove this fixme.", "place": "hamlet", "source": "US Army Topo Map"}}, {"type": "node", "id": 2531798654, "lat": 12.3108084, "lon": 125.1435825, "tags": {"admin_level": "10", "designation": "barangay", "is_in:town": "?", "is_in:village": "?", "name": "San Miguel", "place": "village", "source": "US Army Topo Map", "source:name": "extrapolated from OSMaPaaralan"}}, {"type": "node", "id": 2531798676, "lat": 12.3287303, "lon": 125.0805994, "tags": {"name": "Quezon", "place": "village", "source": "US Army Topo Map"}}, {"type": "node", "id": 2531798677, "lat": 12.3224918, "lon": 125.2050521, "tags": {"name": "Agsaman", "place": "village", "source": "US Army Topo Map"}}, {"type": "node", "id": 2531798678, "lat": 12.3234836, "lon": 125.1865365, "tags": {"name": "Nagoocan", "place": "village", "source": "US Army Topo Map"}}, {"type": "node", "id": 2531798686, "lat": 12.3516921, "lon": 125.129848, "tags": {"name": "San Vicente", "place": "village", "source": "US Army Topo Map"}}, {"type": "node", "id": 2531798692, "lat": 12.3552991, "lon": 125.0972314, "tags": {"admin_level": "10", "admin_type:PH": "barangay", "designation": "barangay", "is_in:town": "Catubig", "name": "Bonifacio", "old_ref": "084806003", "place": "hamlet", "population": "420", "population:2015": "403", "ref": "0804806003", "source:name": "extrapolated from OSMaPaaralan, way/956479141", "source:population": "Philippine Statistics Authority"}}, {"type": "node", "id": 2531798694, "lat": 12.3503519, "lon": 125.2292189, "tags": {"admin_level": "10", "admin_type:PH": "barangay", "is_in:town": "Gamay", "name": "Bonifacio", "place": "village", "source": "US Army Topo Map", "source:name": "extrapolated from OSMaPaaralan, way/886845340"}}, {"type": "node", "id": 2531798698, "lat": 12.3620233, "lon": 125.126708, "tags": {"fixme": "please add name, then remove this fixme.", "name": "Anongo", "place": "hamlet", "source": "US Army Topo Map"}}, {"type": "node", "id": 2531798699, "lat": 12.3627022, "lon": 125.104088, "tags": {"admin_level": "10", "admin_type:PH": "barangay", "fixme": "Copied from topo map, please add name and correct location, then remove this fixme.", "name": "San Antonio", "old_ref": "084806035", "place": "hamlet", "population": "463", "population:2015": "460", "ref": "0804806035", "source": "US Army Topo Map", "source:population": "Philippine Statistics Authority"}}, {"type": "node", "id": 2531798700, "lat": 12.3625959, "lon": 125.0692927, "tags": {"admin_level": "10", "admin_type:PH": "barangay", "designation": "barangay", "is_in:town": "Catubig", "name": "Sulitan", "old_ref": "084806040", "place": "village", "population": "747", "population:2015": "906", "ref": "0804806040", "source": "DepEd;US Army Topo Map", "source:name": "extrapolated from OSMaPaaralan, way/886884667", "source:population": "Philippine Statistics Authority"}}, {"type": "node", "id": 2531798702, "lat": 12.3622389, "lon": 125.0494639, "tags": {"name": "Balugo", "place": "village", "source": "US Army Topo Map"}}, {"type": "node", "id": 2531798706, "lat": 12.368568, "lon": 125.0789595, "tags": {"admin_level": "10", "admin_type:PH": "barangay", "designation": "barangay", "is_in:town": "Catubig", "name": "Magtuad", "old_ref": "084806024", "place": "village", "population": "847", "population:2015": "927", "ref": "0804806024", "source": "US Army Topo Map", "source:name": "extrapolated from OSMaPaaralan, way/730950228", "source:population": "Philippine Statistics Authority"}}, {"type": "node", "id": 2531798708, "lat": 12.3718903, "lon": 125.0920401, "tags": {"admin_level": "10", "designation": "barangay", "is_in:town": "Catubig", "name": "Nahulid", "place": "hamlet", "source": "US Army Topo Map", "source:name": "extrapolated from OSMaPaaralan, way/951851818"}}, {"type": "node", "id": 2531798709, "lat": 12.3695547, "lon": 125.1295981, "tags": {"fixme": "Copied from topo map, please add name and correct location, then remove this fixme.", "place": "hamlet", "source": "US Army Topo Map"}}, {"type": "node", "id": 2531798712, "lat": 12.3716951, "lon": 125.0987302, "tags": {"fixme": "Copied from topo map, please add name and correct location, then remove this fixme.", "name": "Nahulid", "place": "hamlet", "source": "US Army Topo Map"}}, {"type": "node", "id": 2531798713, "lat": 12.3748766, "lon": 125.0855097, "tags": {"admin_level": "10", "designation": "barangay", "is_in:town": "Catubig", "name": "Nabulo", "place": "village", "source": "DepEd;US Army Topo Map", "source:name": "extrapolated from OSMaPaaralan, way/885783417"}}, {"type": "node", "id": 2531798715, "lat": 12.3766596, "lon": 125.0495984, "tags": {"admin_level": "10", "admin_type:PH": "barangay", "is_in:town": "Catubig", "name": "Sagudsoron", "old_ref": "084806034", "place": "village", "population": "575", "population:2015": "568", "ref": "0804806034", "source": "US Army Topo Map", "source:population": "Philippine Statistics Authority"}}, {"type": "node", "id": 2531798718, "lat": 12.3780054, "lon": 125.2011792, "tags": {"admin_level": "10", "designation": "barangay", "is_in:town": "Mapanas", "name": "San Jose", "place": "village", "source": "DepEd;US Army Topo Map", "source:name": "extrapolated from OSMaPaaralan, way/952520046"}}, {"type": "node", "id": 2531798720, "lat": 12.376225, "lon": 125.1027441, "tags": {"admin_level": "10", "designation": "barangay", "ele": "10", "is_in:town": "Catubig", "loc_name": "Hibubullao", "name": "San Jose", "official_name": "Barangay San Jose", "old_name": "Hibubullao", "old_ref": "084806037", "place": "village", "population": "2700", "population:date": "2020-05-01", "postal_code": "6418", "ref": "0804806037"}}, {"type": "node", "id": 2531798735, "lat": 12.3898172, "lon": 125.035873, "tags": {"admin_level": "10", "designation": "barangay", "is_in:town": "Catubig", "name": "Cagmanaba", "place": "village", "source": "DepEd;US Army Topo Map", "source:name": "extrapolated from OSMaPaaralan, way/886067405"}}, {"type": "node", "id": 2531798737, "lat": 12.3929726, "lon": 125.0424919, "tags": {"admin_level": "10", "designation": "barangay", "is_in:town": "Catubig", "name": "Cagbugna", "place": "village", "source": "DepEd;US Army Topo Map", "source:name": "extrapolated from OSMaPaaralan, way/886067406"}}, {"type": "node", "id": 2531798738, "lat": 12.3992982, "lon": 125.0754445, "tags": {"name": "San Francisco", "place": "hamlet", "source": "US Army Topo Map"}}, {"type": "node", "id": 2531798739, "lat": 12.3968198, "lon": 125.0890125, "tags": {"fixme": "Copied from topo map, please add name and correct location, then remove this fixme.", "place": "hamlet", "source": "US Army Topo Map"}}, {"type": "node", "id": 2531798742, "lat": 12.4050405, "lon": 125.2406028, "tags": {"fixme": "Copied from topo map, please add name and correct location, then remove this fixme. Name and location seem correct, but on satellite image no city visible.", "name": "Cadajonan", "place": "hamlet", "source": "US Army Topo Map"}}, {"type": "node", "id": 2531936565, "lat": 12.0678508, "lon": 125.2785094, "tags": {"admin_level": "10", "designation": "barangay", "is_in:town": "Dolores", "name": "Jicontol", "place": "village", "source:name": "extrapolated from OSMaPaaralan, way/914531909"}}, {"type": "node", "id": 2532444362, "lat": 12.2451195, "lon": 125.2540146, "tags": {"admin_level": "10", "admin_type:PH": "barangay", "is_in:town": "Arteche", "name": "Concepcion", "place": "village"}}, {"type": "node", "id": 2532444395, "lat": 12.3114563, "lon": 125.2507933, "tags": {"admin_level": "10", "admin_type:PH": "barangay", "alt_name": "Jiwaran", "is_in:town": "Jipapad", "name": "Jewaran", "old_ref": "082611012", "place": "hamlet", "population": "298", "ref": "0802611012", "source:name": "extrapolated from OSMaPaaralan, way/884970281", "source:population": "Philippine Statistics Authority", "was:name": "Tuog"}}, {"type": "node", "id": 2532465343, "lat": 12.1946148, "lon": 125.386783, "tags": {"admin_level": "10", "admin_type:PH": "barangay", "is_in:town": "Oras", "name": "Alang-alang", "old_ref": "082617045", "place": "village", "population": "217", "population:2015": "195", "ref": "0802617045", "source:population": "Philippine Statistics Authority"}}, {"type": "node", "id": 2532541354, "lat": 12.0412421, "lon": 125.3299909, "tags": {"admin_level": "10", "is_in:town": "Dolores", "name": "Buenavista", "place": "village", "place:PH": "barangay"}}, {"type": "node", "id": 2533619772, "lat": 12.3361938, "lon": 125.2850387, "tags": {"name": "Potong", "place": "village"}}, {"type": "node", "id": 2545120171, "lat": 12.2236496, "lon": 125.3312891, "tags": {"admin_level": "10", "admin_type:PH": "barangay", "is_in:town": "Oras", "name": "Cagtoog", "place": "village"}}, {"type": "node", "id": 2545120178, "lat": 12.2751964, "lon": 125.2491013, "tags": {"designation": "barangay", "is_in:town": "Jipapad", "is_in:village": "Barangay \u2160", "name": "Maylimon", "place": "hamlet", "source:name": "extrapolated from OSMaPaaralan"}}, {"type": "node", "id": 2545120184, "lat": 12.2304271, "lon": 125.2701879, "tags": {"admin_level": "10", "admin_type:PH": "barangay", "alt_name": "Macarthur", "is_in:province": "Eastern Samar", "is_in:town": "Arteche", "name": "McArthur", "old_ref": "082601020", "place": "hamlet", "population": "467", "population:2015": "419", "ref": "0802601020", "source:population": "Philippine Statistics Authority"}}, {"type": "node", "id": 2545122512, "lat": 12.2667643, "lon": 125.2362951, "tags": {"admin_level": "10", "admin_type:PH": "barangay", "name": "Recare", "old_ref": "082611019", "place": "hamlet", "population": "460", "population:2015": "427", "ref": "0802611019", "source:population": "Philippine Statistics Authority"}}, {"type": "node", "id": 3143347607, "lat": 11.9917746, "lon": 125.4431054}, {"type": "node", "id": 3143347608, "lat": 11.9911134, "lon": 125.4447577}, {"type": "node", "id": 3143347609, "lat": 11.987986, "lon": 125.4437492}, {"type": "node", "id": 3143347610, "lat": 11.9876711, "lon": 125.4431913}, {"type": "node", "id": 3143347611, "lat": 11.9877026, "lon": 125.4430089}, {"type": "node", "id": 3143347612, "lat": 11.9874402, "lon": 125.4426012}, {"type": "node", "id": 3143347613, "lat": 11.9873694, "lon": 125.4424618}, {"type": "node", "id": 3143347614, "lat": 11.9858844, "lon": 125.4407505}, {"type": "node", "id": 3143347615, "lat": 11.9865403, "lon": 125.4402918}, {"type": "node", "id": 3143347616, "lat": 11.9884058, "lon": 125.441539}, {"type": "node", "id": 3143347617, "lat": 11.9894392, "lon": 125.4421543, "tags": {"power": "tower"}}, {"type": "node", "id": 3143347618, "lat": 11.9907146, "lon": 125.4429123}, {"type": "node", "id": 3143347619, "lat": 11.9907776, "lon": 125.4423866}, {"type": "node", "id": 3148775174, "lat": 11.9872803, "lon": 125.4407883}, {"type": "node", "id": 3148775180, "lat": 11.9876416, "lon": 125.4430463}, {"type": "node", "id": 3221281003, "lat": 11.9660422, "lon": 125.4350694}, {"type": "node", "id": 3221281004, "lat": 11.9658562, "lon": 125.4353598}, {"type": "node", "id": 3221281005, "lat": 11.9655914, "lon": 125.4352223}, {"type": "node", "id": 3221281006, "lat": 11.9653097, "lon": 125.4349515}, {"type": "node", "id": 3221281007, "lat": 11.9649398, "lon": 125.4346163}, {"type": "node", "id": 3221281008, "lat": 11.9646581, "lon": 125.43438}, {"type": "node", "id": 3221281009, "lat": 11.9643722, "lon": 125.4340964}, {"type": "node", "id": 3221281010, "lat": 11.9641074, "lon": 125.4337784}, {"type": "node", "id": 3221281011, "lat": 11.9639014, "lon": 125.4336108}, {"type": "node", "id": 3221281012, "lat": 11.9635987, "lon": 125.4333873}, {"type": "node", "id": 3221281013, "lat": 11.9634936, "lon": 125.4334475}, {"type": "node", "id": 3221281014, "lat": 11.9633213, "lon": 125.4337483}, {"type": "node", "id": 3221281015, "lat": 11.9631699, "lon": 125.4340233}, {"type": "node", "id": 3221281016, "lat": 11.963048, "lon": 125.434221}, {"type": "node", "id": 3221281017, "lat": 11.9627233, "lon": 125.4347638}, {"type": "node", "id": 3221281018, "lat": 11.9630307, "lon": 125.4351178}, {"type": "node", "id": 3221281019, "lat": 11.9633106, "lon": 125.4353413}, {"type": "node", "id": 3221281020, "lat": 11.9636138, "lon": 125.4355757}, {"type": "node", "id": 3221281021, "lat": 11.96428, "lon": 125.4357603}, {"type": "node", "id": 3221281022, "lat": 11.9647086, "lon": 125.4359087}, {"type": "node", "id": 3221281023, "lat": 11.9649692, "lon": 125.436129}, {"type": "node", "id": 3221281024, "lat": 11.9648813, "lon": 125.4362669}, {"type": "node", "id": 3221281025, "lat": 11.9649469, "lon": 125.4367712}, {"type": "node", "id": 3221281026, "lat": 11.965453, "lon": 125.436801}, {"type": "node", "id": 3221281027, "lat": 11.9656642, "lon": 125.4366183}, {"type": "node", "id": 3221281028, "lat": 11.9660534, "lon": 125.4365119}, {"type": "node", "id": 3221281029, "lat": 11.9663356, "lon": 125.4366039}, {"type": "node", "id": 3221291128, "lat": 12.3571639, "lon": 125.284207, "tags": {"name": "Cagamotan", "place": "village", "source": "DENR"}}, {"type": "node", "id": 3221320207, "lat": 12.1858326, "lon": 125.4411992, "tags": {"fixme": "needs a name", "name": "Nadacpan", "place": "village"}}, {"type": "node", "id": 3221484792, "lat": 12.1385492, "lon": 125.3353969, "tags": {"admin_level": "10", "designation": "barangay", "is_in:town": "Oras", "name": "Trinidad", "place": "village", "source:name": "extrapolated from OSMaPaaralan, way/954821081"}}, {"type": "node", "id": 3221484794, "lat": 12.1618578, "lon": 125.3679735, "tags": {"admin_level": "10", "admin_type:PH": "barangay", "is_in:town": "Oras", "name": "Trinidad", "old_name": "Maycorot", "old_ref": "082617044", "place": "village", "population": "737", "population:2015": "894", "ref": "0802617044", "source:name": "extrapolated from OSMaPaaralan, way/954802704", "source:population": "Philippine Statistics Authority"}}, {"type": "node", "id": 3221583834, "lat": 11.9536966, "lon": 125.4260021}, {"type": "node", "id": 3221583835, "lat": 11.9538934, "lon": 125.4264378}, {"type": "node", "id": 3221583836, "lat": 11.9541708, "lon": 125.4253461}, {"type": "node", "id": 3221583837, "lat": 11.954076, "lon": 125.4262723}, {"type": "node", "id": 3221583838, "lat": 11.9545479, "lon": 125.4248781}, {"type": "node", "id": 3221583840, "lat": 11.9546812, "lon": 125.4241984}, {"type": "node", "id": 3221583842, "lat": 11.9551948, "lon": 125.4261437}, {"type": "node", "id": 3221583843, "lat": 11.9552667, "lon": 125.4235733}, {"type": "node", "id": 3221583844, "lat": 11.9554167, "lon": 125.4236}, {"type": "node", "id": 3221583845, "lat": 11.9555105, "lon": 125.426106}, {"type": "node", "id": 3221583846, "lat": 11.9562281, "lon": 125.4239335}, {"type": "node", "id": 3221583847, "lat": 11.9563446, "lon": 125.4263147}, {"type": "node", "id": 3221583850, "lat": 11.9571597, "lon": 125.427171}, {"type": "node", "id": 3221583851, "lat": 11.9577044, "lon": 125.424696}, {"type": "node", "id": 3221583852, "lat": 11.9581451, "lon": 125.425658}, {"type": "node", "id": 3221583853, "lat": 11.9579949, "lon": 125.4248967}, {"type": "node", "id": 3221583854, "lat": 11.9580185, "lon": 125.4253863}, {"type": "node", "id": 3221594761, "lat": 11.966775, "lon": 125.4361143}, {"type": "node", "id": 3222460105, "lat": 12.2660868, "lon": 125.3115191, "tags": {"designation": "barangay", "is_in:town": "Arteche", "name": "Aguinaldo", "place": "hamlet", "source:name": "extrapolated from OSMaPaaralan"}}, {"type": "node", "id": 3222484434, "lat": 12.1233182, "lon": 125.3676429, "tags": {"place": "hamlet"}}, {"type": "node", "id": 3222815951, "lat": 12.0864798, "lon": 125.3954048, "tags": {"admin_level": "10", "admin_type:PH": "barangay", "is_in:town": "Oras", "name": "Japay", "old_ref": "082617023", "place": "hamlet", "population": "355", "ref": "0802617023", "source:population": "Philippine Statistics Authority"}}, {"type": "node", "id": 3222993974, "lat": 12.1279862, "lon": 125.4077928, "tags": {"admin_level": "10", "admin_type:PH": "barangay", "is_in:town": "Oras", "name": "Bantayan", "old_ref": "082617005", "place": "village", "population": "934", "ref": "0802617005", "source:population": "Philippine Statistics Authority"}}, {"type": "node", "id": 3222994136, "lat": 12.1436621, "lon": 125.391175, "tags": {"admin_level": "10", "designation": "barangay", "is_in:town": "Oras", "name": "Bato", "place": "hamlet", "source:name": "extrapolated from OSMaPaaralan"}}, {"type": "node", "id": 3226628306, "lat": 12.0994241, "lon": 125.4366888, "tags": {"admin_level": "10", "designation": "barangay", "is_in:town": "Oras", "name": "Dao", "place": "village"}}, {"type": "node", "id": 3226628307, "lat": 12.1119752, "lon": 125.4176902, "tags": {"admin_level": "10", "admin_type:PH": "barangay", "is_in:town": "Oras", "name": "Mabuhay", "old_ref": "082617027", "place": "village", "population": "645", "ref": "0802617027", "source:population": "Philippine Statistics Authority"}}, {"type": "node", "id": 4464379224, "lat": 11.9797392, "lon": 125.4416295}, {"type": "node", "id": 4464379227, "lat": 11.9799124, "lon": 125.4416268}, {"type": "node", "id": 4464379234, "lat": 11.9796946, "lon": 125.4424207}, {"type": "node", "id": 4464379257, "lat": 11.9804215, "lon": 125.4415624}, {"type": "node", "id": 4464379268, "lat": 11.9805946, "lon": 125.4421954}, {"type": "node", "id": 4464379276, "lat": 11.9807783, "lon": 125.4415356}, {"type": "node", "id": 4464379299, "lat": 11.9810144, "lon": 125.4414658}, {"type": "node", "id": 4464379307, "lat": 11.9810564, "lon": 125.4421149}, {"type": "node", "id": 4464379325, "lat": 11.9812873, "lon": 125.4414015}, {"type": "node", "id": 4464379347, "lat": 11.9815392, "lon": 125.4413049}, {"type": "node", "id": 4464379360, "lat": 11.9817176, "lon": 125.4416643}, {"type": "node", "id": 4464379361, "lat": 11.9817176, "lon": 125.4418306}, {"type": "node", "id": 4469600490, "lat": 12.2021917, "lon": 125.4862159, "tags": {"admin_level": "10", "designation": "barangay", "is_in:town": "San Policarpio", "name": "Bahay", "place": "village", "source": "US Army Topo Map"}}, {"type": "node", "id": 5113115059, "lat": 12.0451593, "lon": 125.4530498, "tags": {"name": "Bonghon", "place": "village"}}, {"type": "node", "id": 5113115060, "lat": 12.0578856, "lon": 125.4079604, "tags": {"name": "Libertad", "place": "village"}}, {"type": "node", "id": 5113115061, "lat": 12.0370946, "lon": 125.3804112, "tags": {"admin_level": "11", "designation": "sitio", "is_in:quarter": "Aroganga", "is_in:town": "Dolores", "name": "Pasak", "place": "hamlet", "source:name": "extrapolated from OSMaPaaralan, way/914534394"}}, {"type": "node", "id": 5113115062, "lat": 12.0372538, "lon": 125.3467304, "tags": {"name": "Magsaysay", "place": "hamlet"}}, {"type": "node", "id": 5113115063, "lat": 12.0542533, "lon": 125.3055864, "tags": {"admin_level": "10", "designation": "barangay", "is_in:town": "Dolores", "name": "Cabago-an", "place": "village", "source:name": "extrapolated from OSMaPaaralan"}}, {"type": "node", "id": 5116603280, "lat": 12.1463952, "lon": 125.1997724, "tags": {"name": "Taytay", "place": "village", "population": "200"}}, {"type": "node", "id": 5712671228, "lat": 12.1424245, "lon": 125.2092934, "tags": {"name": "Carayacay", "place": "village"}}, {"type": "node", "id": 6126796785, "lat": 12.0670394, "lon": 125.3576989, "tags": {"is_in:barangay": "Santa Cruz", "is_in:municipality": "Dolores", "name": "Bongo", "place": "hamlet"}}, {"type": "node", "id": 6180959756, "lat": 11.9701719, "lon": 125.3107189, "tags": {"admin_level": "10", "admin_type:PH": "barangay", "is_in:town": "Can-avid", "name": "Salvacion", "place": "village", "source:name": "extrapolated from OSMaPaaralan, way/906736161"}}, {"type": "node", "id": 6180959757, "lat": 11.9974824, "lon": 125.3585302, "tags": {"admin_level": "10", "designation": "barangay", "is_in:town": "Can-avid", "name": "Baruk", "place": "village", "source:name": "extrapolated from OSMaPaaralan, way/316201190"}}, {"type": "node", "id": 6180959768, "lat": 11.9854252, "lon": 125.3587892, "tags": {"admin_level": "10", "designation": "barangay", "is_in:town": "Can-avid", "is_in:village": "?", "name": "Camantang", "place": "village", "source:name": "extrapolated from OSMaPaaralan"}}, {"type": "node", "id": 6180959887, "lat": 11.990249, "lon": 125.3809244, "tags": {"name": "Mabuhay", "place": "village"}}, {"type": "node", "id": 6180959888, "lat": 11.9962508, "lon": 125.4197872, "tags": {"name": "Malogo", "place": "village"}}, {"type": "node", "id": 6180959908, "lat": 11.9968864, "lon": 125.4483786, "tags": {"admin_subdivisions": "10 barangays", "alt_name": "Can-avid Poblacion", "is_in:municipality": "Can-avid", "name": "Poblacion", "place": "suburb", "postal_code": "6806"}}, {"type": "node", "id": 6180959909, "lat": 12.0161284, "lon": 125.4700073, "tags": {"admin_level": "10", "designation": "barangay", "is_in:town": "Can-avid", "name": "Rawis", "place": "village", "source:name": "extrapolated from OSMaPaaralan, way/783545532"}}, {"type": "node", "id": 6180959933, "lat": 12.0537382, "lon": 125.4252863, "tags": {"admin_level": "11", "name": "Matanos", "place": "hamlet"}}, {"type": "node", "id": 6180959954, "lat": 12.0440253, "lon": 125.3662286, "tags": {"name": "Sitio Lumacoy", "place": "hamlet"}}, {"type": "node", "id": 6180959955, "lat": 12.0516314, "lon": 125.3177847, "tags": {"name": "Gap-ang", "place": "village"}}, {"type": "node", "id": 6180959956, "lat": 12.0730592, "lon": 125.3454153, "tags": {"admin_level": "10", "admin_type:PH": "barangay", "is_in:town": "Dolores", "name": "Santa Cruz", "old_ref": "082606042", "place": "village", "population": "542", "population:2015": "583", "ref": "0802606042", "source:population": "Philippine Statistics Authority"}}, {"type": "node", "id": 6180959957, "lat": 12.0885258, "lon": 125.3332033, "tags": {"admin_level": "10", "is_in:town": "Dolores", "name": "San Roque", "place": "village", "place:PH": "barangay", "source:name": "extrapolated from OSMaPaaralan, way/861342986"}}, {"type": "node", "id": 6180959958, "lat": 12.0961269, "lon": 125.3400896, "tags": {"admin_level": "10", "admin_type:PH": "barangay", "alt_name": "Denigpian", "is_in:town": "Dolores", "name": "Denigpi-an", "old_ref": "082606010", "place": "village", "population": "1134", "population:2015": "1027", "ref": "0802606010", "source:name": "extrapolated from OSMaPaaralan, way/861341371", "source:population": "Philippine Statistics Authority"}}, {"type": "node", "id": 6180959959, "lat": 12.1355663, "lon": 125.3170918, "tags": {"admin_level": "11", "designation": "purok", "is_in:town": "Dolores", "is_in:village": "Denigpi-an", "name": "Tamsion", "place": "hamlet", "source:name": "extrapolated from OSMaPaaralan"}}, {"type": "node", "id": 6180959960, "lat": 12.114606, "lon": 125.2718768, "tags": {"admin_level": "10", "admin_type:PH": "barangay", "is_in:town": "Dolores", "name": "San Vicente", "place": "village", "source:name": "extrapolated from OSMaPaaralan, way/954823740"}}, {"type": "node", "id": 6180959961, "lat": 12.1325561, "lon": 125.2597991, "tags": {"admin_level": "11", "name": "Cagsasalang", "place": "neighbourhood", "place:PH": "sitio"}}, {"type": "node", "id": 6183530686, "lat": 12.1163283, "lon": 125.0401068, "tags": {"admin_level": "10", "designation": "barangay", "is_in:town": "San Jose de Buan", "name": "Aguingayan", "place": "hamlet", "source:name": "extrapolated from OSMaPaaralan"}}, {"type": "node", "id": 7305639142, "lat": 12.0773912, "lon": 125.294939, "tags": {"is_in:province": "Eastern Samar", "is_in:town": "Dolores", "name": "Hinolaso", "place": "village"}}, {"type": "node", "id": 7318651920, "lat": 12.0453801, "lon": 125.4214534, "tags": {"is_in:village": "Santo Ni\u00f1o", "name": "Luhang", "place": "neighbourhood"}}, {"type": "node", "id": 7678279152, "lat": 12.3329873, "lon": 125.0482242, "tags": {"name": "San Jorge", "place": "village"}}, {"type": "node", "id": 7990628590, "lat": 12.2719191, "lon": 125.3421901, "tags": {"admin_level": "10", "is_in:town": "Arteche", "name": "Tangbo", "place": "village", "place:PH": "barangay", "source:name": "extrapolated from OSMaPaaralan, way/315948204"}}, {"type": "node", "id": 7990645163, "lat": 12.2717606, "lon": 125.4116379, "tags": {"admin_level": "10", "admin_type:PH": "barangay", "is_in:town": "Arteche", "name": "Buenavista", "place": "village", "source:name": "extrapolated from OSMaPaaralan"}}, {"type": "node", "id": 8027856677, "lat": 12.1293748, "lon": 125.2815977, "tags": {"admin_level": "10", "admin_type:PH": "barangay", "is_in:town": "Dolores", "name": "San Pascual", "place": "village", "source:name": "extrapolated from OSMaPaaralan, way/861353196"}}, {"type": "node", "id": 8027979793, "lat": 12.1511864, "lon": 125.3127167, "tags": {"admin_level": "11", "designation": "sitio", "is_in:town": "Dolores", "is_in:village": "Denigpi-an", "name": "Kasapa", "place": "hamlet", "source:name": "extrapolated from OSMaPaaralan"}}, {"type": "node", "id": 8163150117, "lat": 12.0543437, "lon": 125.4370565, "tags": {"admin_level": "10", "admin_type:PH": "barangay", "is_in:town": "Dolores", "name": "Santo Ni\u00f1o", "old_ref": "082606043", "place": "village", "population": "966", "population:2015": "993", "ref": "0802606043", "source:population": "Philippine Statistics Authority"}}, {"type": "node", "id": 8226221159, "lat": 12.2957525, "lon": 125.03171, "tags": {"admin_level": "10", "designation": "barangay", "is_in:town": "Las Navas", "name": "Del Pilar", "place": "village", "source:name": "extrapolated from OSMaPaaralan, way/884572295"}}, {"type": "node", "id": 8236299916, "lat": 12.3431975, "lon": 125.035223, "tags": {"admin_level": "10", "designation": "barangay", "is_in:town": "Las Navas", "name": "Rebong", "place": "village", "source:name": "extrapolated from OSMaPaaralan, way/885744397"}}, {"type": "node", "id": 8236570515, "lat": 12.3694655, "lon": 125.0420437, "tags": {"name": "Mag-ongon 1", "place": "village"}}, {"type": "node", "id": 8239124361, "lat": 12.3843595, "lon": 125.0641445, "tags": {"name": "Cagugubngan", "place": "village"}}, {"type": "node", "id": 8239133872, "lat": 12.3801611, "lon": 125.075386, "tags": {"name": "Osme\u00f1a", "place": "village"}}, {"type": "node", "id": 8239149952, "lat": 12.3975217, "lon": 125.1297498, "tags": {"name": "Roxas", "place": "village"}}, {"type": "node", "id": 8239510914, "lat": 12.3441783, "lon": 125.10284, "tags": {"admin_level": "10", "designation": "barangay", "is_in:town": "Las Navas", "name": "Bulao", "place": "village", "source:name": "extrapolated from OSMaPaaralan, way/886109998"}}, {"type": "node", "id": 8239522019, "lat": 12.3408499, "lon": 125.0520743, "tags": {"name": "Santo Tomas", "place": "village"}}, {"type": "node", "id": 8239522059, "lat": 12.3203639, "lon": 125.0905368, "tags": {"admin_level": "10", "designation": "barangay", "is_in:town": "Las Navas", "name": "Magsaysay", "place": "village", "source:name": "extrapolated from OSMaPaaralan, way/884572348"}}, {"type": "node", "id": 8239538028, "lat": 12.3150792, "lon": 125.0367596, "tags": {"name": "San Fernando", "place": "village"}}, {"type": "node", "id": 8416950506, "lat": 11.9923527, "lon": 125.033139, "tags": {"name": "Babaclayon", "place": "village"}}, {"type": "node", "id": 8416953267, "lat": 11.965793, "lon": 125.0454874, "tags": {"admin_level": "10", "admin_type:PH": "barangay", "is_in:town": "Motiong", "name": "Canvais", "old_ref": "086012011", "place": "hamlet", "population": "299", "population:2015": "291", "ref": "0806012011", "source:population": "Philippine Statistics Authority"}}, {"type": "node", "id": 8416970457, "lat": 11.9764702, "lon": 125.0282924, "tags": {"name": "Caranas", "place": "village"}}, {"type": "node", "id": 8416977838, "lat": 12.0018643, "lon": 125.0334158, "tags": {"name": "Hiduroma", "place": "village"}}, {"type": "node", "id": 8416983224, "lat": 12.0067618, "lon": 125.0383458, "tags": {"name": "Hilumot", "place": "village"}}, {"type": "node", "id": 8420910287, "lat": 12.3106915, "lon": 125.2223571, "tags": {"fixme": "name", "place": "hamlet"}}, {"type": "node", "id": 8420910288, "lat": 12.3165182, "lon": 125.2252927, "tags": {"designation": "barangay", "is_in:town": "Jipapad", "name": "Magsaysay", "place": "hamlet", "source:name": "extrapolated from OSMaPaaralan"}}, {"type": "node", "id": 8424064366, "lat": 12.0295065, "lon": 125.0346833, "tags": {"name": "San Nicolas", "place": "village"}}, {"type": "node", "id": 8424067560, "lat": 12.1079721, "lon": 125.0519899, "tags": {"admin_level": "10", "admin_type:PH": "barangay", "is_in:town": "San Jose de Buan", "name": "Gusa", "old_ref": "086014006", "place": "hamlet", "population": "388", "population:2015": "347", "ref": "0806014006", "source:name": "extrapolated from OSMaPaaralan", "source:population": "Philippine Statistics Authority"}}, {"type": "node", "id": 8436500982, "lat": 11.9641648, "lon": 125.0682491, "tags": {"admin_level": "10", "admin_type:PH": "barangay", "designation": "barangay", "is_in:town": "Paranas", "name": "Santo Ni\u00f1o", "old_ref": "086022040", "place": "hamlet", "population": "203", "population:2015": "229", "ref": "0806022040", "source:name": "extrapolated from OSMaPaaralan, way/955166772", "source:population": "Philippine Statistics Authority"}}, {"type": "node", "id": 8444318211, "lat": 12.2601313, "lon": 125.2623971, "tags": {"admin_level": "10", "designation": "barangay", "is_in:town": "Arteche", "name": "Bigo", "place": "hamlet", "source:name": "extrapolated from OSMaPaaralan, way/316167297"}}, {"type": "node", "id": 8444388668, "lat": 12.2417061, "lon": 125.3164838, "tags": {"admin_level": "10", "designation": "barangay", "is_in:town": "Oras", "name": "Gamot", "place": "village", "source:name": "extrapolated from OSMaPaaralan"}}, {"type": "node", "id": 8444465925, "lat": 12.2126745, "lon": 125.3957672, "tags": {"admin_level": "11", "designation": "sitio", "is_in:town": "Oras", "is_in:village": "Cadi-an", "name": "Libon", "place": "hamlet", "source:name": "extrapolated from OSMaPaaralan"}}, {"type": "node", "id": 8444549935, "lat": 12.4036777, "lon": 125.2104963, "tags": {"fixme": "name", "place": "hamlet"}}, {"type": "node", "id": 8444555109, "lat": 12.2261565, "lon": 125.3153667, "tags": {"is_in:town": "Oras", "is_in:village": "Balingasag", "name": "Zone 1", "place": "neighbourhood", "source:name": "extrapolated from OSMaPaaralan, way/909500209"}}, {"type": "node", "id": 8495439722, "lat": 12.0596019, "lon": 125.2712851, "tags": {"name": "Osme\u00f1a", "place": "hamlet"}}, {"type": "node", "id": 8495451498, "lat": 12.0616693, "lon": 125.3745693, "tags": {"admin_level": "10", "is_in:town": "Dolores", "name": "Caglao-an", "place": "village", "place:PH": "barangay"}}, {"type": "node", "id": 8495463996, "lat": 12.0159097, "lon": 125.4153135, "tags": {"name": "Solong", "place": "village"}}, {"type": "node", "id": 8495494825, "lat": 12.0331049, "lon": 125.4618876, "tags": {"name": "Malaintos", "place": "village"}}, {"type": "node", "id": 8495670994, "lat": 12.1485669, "lon": 125.4112411, "tags": {"admin_level": "10", "designation": "barangay", "is_in:town": "Oras", "name": "Binalayan", "place": "village", "source:name": "extrapolated from OSMaPaaralan"}}, {"type": "node", "id": 8495682439, "lat": 12.1463434, "lon": 125.4540562, "tags": {"name": "Pangudtan", "place": "village"}}, {"type": "node", "id": 8495686620, "lat": 12.1741319, "lon": 125.3682624, "tags": {"name": "Naga", "place": "village"}}, {"type": "node", "id": 8495691233, "lat": 12.1381432, "lon": 125.4442433, "tags": {"name": "Balocawe", "place": "village"}}, {"type": "node", "id": 8495704154, "lat": 12.1695499, "lon": 125.4598331, "tags": {"name": "Sabang", "place": "village"}}, {"type": "node", "id": 8495704360, "lat": 12.1772267, "lon": 125.4334371, "tags": {"name": "Saurong", "place": "village"}}, {"type": "node", "id": 8495942756, "lat": 12.1896187, "lon": 125.401027, "tags": {"admin_level": "10", "admin_type:PH": "barangay", "is_in:town": "Oras", "name": "Iwayan", "place": "village"}}, {"type": "node", "id": 8495946347, "lat": 12.1728426, "lon": 125.3890779, "tags": {"admin_level": "10", "admin_type:PH": "barangay", "is_in:town": "Oras", "name": "Agsam", "place": "village"}}, {"type": "node", "id": 8495946713, "lat": 12.2014106, "lon": 125.3685465, "tags": {"admin_level": "10", "admin_type:PH": "barangay", "is_in:town": "Oras", "name": "Cagdine", "place": "village"}}, {"type": "node", "id": 8495960741, "lat": 12.2065597, "lon": 125.3610208, "tags": {"admin_level": "10", "admin_type:PH": "barangay", "is_in:town": "Oras", "name": "Batang", "place": "village"}}, {"type": "node", "id": 8498687760, "lat": 12.2296857, "lon": 125.3566291, "tags": {"admin_level": "10", "admin_type:PH": "barangay", "is_in:town": "Oras", "name": "Rizal", "place": "village"}}, {"type": "node", "id": 8498707308, "lat": 12.1685034, "lon": 125.2579363, "tags": {"admin_level": "10", "admin_type:PH": "barangay", "is_in:town": "Maslog", "name": "Maputi", "place": "village"}}, {"type": "node", "id": 8498714592, "lat": 12.2635773, "lon": 125.1871788, "tags": {"admin_level": "10", "admin_type:PH": "barangay", "is_in:town": "Jipapad", "name": "Cagmanaba", "old_ref": "082611007", "place": "village", "population": "927", "population:2015": "955", "ref": "0802611007", "source:population": "Philippine Statistics Authority"}}, {"type": "node", "id": 8498726172, "lat": 12.2769955, "lon": 125.1999672, "tags": {"admin_level": "10", "admin_type:PH": "barangay", "is_in:town": "Jipapad", "name": "San Roque", "place": "village"}}, {"type": "node", "id": 8498728767, "lat": 12.2125453, "lon": 125.2393627, "tags": {"name": "San Roque", "place": "hamlet"}}, {"type": "node", "id": 8498728771, "lat": 12.1938116, "lon": 125.2397336, "tags": {"admin_level": "10", "admin_type:PH": "barangay", "alt_name": "Togas", "is_in:town": "Maslog", "name": "Tugas", "place": "village", "source:name": "extrapolated from OSMaPaaralan"}}, {"type": "node", "id": 8498728772, "lat": 12.1854443, "lon": 125.2495287, "tags": {"admin_level": "10", "admin_type:PH": "barangay", "is_in:town": "Maslog", "name": "Libertad", "place": "village"}}, {"type": "node", "id": 8498740522, "lat": 12.2892531, "lon": 125.210715, "tags": {"admin_level": "11", "admin_type:PH": "sitio", "is_in:town": "Jipapad", "is_in:village": "Barangay 1", "name": "Casapa", "place": "neighbourhood"}}, {"type": "node", "id": 8502220638, "lat": 12.303392, "lon": 125.2019715, "tags": {"admin_level": "10", "admin_type:PH": "barangay", "is_in:town": "Jipapad", "name": "Mabuhay", "old_ref": "082611013", "place": "village", "population": "527", "population:2015": "463", "ref": "0802611013", "source:population": "Philippine Statistics Authority"}}, {"type": "node", "id": 8502243898, "lat": 12.2721384, "lon": 125.2767669, "tags": {"admin_level": "10", "admin_type:PH": "barangay", "is_in:town": "Lapinig", "name": "Bagacay", "old_ref": "084809002", "place": "hamlet", "population": "365", "ref": "0804809002", "source:name": "extrapolated from OSMaPaaralan", "source:population": "Philippine Statistics Authority"}}, {"type": "node", "id": 8780120240, "lat": 12.4018374, "lon": 125.3223096, "tags": {"admin_level": "10", "admin_type:PH": "barangay", "designation": "barangay", "is_in:town": "Gamay", "name": "Dao", "old_ref": "084807010", "place": "village", "population": "1016", "population:2015": "1100", "ref": "0804807010", "source:name": "extrapolated from OSMaPaaralan", "source:population": "Philippine Statistics Authority"}}, {"type": "node", "id": 8780339566, "lat": 12.3375807, "lon": 125.2606764, "tags": {"admin_level": "10", "designation": "barangay", "is_in:town": "Lapinig", "name": "Pio del Pilar", "place": "village", "source:name": "extrapolated from OSMaPaaralan"}}, {"type": "node", "id": 8780347586, "lat": 12.3227987, "lon": 125.2686399, "tags": {"admin_level": "10", "alt_name": "Can Omanio", "designation": "barangay", "is_in:town": "Lapinig", "name": "Can-omanio", "place": "village", "source:name": "extrapolated from OSMaPaaralan, way/884971698"}}, {"type": "node", "id": 8780367014, "lat": 12.3390952, "lon": 125.2480929, "tags": {"admin_level": "10", "designation": "barangay", "is_in:town": "Lapinig", "name": "Can Maria", "place": "village", "source:name": "extrapolated from OSMaPaaralan"}}, {"type": "node", "id": 8783904173, "lat": 12.3005878, "lon": 125.3231209, "tags": {"designation": "barangay", "is_in:town": "Lapinig", "is_in:village": "?", "name": "Mabini", "place": "village", "source:name": "extrapolated from OSMaPaaralan, way/452960253"}}, {"type": "node", "id": 8783944576, "lat": 12.2496059, "lon": 125.2302328, "tags": {"designation": "barangay", "is_in:town": "Jipapad", "name": "Dorillo", "place": "hamlet", "source:name": "extrapolated from OSMaPaaralan"}}, {"type": "node", "id": 8810213433, "lat": 12.4021557, "lon": 125.0567199, "tags": {"admin_level": "10", "designation": "barangay", "is_in:town": "Catubig", "name": "Canuctan", "place": "hamlet", "source:name": "extrapolated from OSMaPaaralan, way/886884662"}}, {"type": "node", "id": 8810222254, "lat": 12.374905, "lon": 125.1331307, "tags": {"admin_level": "10", "alt_name": "Hitapian", "designation": "barangay", "is_in:town": "Catubig", "name": "Hitapi-an", "place": "village", "source:name": "extrapolated from OSMaPaaralan, way/951848096"}}, {"type": "node", "id": 8810234628, "lat": 12.3879321, "lon": 125.0542134, "tags": {"admin_level": "10", "alt_name": "Guibwangan", "designation": "barangay", "is_in:town": "Catubig", "name": "Guibuangan", "place": "village", "source:name": "extrapolated from OSMaPaaralan"}}, {"type": "node", "id": 8810244181, "lat": 12.3744754, "lon": 125.0994046, "tags": {"admin_level": "11", "designation": "purok", "is_in:quarter": "San Jose", "is_in:town": "Catubig", "is_in:village": "?", "name": "Purok 11", "place": "neighbourhood", "source:name": "extrapolated from OSMaPaaralan"}}, {"type": "node", "id": 8810244182, "lat": 12.3945469, "lon": 125.0992423, "tags": {"admin_level": "10", "designation": "barangay", "is_in:town": "Catubig", "name": "Claro M. Recto", "old_name": "Lubedico", "place": "village", "short_name": "C.M. Recto", "source:name": "extrapolated from OSMaPaaralan"}}, {"type": "node", "id": 8810386116, "lat": 12.3222871, "lon": 125.1468354, "tags": {"admin_level": "10", "designation": "barangay", "is_in:town": "Catubig", "name": "Hinagonoyan", "place": "village", "source:name": "extrapolated from OSMaPaaralan, way/951854043"}}, {"type": "node", "id": 8816156258, "lat": 12.3720095, "lon": 125.2075574, "tags": {"admin_level": "10", "designation": "barangay", "is_in:town": "Gamay", "name": "Rizal", "place": "village", "source:name": "extrapolated from OSMaPaaralan, way/952520789"}}, {"type": "node", "id": 8816159069, "lat": 12.3860822, "lon": 125.2135353, "tags": {"admin_level": "10", "admin_type:PH": "barangay", "designation": "barangay", "is_in:town": "Gamay", "name": "Luneta", "old_ref": "084807015", "place": "hamlet", "population": "295", "population:2015": "314", "ref": "0804807015", "source:name": "extrapolated from OSMaPaaralan", "source:population": "Philippine Statistics Authority"}}, {"type": "node", "id": 8816159080, "lat": 12.3762921, "lon": 125.2299944, "tags": {"admin_level": "10", "designation": "barangay", "is_in:town": "Gamay", "name": "Malidong", "place": "village", "source:name": "extrapolated from OSMaPaaralan"}}, {"type": "node", "id": 8816187262, "lat": 12.3599293, "lon": 125.2240808, "tags": {"admin_level": "10", "admin_type:PH": "barangay", "is_in:town": "Gamay", "name": "G.M. Osias", "place": "village", "source:name": "extrapolated from OSMaPaaralan, way/952523239"}}, {"type": "node", "id": 8816198631, "lat": 12.357894, "lon": 125.2112761, "tags": {"admin_level": "10", "designation": "barangay", "is_in:town": "Gamay", "name": "Lonoy", "place": "hamlet", "source:name": "extrapolated from OSMaPaaralan, way/952522549"}}, {"type": "node", "id": 8816497781, "lat": 12.3696112, "lon": 125.0668198, "tags": {"admin_level": "10", "designation": "barangay", "is_in:town": "Catubig", "is_in:village": "?", "name": "Libon", "place": "village", "source:name": "extrapolated from OSMaPaaralan, way/885783397"}}, {"type": "node", "id": 8816594522, "lat": 12.2664912, "lon": 125.0333512, "tags": {"admin_level": "10", "designation": "barangay", "is_in:town": "Las Navas", "name": "San Jose", "place": "hamlet", "source:name": "extrapolated from OSMaPaaralan"}}, {"type": "node", "id": 8816594524, "lat": 12.2700143, "lon": 125.0392565, "tags": {"admin_level": "10", "designation": "barangay", "is_in:town": "Las Navas", "name": "Epaw", "place": "hamlet", "source:name": "extrapolated from OSMaPaaralan, way/886845326"}}, {"type": "node", "id": 8816675148, "lat": 12.2680685, "lon": 125.0545517, "tags": {"admin_level": "11", "designation": "purok", "is_in:town": "Las Navas", "is_in:village": "San Isidro", "name": "Purok 5", "place": "neighbourhood", "source:name": "extrapolated from OSMaPaaralan"}}, {"type": "node", "id": 8819256845, "lat": 12.3077177, "lon": 125.0729308, "tags": {"admin_level": "10", "designation": "barangay", "is_in:town": "Las Navas", "name": "San Antonio", "place": "village", "source:name": "extrapolated from OSMaPaaralan, way/886836938"}}, {"type": "node", "id": 8819256894, "lat": 12.2929983, "lon": 125.0692328, "tags": {"admin_level": "10", "designation": "barangay", "is_in:town": "Las Navas", "name": "H. Jolejole", "place": "village", "source:name": "extrapolated from OSMaPaaralan"}}, {"type": "node", "id": 8819269238, "lat": 12.2922275, "lon": 125.1377358, "tags": {"admin_level": "10", "designation": "barangay", "is_in:town": "Las Navas", "name": "San Francisco", "place": "village", "source:name": "extrapolated from OSMaPaaralan, way/886838020"}}, {"type": "node", "id": 8819289042, "lat": 12.3024628, "lon": 125.1200107, "tags": {"admin_level": "10", "designation": "barangay", "is_in:town": "Las Navas", "name": "Quirino", "place": "village", "source:name": "extrapolated from OSMaPaaralan, way/886837483"}}, {"type": "node", "id": 8819289107, "lat": 12.2912873, "lon": 125.1028987, "tags": {"admin_level": "10", "designation": "barangay", "is_in:town": "Las Navas", "name": "Imelda", "place": "hamlet", "source:name": "extrapolated from OSMaPaaralan, way/952825712"}}, {"type": "node", "id": 8819387235, "lat": 12.3236535, "lon": 125.1319007, "tags": {"admin_level": "10", "designation": "barangay", "is_in:town": "Las Navas", "name": "E. Perez", "place": "village", "source:name": "extrapolated from OSMaPaaralan, way/886837924"}}, {"type": "node", "id": 8837276391, "lat": 12.0031598, "lon": 125.4041116, "tags": {"admin_level": "10", "designation": "barangay", "is_in:town": "Can-avid", "name": "Obong", "place": "hamlet", "source:name": "extrapolated from OSMaPaaralan, way/317143689"}}, {"type": "node", "id": 8837414817, "lat": 12.0345568, "lon": 125.3076526, "tags": {"admin_level": "11", "designation": "sitio", "is_in:quarter": "Magongbong", "is_in:town": "Dolores", "name": "Ipil", "place": "hamlet", "source:name": "extrapolated from OSMaPaaralan, way/954791953"}}, {"type": "node", "id": 8837414850, "lat": 12.0388563, "lon": 125.2907091, "tags": {"admin_level": "10", "designation": "barangay", "is_in:town": "Dolores", "name": "Magongbong", "place": "village", "source:name": "extrapolated from OSMaPaaralan, way/954792093"}}, {"type": "node", "id": 8837414902, "lat": 12.0582962, "lon": 125.3000003, "tags": {"fixme": "name", "place": "hamlet"}}, {"type": "node", "id": 8837415009, "lat": 12.0623304, "lon": 125.3068748, "tags": {"fixme": "name", "place": "hamlet"}}, {"type": "node", "id": 8837415010, "lat": 12.0604717, "lon": 125.2896829, "tags": {"admin_level": "10", "designation": "barangay", "is_in:town": "Dolores", "name": "Gap-ang", "place": "village", "source:name": "extrapolated from OSMaPaaralan, way/954787188"}}, {"type": "node", "id": 8837422874, "lat": 12.0029892, "lon": 125.3454973, "tags": {"fixme": "name", "place": "hamlet"}}, {"type": "node", "id": 8837529902, "lat": 12.0774331, "lon": 125.4331411, "tags": {"admin_level": "10", "designation": "barangay", "is_in:town": "Oras", "name": "Bagacay", "place": "village", "source:name": "extrapolated from OSMaPaaralan, way/954802704"}}, {"type": "node", "id": 8837739751, "lat": 12.1317984, "lon": 125.2599905, "tags": {"admin_level": "10", "designation": "barangay", "is_in:town": "Dolores", "is_in:village": "?", "name": "Del Pilar", "place": "village", "source:name": "extrapolated from OSMaPaaralan, way/954822793"}}, {"type": "node", "id": 8837949601, "lat": 12.2630079, "lon": 125.4199071, "tags": {"admin_level": "10", "designation": "barangay", "is_in:town": "San Policarpo", "name": "Tabo", "place": "village", "source:name": "extrapolated from OSMaPaaralan, way/954848995"}}, {"type": "node", "id": 8837970856, "lat": 12.159227, "lon": 125.2618365, "tags": {"admin_level": "10", "designation": "barangay", "is_in:town": "Maslog", "name": "Malobago", "place": "hamlet", "source:name": "extrapolated from OSMaPaaralan, way/954850810"}}, {"type": "node", "id": 8838031952, "lat": 12.1467983, "lon": 125.2600287, "tags": {"admin_level": "10", "admin_type:PH": "barangay", "designation": "barangay", "is_in:town": "Maslog", "name": "Bulawan", "old_ref": "082614001", "place": "hamlet", "population": "317", "population:2015": "289", "ref": "0802614001", "source:name": "extrapolated from OSMaPaaralan, way/954853634", "source:population": "Philippine Statistics Authority"}}, {"type": "node", "id": 8838031961, "lat": 12.143219, "lon": 125.2662192, "tags": {"admin_level": "10", "admin_type:PH": "barangay", "is_in:town": "Maslog", "name": "Tangbo", "old_ref": "082614012", "place": "hamlet", "population": "206", "population:2015": "244", "ref": "0802614012", "source:name": "extrapolated from OSMaPaaralan", "source:population": "Philippine Statistics Authority"}}, {"type": "node", "id": 8838086847, "lat": 12.0292564, "lon": 125.0347312, "tags": {"admin_level": "10", "designation": "barangay", "is_in:town": "San Jose de Buan", "name": "Hibaca-an", "place": "village", "source:name": "extrapolated from OSMaPaaralan, way/954859716"}}, {"type": "node", "id": 8855448415, "lat": 12.3864094, "lon": 125.2917237, "tags": {"admin_level": "10", "designation": "barangay", "is_in:town": "Gamay", "name": "Burabod", "place": "neighbourhood", "source:name": "extrapolated from OSMaPaaralan, way/884975221"}}, {"type": "node", "id": 8855448416, "lat": 12.385907, "lon": 125.2988268, "tags": {"admin_level": "10", "designation": "barangay", "is_in:town": "Gamay", "name": "Gamay Occidental \u2161", "place": "neighbourhood", "source:name": "extrapolated from OSMaPaaralan"}}, {"type": "node", "id": 8855516928, "lat": 12.3853186, "lon": 125.3023218, "tags": {"admin_level": "10", "designation": "barangay", "is_in:town": "Gamay", "name": "Gamay Oriental \u2161", "place": "neighbourhood", "source:name": "extrapolated from OSMaPaaralan"}}, {"type": "node", "id": 9009450101, "lat": 12.2695499, "lon": 125.371313, "tags": {"admin_level": "6", "is_in:province": "Eastern Samar", "name": "Arteche", "place": "town", "place:PH": "municipality", "wikidata": "Q313880", "wikimedia_commons": "Category:Arteche", "wikipedia": "en:Arteche"}}, {"type": "node", "id": 9119074701, "lat": 11.9863629, "lon": 125.4400673}, {"type": "node", "id": 9119074702, "lat": 11.9860979, "lon": 125.4402512}, {"type": "node", "id": 9119074703, "lat": 11.986957, "lon": 125.4414182}, {"type": "node", "id": 9119074704, "lat": 11.9868862, "lon": 125.44153}, {"type": "node", "id": 9119074705, "lat": 11.9869496, "lon": 125.4420608}, {"type": "node", "id": 9125205367, "lat": 11.9566062, "lon": 125.4265024}, {"type": "node", "id": 9125205368, "lat": 11.9569699, "lon": 125.4268852}, {"type": "node", "id": 9125205369, "lat": 11.9573312, "lon": 125.427571}, {"type": "node", "id": 9125205370, "lat": 11.9575238, "lon": 125.4280111}, {"type": "node", "id": 9125205371, "lat": 11.9578143, "lon": 125.4282438}, {"type": "node", "id": 9125205372, "lat": 11.9584671, "lon": 125.4285992}, {"type": "node", "id": 9125205373, "lat": 11.9589705, "lon": 125.4290263}, {"type": "node", "id": 9125205374, "lat": 11.9585841, "lon": 125.4267769}, {"type": "node", "id": 9125205375, "lat": 11.9559562, "lon": 125.426189}, {"type": "node", "id": 9267124758, "lat": 12.1441918, "lon": 125.4379946, "tags": {"admin_level": "10", "name": "San Roque", "place": "village", "postal_code": "6802"}}, {"type": "node", "id": 9281267233, "lat": 11.9538002, "lon": 125.4264254}, {"type": "node", "id": 9281267234, "lat": 11.9539506, "lon": 125.425891}, {"type": "node", "id": 9281267235, "lat": 11.9539327, "lon": 125.4257537}, {"type": "node", "id": 9281267236, "lat": 11.9540214, "lon": 125.4255722}, {"type": "node", "id": 9281267237, "lat": 11.9540066, "lon": 125.425439}, {"type": "node", "id": 9281267238, "lat": 11.954315, "lon": 125.4251502}, {"type": "node", "id": 9281267239, "lat": 11.9544337, "lon": 125.4250695}, {"type": "node", "id": 9281267242, "lat": 11.9543266, "lon": 125.4262373}, {"type": "node", "id": 9281267243, "lat": 11.9547139, "lon": 125.4240595}, {"type": "node", "id": 9281267244, "lat": 11.9547858, "lon": 125.4238933}, {"type": "node", "id": 9281267245, "lat": 11.9547595, "lon": 125.4237511}, {"type": "node", "id": 9281267246, "lat": 11.9548415, "lon": 125.42362}, {"type": "node", "id": 9281267247, "lat": 11.9549757, "lon": 125.4235481}, {"type": "node", "id": 9281267248, "lat": 11.9550764, "lon": 125.4235359}, {"type": "node", "id": 9281267256, "lat": 11.9545533, "lon": 125.4248505}, {"type": "node", "id": 9281267271, "lat": 11.9581928, "lon": 125.4259628}, {"type": "node", "id": 9281267272, "lat": 11.9580744, "lon": 125.4262456}, {"type": "node", "id": 9281267273, "lat": 11.9579367, "lon": 125.4265}, {"type": "node", "id": 9281267274, "lat": 11.9579888, "lon": 125.4266572}, {"type": "node", "id": 9281267275, "lat": 11.9580939, "lon": 125.4267087}, {"type": "node", "id": 9281267276, "lat": 11.9582993, "lon": 125.4265828}, {"type": "node", "id": 9281267277, "lat": 11.9588061, "lon": 125.4271348}, {"type": "node", "id": 9281267278, "lat": 11.9597863, "lon": 125.4282957}, {"type": "node", "id": 9281344023, "lat": 11.9660493, "lon": 125.4349599}, {"type": "node", "id": 9281344024, "lat": 11.9662817, "lon": 125.4349139}, {"type": "node", "id": 9281344025, "lat": 11.966334, "lon": 125.4350408}, {"type": "node", "id": 9281344026, "lat": 11.966254, "lon": 125.4352055}, {"type": "node", "id": 9281344027, "lat": 11.9664798, "lon": 125.4353913}, {"type": "node", "id": 9281344028, "lat": 11.9668327, "lon": 125.4354381}, {"type": "node", "id": 9281344029, "lat": 11.967034, "lon": 125.4355251}, {"type": "node", "id": 9281344030, "lat": 11.9670451, "lon": 125.4357338}, {"type": "node", "id": 9281344031, "lat": 11.966781, "lon": 125.4364849}, {"type": "node", "id": 9281344032, "lat": 11.967025, "lon": 125.4365259}, {"type": "node", "id": 9281344033, "lat": 11.9672155, "lon": 125.436828}, {"type": "node", "id": 9281344034, "lat": 11.9669687, "lon": 125.4371316}, {"type": "node", "id": 9281344035, "lat": 11.965205, "lon": 125.4369732}, {"type": "node", "id": 9281344036, "lat": 11.9651719, "lon": 125.4364925}, {"type": "node", "id": 9281344107, "lat": 11.9793579, "lon": 125.4414596}, {"type": "node", "id": 9281344108, "lat": 11.9800853, "lon": 125.442415}, {"type": "node", "id": 9281344109, "lat": 11.9808394, "lon": 125.4421899}, {"type": "node", "id": 9281344110, "lat": 11.9796086, "lon": 125.4435667}, {"type": "node", "id": 9281344111, "lat": 11.9799599, "lon": 125.4441017}, {"type": "node", "id": 9281344112, "lat": 11.9787857, "lon": 125.4440954}, {"type": "node", "id": 9281344113, "lat": 11.9798674, "lon": 125.4435909}, {"type": "node", "id": 9281344114, "lat": 11.9781828, "lon": 125.4431871}, {"type": "node", "id": 9281344115, "lat": 11.9777257, "lon": 125.4432384}, {"type": "node", "id": 9281344116, "lat": 11.9776034, "lon": 125.4418203}, {"type": "node", "id": 9281344117, "lat": 11.9783888, "lon": 125.4414719}, {"type": "node", "id": 10960916247, "lat": 12.3707949, "lon": 125.0529614, "tags": {"admin_level": "10", "admin_type:PH": "barangay", "alt_name": "Inuboran", "is_in:town": "Catubig", "name": "Inoburan", "old_ref": "084806016", "place": "hamlet", "population": "155", "population:2015": "129", "ref": "0804806016", "source:population": "Philippine Statistics Authority"}}, {"type": "node", "id": 11121204401, "lat": 12.2939182, "lon": 125.3578931, "tags": {"admin_level": "10", "admin_type:PH": "barangay", "is_in:town": "Arteche", "name": "Beri", "place": "village"}}, {"type": "node", "id": 12174240174, "lat": 12.142539, "lon": 125.4312773, "tags": {"admin_level": "10", "admin_type:PH": "barangay", "is_in:town": "Oras", "name": "Palaypayon", "old_ref": "082617031", "place": "village", "population": "3382", "ref": "0802617031", "source:population": "Philippine Statistics Authority"}}, {"type": "node", "id": 12174252630, "lat": 12.1478228, "lon": 125.42743, "tags": {"admin_level": "10", "admin_type:PH": "barangay", "is_in:town": "Oras", "name": "San Roque", "old_ref": "082617046", "place": "village", "population": "2237", "ref": "0802617046", "source:population": "Philippine Statistics Authority"}}, {"type": "node", "id": 12174260308, "lat": 12.1345496, "lon": 125.4372289, "tags": {"admin_level": "10", "admin_type:PH": "barangay", "name": "Tawagan", "old_ref": "082617041", "place": "village", "population": "1562", "ref": "0802617041", "source:population": "Philippine Statistics Authority"}}, {"type": "node", "id": 12408552426, "lat": 12.0572994, "lon": 125.419187, "tags": {"name": "Buhanon", "place": "hamlet"}}, {"type": "way", "id": 309026172, "nodes": [3143347607, 3143347608, 3143347609, 3143347610, 3148775180, 3143347611, 3143347612, 3143347613, 9119074705, 9119074704, 9119074703, 3143347614, 9119074702, 9119074701, 3143347615, 3148775174, 3143347616, 3143347617, 3143347619, 3143347618, 3143347607], "tags": {"name": "Malinao", "place": "village"}}, {"type": "way", "id": 316008569, "nodes": [3221281003, 3221281004, 3221281005, 3221281006, 3221281007, 3221281008, 3221281009, 3221281010, 3221281011, 3221281012, 3221281013, 3221281014, 3221281015, 3221281016, 3221281017, 3221281018, 3221281019, 3221281020, 3221281021, 3221281022, 3221281023, 3221281024, 9281344036, 3221281025, 9281344035, 3221281026, 3221281027, 3221281028, 3221281029, 9281344034, 9281344033, 9281344032, 9281344031, 3221594761, 9281344030, 9281344029, 9281344028, 9281344027, 9281344026, 9281344025, 9281344024, 9281344023, 3221281003], "tags": {"name": "Cansangya", "place": "village"}}, {"type": "way", "id": 316041286, "nodes": [3221583834, 9281267234, 9281267235, 9281267236, 9281267237, 3221583836, 9281267238, 9281267239, 3221583838, 9281267256, 3221583840, 9281267243, 9281267244, 9281267245, 9281267246, 9281267247, 9281267248, 3221583843, 3221583844, 3221583846, 3221583851, 3221583853, 3221583854, 3221583852, 9281267271, 9281267272, 9281267273, 9281267274, 9281267275, 9281267276, 9125205374, 9281267277, 9281267278, 9125205373, 9125205372, 9125205371, 9125205370, 9125205369, 3221583850, 9125205368, 9125205367, 3221583847, 9125205375, 3221583845, 3221583842, 9281267242, 3221583837, 3221583835, 9281267233, 3221583834], "tags": {"name": "SanJuan", "place": "village"}}, {"type": "way", "id": 449486698, "nodes": [4464379347, 4464379325, 4464379299, 4464379276, 4464379257, 4464379227, 4464379224, 9281344107, 9281344117, 9281344116, 9281344115, 9281344114, 9281344112, 9281344111, 9281344113, 9281344110, 4464379234, 9281344108, 4464379268, 9281344109, 4464379307, 4464379361, 4464379360, 4464379347], "tags": {"place": "hamlet"}}]}