{"version": 0.6, "generator": "Overpass API 0.7.62.5 1bd436f1", "osm3s": {"timestamp_osm_base": "2025-05-24T18:03:28Z", "copyright": "The data included in this document is from www.openstreetmap.org. The data is made available under ODbL."}, "elements": [{"type": "node", "id": 1789551897, "lat": 8.8395202, "lon": 125.1316381, "tags": {"name": "Daan Lungsod", "place": "village"}}, {"type": "node", "id": 2823779458, "lat": 8.8232748, "lon": 125.1012978, "tags": {"admin_level": "6", "admin_subdivisions": "79 barangays", "admin_type:PH": "component_city", "contact:website": "https://gingoog.gov.ph", "ele": "5", "is_in:province": "Misamis Oriental", "name": "Gingoog", "name:en": "Gingoog", "name:ja": "\u30d2\u30f3\u30b4\u30aa\u30b0", "name:ru": "\u0413\u0438\u043d\u0433\u043e\u043e\u0433", "official_name": "City of Gingoog", "place": "city", "population": "136698", "population:date": "2020-05-01", "postal_code": "9014", "related_law": "Republic Act No. 2668", "start_date": "1750", "wikidata": "Q1525029", "wikimedia_commons": "Category:Gingoog", "wikipedia": "en:Gingoog"}}, {"type": "node", "id": 4835985421, "lat": 8.6624699, "lon": 125.3022067, "tags": {"admin_level": "11", "is_in:town": "Esperanza", "is_in:village": "Guibonon", "name": "Malinawon", "place": "hamlet", "place:PH": "sitio"}}, {"type": "node", "id": 5471271287, "lat": 8.7048072, "lon": 125.1963422, "tags": {"admin_level": "10", "is_in:city": "Gingoog", "name": "Eureka", "place": "village", "place:PH": "barangay"}}, {"type": "node", "id": 5471271288, "lat": 8.7389744, "lon": 125.2000746, "tags": {"admin_level": "11", "name": "Bagasbas", "place": "hamlet", "place:PH": "sitio"}}, {"type": "node", "id": 5471645290, "lat": 8.773864, "lon": 125.1302953, "tags": {"name": "Mimbalagon", "place": "village"}}, {"type": "node", "id": 6090030220, "lat": 8.4526852, "lon": 125.158229, "tags": {"alt_name": "Calabugao", "is_in:municipality": "Impasugong", "name": "Kalabugao", "place": "village", "postal_code": "8702"}}, {"type": "node", "id": 6090216473, "lat": 8.4065319, "lon": 125.011625, "tags": {"admin_level": "10", "admin_type:PH": "barangay", "is_in:municipality": "Impasugong", "name": "Guihean", "place": "village", "postal_code": "8702"}}, {"type": "node", "id": 6092020598, "lat": 8.542223, "lon": 125.0293409, "tags": {"admin_level": "11", "admin_type:PH": "sitio", "is_in:barangay": "San Luis", "is_in:municipality": "Malitbog", "name": "Impahanong", "place": "hamlet", "postal_code": "8704"}}, {"type": "node", "id": 6130981595, "lat": 8.8345533, "lon": 125.1892446, "tags": {"admin_level": "10", "fixme": "verify location", "is_in:city": "Gingoog", "name": "Malinao", "place": "village", "place:PH": "barangay"}}, {"type": "node", "id": 6130981606, "lat": 8.8197847, "lon": 125.1867624, "tags": {"admin_level": "10", "is_in:city": "Gingoog", "name": "Tagpako", "place": "village", "place:PH": "barangay"}}, {"type": "node", "id": 6130981607, "lat": 8.8073114, "lon": 125.1875145, "tags": {"admin_level": "10", "is_in:city": "Gingoog", "name": "Malibud", "place": "village", "place:PH": "barangay"}}, {"type": "node", "id": 6130981664, "lat": 8.7839323, "lon": 125.1904778, "tags": {"admin_level": "10", "is_in:city": "Gingoog", "name": "San Jose", "place": "village", "place:PH": "barangay"}}, {"type": "node", "id": 6131028300, "lat": 8.8381405, "lon": 125.2641079, "tags": {"admin_level": "11", "admin_type:PH": "sitio", "alt_name": "Sioan", "is_in:city": "Gingoog", "is_in:quarter": "Malinao", "name": "Sio-an", "place": "village", "place:PH": "sitio"}}, {"type": "node", "id": 6132097768, "lat": 8.7535736, "lon": 125.1043231, "tags": {"name": "Samay", "place": "village"}}, {"type": "node", "id": 6132103728, "lat": 8.8059778, "lon": 125.106762, "tags": {"admin_level": "10", "admin_type:PH": "barangay", "alt_name": "Barangay 26", "is_in:city": "Gingoog", "is_in:suburb": "Poblacion", "name": "Kahulogan", "official_name": "Barangay 26 Kahulogan", "place": "village", "postal_code": "9014", "short_name": "26"}}, {"type": "node", "id": 6484555755, "lat": 8.6065344, "lon": 125.4133128, "tags": {"admin_level": "10", "designation": "barangay", "is_in:town": "Esperanza", "name": "Salug", "place": "village", "postal_code": "8513", "ref": "160303021"}}, {"type": "node", "id": 6509818677, "lat": 8.6984405, "lon": 125.131103, "tags": {"admin_level": "10", "is_in:city": "Gingoog", "name": "Bal-ason", "place": "village", "place:PH": "barangay"}}, {"type": "node", "id": 6509818850, "lat": 8.7066502, "lon": 125.2726257, "tags": {"place": "hamlet"}}, {"type": "node", "id": 6509818851, "lat": 8.6922269, "lon": 125.2476221, "tags": {"place": "hamlet"}}, {"type": "node", "id": 6509818853, "lat": 8.7146465, "lon": 125.2316201, "tags": {"admin_level": "11", "fixme": "confirm location", "name": "Impaluhod", "place": "hamlet", "place:PH": "sitio"}}, {"type": "node", "id": 6509818948, "lat": 8.7981112, "lon": 125.4131373, "tags": {"admin_level": "11", "admin_type:PH": "sitio", "is_in:quarter": "Simbalan", "is_in:town": "Buenavista", "name": "Labong", "place": "hamlet", "source:name": "extrapolated from OSMaPaaralan, way/960615145"}}, {"type": "node", "id": 6509818974, "lat": 8.7368738, "lon": 125.3957927, "tags": {"admin_level": "11", "is_in:town": "Las Nieves", "is_in:village": "Durian", "name": "Lawan-lawan", "place": "village", "place:PH": "sitio"}}, {"type": "node", "id": 6509818977, "lat": 8.8192816, "lon": 125.454855, "tags": {"fixme": "name", "place": "hamlet"}}, {"type": "node", "id": 6509819004, "lat": 8.7111892, "lon": 125.4554343, "tags": {"admin_level": "10", "designation": "barangay", "is_in:town": "Esperanza", "name": "Balubo", "place": "village", "postal_code": "8513", "ref": "160303033"}}, {"type": "node", "id": 6509819006, "lat": 8.7350269, "lon": 125.4166374, "tags": {"admin_level": "10", "designation": "barangay", "is_in:town": "Esperanza", "name": "Kinamaybay", "place": "village", "postal_code": "8513", "ref": "160303039"}}, {"type": "node", "id": 6509819007, "lat": 8.7663951, "lon": 125.4140854, "tags": {"place": "hamlet"}}, {"type": "node", "id": 6509819008, "lat": 8.7781966, "lon": 125.4186773, "tags": {"place": "hamlet"}}, {"type": "node", "id": 6509819124, "lat": 8.8162128, "lon": 125.4382513, "tags": {"admin_level": "10", "admin_type:PH": "barangay", "ele": "230", "is_in:municipality": "Buenavista", "name": "Simbalan", "official_name": "Barangay Simbalan", "place": "village", "postal_code": "8601"}}, {"type": "node", "id": 6511748824, "lat": 8.6659984, "lon": 125.1468408, "tags": {"admin_level": "11", "admin_type:PH": "sitio", "alt_name": "Sitio Kalhaan", "fixme": "confirm location", "is_in:barangay": "Minalwang", "is_in:municipality": "Claveria", "name": "Kalhaan", "place": "hamlet"}}, {"type": "node", "id": 6511748825, "lat": 8.760648, "lon": 125.1937794, "tags": {"admin_level": "10", "is_in:city": "Gingoog", "name": "Kianlagan", "place": "village", "place:PH": "barangay"}}, {"type": "node", "id": 6511748827, "lat": 8.751487, "lon": 125.2084171, "tags": {"admin_level": "10", "is_in:city": "Gingoog", "name": "Sangalan", "place": "village", "place:PH": "barangay"}}, {"type": "node", "id": 6511748831, "lat": 8.656479, "lon": 125.2152532, "tags": {"alt_name": "Sitio Malunsagay", "ele": "800", "is_in:barangay": "Minalwang", "is_in:municipality": "Claveria", "name": "Malunsagay", "place": "hamlet", "postal_code": "9004"}}, {"type": "node", "id": 6511749090, "lat": 8.4740489, "lon": 125.1764846, "tags": {"admin_level": "11", "admin_type:PH": "sitio", "is_in:municipality": "Impasugong", "name": "Lamingan", "place": "hamlet", "postal_code": "8702"}}, {"type": "node", "id": 6511749091, "lat": 8.4853573, "lon": 125.1638063, "tags": {"admin_level": "10", "admin_type:PH": "barangay", "is_in:municipality": "Impasugong", "name": "Hagpa", "place": "village", "postal_code": "8702"}}, {"type": "node", "id": 6511749093, "lat": 8.4381391, "lon": 125.1768548, "tags": {"admin_level": "11", "admin_type:PH": "sitio", "is_in:barangay": "Kalabugao", "is_in:municipality": "Impasugong", "name": "Paganahan", "place": "hamlet", "postal_code": "8702"}}, {"type": "node", "id": 6511749094, "lat": 8.4466591, "lon": 125.2068257, "tags": {"admin_level": "11", "admin_type:PH": "sitio", "is_in:municipality": "Impasugong", "name": "Paculab", "place": "hamlet", "postal_code": "8702"}}, {"type": "node", "id": 6511749095, "lat": 8.4057259, "lon": 125.2148226, "tags": {"admin_level": "11", "admin_type:PH": "sitio", "alt_name": "Ulayanun", "is_in:municipality": "Impasugong", "name": "Ulayanon", "place": "hamlet", "postal_code": "8702"}}, {"type": "node", "id": 6511749096, "lat": 8.442775, "lon": 125.2257192, "tags": {"place": "hamlet"}}, {"type": "node", "id": 6511749138, "lat": 8.4955967, "lon": 125.0561902, "tags": {"is_in:barangay": "Guilang-Guilang", "is_in:municipality": "Manolo Fortich", "name": "Kihan-ay", "place": "hamlet", "postal_code": "8703"}}, {"type": "node", "id": 6511751553, "lat": 8.5496075, "lon": 125.0139105, "tags": {"admin_level": "11", "admin_type:PH": "sitio", "is_in:barangay": "San Luis", "is_in:municipality": "Malitbog", "name": "Logdeck", "place": "hamlet", "postal_code": "8704"}}, {"type": "node", "id": 6511751554, "lat": 8.5859437, "lon": 125.0362158, "tags": {"admin_level": "11", "admin_type:PH": "sitio", "is_in:barangay": "San Luis", "is_in:municipality": "Malitbog", "name": "Victory", "place": "hamlet", "postal_code": "8704"}}, {"type": "node", "id": 6511751555, "lat": 8.5131617, "lon": 125.0087714, "tags": {"admin_level": "11", "admin_type:PH": "sitio", "is_in:barangay": "San Luis", "is_in:municipality": "Malitbog", "name": "Bayawa", "place": "hamlet", "postal_code": "8704"}}, {"type": "node", "id": 6511751596, "lat": 8.5937607, "lon": 125.166598, "tags": {"alt_name": "Sitio Impadiding", "ele": "970", "is_in:barangay": "Minalwang", "is_in:municipality": "Claveria", "name": "Impadiding", "place": "hamlet"}}, {"type": "node", "id": 6511753775, "lat": 8.6113477, "lon": 125.2376175, "tags": {"alt_name": "Sitio Lakbangan", "ele": "630", "is_in:barangay": "Minalwang", "is_in:municipality": "Claveria", "name": "Lakbangan", "place": "hamlet", "postal_code": "9004"}}, {"type": "node", "id": 6511755708, "lat": 8.4891358, "lon": 125.406586, "tags": {"admin_level": "10", "admin_type:PH": "barangay", "is_in:municipality": "Esperanza", "name": "San Vicente", "old_ref": "160303047", "place": "village", "population": "388", "population:date": "2020-05-01", "postal_code": "8513", "ref": "1600303047"}}, {"type": "node", "id": 6511755750, "lat": 8.5832491, "lon": 125.3955674, "tags": {"place": "hamlet"}}, {"type": "node", "id": 6596388685, "lat": 8.4683199, "lon": 125.0795844, "tags": {"admin_level": "11", "admin_type:PH": "sitio", "alt_name": "Sitio Kalampigan", "is_in:barangay": "Kalabugao", "is_in:municipality": "Impasugong", "name": "Kalampigan", "place": "hamlet", "postal_code": "8702"}}, {"type": "node", "id": 6596388686, "lat": 8.4614527, "lon": 125.1247501, "tags": {"admin_level": "11", "admin_type:PH": "sitio", "is_in:barangay": "Kalabugao", "is_in:municipality": "Impasugong", "name": "Nasandigan", "place": "hamlet", "postal_code": "8702"}}, {"type": "node", "id": 6596388687, "lat": 8.4592772, "lon": 125.1480102, "tags": {"admin_level": "11", "admin_type:PH": "sitio", "is_in:barangay": "Kalabugao", "is_in:municipality": "Impasugong", "name": "Baga-ay", "place": "hamlet", "postal_code": "8702"}}, {"type": "node", "id": 6596388689, "lat": 8.4539499, "lon": 125.1402854, "tags": {"admin_level": "11", "admin_type:PH": "sitio", "is_in:barangay": "Kalabugao", "is_in:municipality": "Impasugong", "name": "San Isidro", "place": "hamlet", "postal_code": "8702"}}, {"type": "node", "id": 6596388690, "lat": 8.4713854, "lon": 125.1523232, "tags": {"admin_level": "11", "admin_type:PH": "sitio", "is_in:municipality": "Impasugong", "name": "Fatima", "place": "hamlet", "postal_code": "8702"}}, {"type": "node", "id": 6596388691, "lat": 8.4719479, "lon": 125.1606702, "tags": {"admin_level": "11", "admin_type:PH": "sitio", "is_in:municipality": "Impasugong", "name": "San Vicente", "place": "hamlet", "postal_code": "8702"}}, {"type": "node", "id": 6596388692, "lat": 8.495293, "lon": 125.1665282, "tags": {"admin_level": "11", "admin_type:PH": "sitio", "is_in:barangay": "Hagpa", "is_in:municipality": "Impasugong", "name": "Kabagtukan", "place": "hamlet", "postal_code": "8702"}}, {"type": "node", "id": 6596388693, "lat": 8.4969696, "lon": 125.1763344, "tags": {"admin_level": "11", "admin_type:PH": "sitio", "is_in:barangay": "Hagpa", "is_in:municipality": "Impasugong", "name": "Pulahon", "place": "hamlet", "postal_code": "8702"}}, {"type": "node", "id": 6928867640, "lat": 8.4810579, "lon": 125.2274251, "tags": {"admin_level": "11", "admin_type:PH": "sitio", "fixme": "confirm location", "is_in:municipality": "Impasugong", "name": "Adtolawon", "place": "hamlet", "postal_code": "8702"}}, {"type": "node", "id": 6928867641, "lat": 8.4273785, "lon": 125.1945455, "tags": {"admin_level": "11", "admin_type:PH": "sitio", "alt_name": "New Imbatug", "is_in:barangay": "Kalabugao", "is_in:municipality": "Impasugong", "name": "New Imbatog", "place": "neighbourhood", "postal_code": "8702"}}, {"type": "node", "id": 6928867662, "lat": 8.4077256, "lon": 125.170009, "tags": {"admin_level": "11", "admin_type:PH": "sitio", "name": "Minlanaw", "place": "hamlet"}}, {"type": "node", "id": 6928867663, "lat": 8.4800504, "lon": 125.1856019, "tags": {"admin_level": "11", "admin_type:PH": "sitio", "is_in:municipality": "Impasugong", "name": "Kiudto", "place": "hamlet", "postal_code": "8702"}}, {"type": "node", "id": 6928867664, "lat": 8.4790948, "lon": 125.1387995, "tags": {"admin_level": "11", "admin_type:PH": "sitio", "fixme": "confirm location", "is_in:municipality": "Impasugong", "name": "Bontongon", "place": "hamlet", "postal_code": "8702"}}, {"type": "node", "id": 6933240784, "lat": 8.6090379, "lon": 125.0067007, "tags": {"place": "hamlet"}}, {"type": "node", "id": 6933267692, "lat": 8.5062117, "lon": 125.0600526, "tags": {"is_in:barangay": "Guilang-Guilang", "is_in:municipality": "Manolo Fortich", "name": "Consolacion", "place": "hamlet", "postal_code": "8703"}}, {"type": "node", "id": 6933267998, "lat": 8.4238841, "lon": 125.0097906, "tags": {"is_in:barangay": "Santiago", "is_in:municipality": "Manolo Fortich", "name": "Crossing Santiago", "place": "hamlet", "postal_code": "8703"}}, {"type": "node", "id": 6933267999, "lat": 8.4576456, "lon": 125.0414649, "tags": {"admin_level": "10", "admin_type:PH": "barangay", "is_in:municipality": "Manolo Fortich", "name": "Guilang-Guilang", "place": "village", "postal_code": "8703"}}, {"type": "node", "id": 6933268000, "lat": 8.4367258, "lon": 125.0156057, "tags": {"place": "hamlet"}}, {"type": "node", "id": 6933268938, "lat": 8.7157494, "lon": 125.1632666, "tags": {"place": "hamlet"}}, {"type": "node", "id": 6936091728, "lat": 8.6035535, "lon": 125.3023124, "tags": {"place": "hamlet"}}, {"type": "node", "id": 6936091729, "lat": 8.6274729, "lon": 125.3657706, "tags": {"admin_level": "10", "admin_type:PH": "barangay", "alt_name": "Calabuan", "is_in:municipality": "Esperanza", "name": "Kalabuan", "old_ref": "160303038", "place": "village", "population": "326", "population:date": "2020-05-01", "postal_code": "8513", "ref": "1600303038"}}, {"type": "node", "id": 6936091730, "lat": 8.6117416, "lon": 125.3489479, "tags": {"admin_level": "10", "admin_type:PH": "barangay", "is_in:municipality": "Esperanza", "name": "Guibonon", "old_ref": "160303037", "place": "village", "population": "329", "population:date": "2020-05-01", "postal_code": "8513", "ref": "1600303037"}}, {"type": "node", "id": 6936091732, "lat": 8.6760636, "lon": 125.4518938, "tags": {"admin_level": "10", "designation": "barangay", "is_in:town": "Esperanza", "name": "Agsabu", "place": "village", "postal_code": "8513", "ref": "160303031"}}, {"type": "node", "id": 6936092078, "lat": 8.4427325, "lon": 125.4100943, "tags": {"place": "hamlet"}}, {"type": "node", "id": 6936092865, "lat": 8.6297109, "lon": 125.2657633, "tags": {"place": "hamlet"}}, {"type": "node", "id": 6936092866, "lat": 8.6653407, "lon": 125.3631127, "tags": {"place": "hamlet"}}, {"type": "node", "id": 6936093886, "lat": 8.4265056, "lon": 125.3252506, "tags": {"place": "hamlet"}}, {"type": "node", "id": 6936094840, "lat": 8.481562, "lon": 125.4469693, "tags": {"place": "hamlet"}}, {"type": "node", "id": 6936100157, "lat": 8.6815893, "lon": 125.1860762, "tags": {"place": "hamlet"}}, {"type": "node", "id": 6936100158, "lat": 8.7249755, "lon": 125.2215242, "tags": {"place": "hamlet"}}, {"type": "node", "id": 6938365315, "lat": 8.7173666, "lon": 125.2753562, "tags": {"place": "hamlet"}}, {"type": "node", "id": 6938365316, "lat": 8.7208185, "lon": 125.1851535, "tags": {"place": "hamlet"}}, {"type": "node", "id": 6938365317, "lat": 8.7280085, "lon": 125.1949382, "tags": {"place": "hamlet"}}, {"type": "node", "id": 6938365318, "lat": 8.7228652, "lon": 125.1944554, "tags": {"place": "hamlet"}}, {"type": "node", "id": 6938365319, "lat": 8.7417094, "lon": 125.2121043, "tags": {"place": "hamlet"}}, {"type": "node", "id": 6938365320, "lat": 8.751815, "lon": 125.2342272, "tags": {"place": "hamlet"}}, {"type": "node", "id": 6938365321, "lat": 8.7604465, "lon": 125.2643216, "tags": {"place": "hamlet"}}, {"type": "node", "id": 6938365819, "lat": 8.6892413, "lon": 125.2287071, "tags": {"admin_level": "11", "fixme": "confirm location", "is_in:city": "Gingoog", "is_in:village": "Eureka", "name": "Dukdokaan", "place": "hamlet", "place:PH": "sitio"}}, {"type": "node", "id": 6938366391, "lat": 8.6572002, "lon": 125.1778203, "tags": {"admin_level": "11", "is_in:town": "Claveria", "is_in:village": "Minalwang", "name": "Moya", "place": "hamlet", "place:PH": "sitio"}}, {"type": "node", "id": 6938366506, "lat": 8.6486034, "lon": 125.1474899, "tags": {"place": "hamlet"}}, {"type": "node", "id": 6938366507, "lat": 8.6673983, "lon": 125.1642483, "tags": {"place": "hamlet"}}, {"type": "node", "id": 6938366508, "lat": 8.6612347, "lon": 125.131563, "tags": {"is_in:village": "Minalwang", "name": "Mandalawat", "place": "hamlet"}}, {"type": "node", "id": 6938366509, "lat": 8.6674387, "lon": 125.1404276, "tags": {"admin_level": "10", "is_in:town": "Claveria", "name": "Minalwang", "place": "village", "place:PH": "barangay", "source:name": "extrapolated from OSMaPaaralan, way/957011808"}}, {"type": "node", "id": 6938366512, "lat": 8.6789988, "lon": 125.1335317, "tags": {"admin_level": "10", "fixme": "confirm location", "is_in:city": "Gingoog", "name": "Hindangon", "place": "village", "place:PH": "barangay"}}, {"type": "node", "id": 6938366528, "lat": 8.7188551, "lon": 125.0287721, "tags": {"admin_level": "11", "is_in:city": "Gingoog", "is_in:village": "Lunotan", "name": "Civoleg", "place": "village", "place:PH": "sitio"}}, {"type": "node", "id": 6946465440, "lat": 8.4905392, "lon": 125.0265062, "tags": {"admin_level": "11", "admin_type:PH": "sitio", "is_in:barangay": "San Luis", "is_in:municipality": "Malitbog", "name": "Linabo", "place": "hamlet", "postal_code": "8704"}}, {"type": "node", "id": 6946465576, "lat": 8.534881, "lon": 125.0526148, "tags": {"admin_level": "11", "admin_type:PH": "sitio", "is_in:municipality": "Malitbog", "name": "Kagahuman", "place": "hamlet", "postal_code": "8704"}}, {"type": "node", "id": 6956205273, "lat": 8.5821351, "lon": 125.3802252, "tags": {"admin_level": "10", "designation": "barangay", "is_in:town": "Esperanza", "name": "Sinakungan", "place": "village", "postal_code": "8513", "ref": "160303048"}}, {"type": "node", "id": 7018198716, "lat": 8.7425259, "lon": 125.3284371, "tags": {"admin_level": "11", "is_in:town": "Las Nieves", "is_in:village": "Durian", "name": "Bocbocon", "place": "hamlet", "place:PH": "sitio"}}, {"type": "node", "id": 7274025095, "lat": 8.7302248, "lon": 125.0662214, "tags": {"admin_level": "10", "admin_type:PH": "barangay", "name": "Lunotan", "old_ref": "104308021", "place": "village", "population": "1945", "population:2015": "1600", "population:date": "2020-05-01"}}, {"type": "node", "id": 7900311112, "lat": 8.5311039, "lon": 125.1791614, "tags": {"alt_name": "Sitio Mintapod", "ele": "1200", "is_in:barangay": "Hagpa", "is_in:municipality": "Impasugong", "name": "Mintapod", "place": "hamlet", "postal_code": "8702"}}, {"type": "node", "id": 8152922984, "lat": 8.8375418, "lon": 125.4203417, "tags": {"fixme": "name", "place": "hamlet"}}, {"type": "node", "id": 8152923656, "lat": 8.8265108, "lon": 125.4462888, "tags": {"admin_level": "10", "admin_type:PH": "barangay", "is_in:town": "Buenavista", "name": "Lower Olave", "place": "village", "source:name": "extrapolated from OSMaPaaralan, way/960612186"}}, {"type": "node", "id": 8152924963, "lat": 8.7422608, "lon": 125.4314715, "tags": {"place": "hamlet"}}, {"type": "node", "id": 8152924964, "lat": 8.7522604, "lon": 125.3473359, "tags": {"place": "hamlet"}}, {"type": "node", "id": 8200318998, "lat": 8.4329348, "lon": 125.1177433, "tags": {"is_in:barangay": "Dumalaguing", "is_in:municipality": "Impasugong", "name": "Ananaso", "place": "hamlet", "postal_code": "8702"}}, {"type": "node", "id": 8328040297, "lat": 8.5451408, "lon": 125.442903, "tags": {"admin_level": "10", "designation": "barangay", "is_in:town": "Esperanza", "name": "Tagbalili", "place": "village", "postal_code": "8513", "ref": "160303028"}}, {"type": "node", "id": 8336022986, "lat": 8.4929798, "lon": 125.4311979, "tags": {"place": "hamlet"}}, {"type": "node", "id": 8392920608, "lat": 8.8251824, "lon": 125.1075911, "tags": {"admin_subdivisions": "29 barangays", "is_in:city": "Gingoog", "name": "Poblacion", "place": "suburb", "postal_code": "9014"}}, {"type": "node", "id": 8494716031, "lat": 8.4225469, "lon": 125.4242134, "tags": {"place": "hamlet"}}, {"type": "node", "id": 8855653417, "lat": 8.7256582, "lon": 125.0481606, "tags": {"name": "Kauswagan", "place": "village"}}, {"type": "node", "id": 8855726154, "lat": 8.7384683, "lon": 125.0853019, "tags": {"admin_level": "11", "alt_name": "Sitio Hinandigan", "designation": "sitio", "ele": "480", "is_in:city": "Gingoog", "is_in:village": "Lunotan", "name": "Hinandigan", "place": "hamlet", "postal_code": "9014"}}, {"type": "node", "id": 8855751219, "lat": 8.7513065, "lon": 125.0895931, "tags": {"name": "Capitulangan", "place": "village"}}, {"type": "node", "id": 8870937862, "lat": 8.7830691, "lon": 125.0729206, "tags": {"name": "Tinulongan", "place": "village"}}, {"type": "node", "id": 8870941985, "lat": 8.7419122, "lon": 125.0673, "tags": {"name": "Alagatan", "place": "village"}}, {"type": "node", "id": 8870945595, "lat": 8.8083432, "lon": 125.1346015, "tags": {"name": "Bagubad", "place": "village"}}, {"type": "node", "id": 8870948827, "lat": 8.7676808, "lon": 125.09446, "tags": {"name": "Binakalan", "place": "village"}}, {"type": "node", "id": 8870954780, "lat": 8.8060101, "lon": 125.1541493, "tags": {"name": "Mimbunga", "place": "village"}}, {"type": "node", "id": 8870973443, "lat": 8.8175961, "lon": 125.1617782, "tags": {"name": "Minsapinit", "place": "village"}}, {"type": "node", "id": 8870975349, "lat": 8.8412085, "lon": 125.1402835, "tags": {"name": "Punong", "place": "village"}}, {"type": "node", "id": 8870979828, "lat": 8.7909589, "lon": 125.166758, "tags": {"name": "Maribucao", "place": "village"}}, {"type": "node", "id": 8871177510, "lat": 8.7660915, "lon": 125.2204795, "tags": {"admin_level": "10", "admin_type:PH": "barangay", "is_in:city": "Gingoog", "name": "Kalipay", "old_ref": "104308078", "place": "village", "population": "4309", "ref": "1004308078", "source:population": "Philippine Statistics Authority"}}, {"type": "node", "id": 8871181869, "lat": 8.7908597, "lon": 125.1391614, "tags": {"name": "Tinabalan", "place": "village"}}, {"type": "node", "id": 8871212840, "lat": 8.7537006, "lon": 125.1625821, "tags": {"name": "Talon", "place": "village"}}, {"type": "node", "id": 9178490820, "lat": 8.6990435, "lon": 125.1179239, "tags": {"admin_level": "11", "alt_name": "Sitio Mangilit", "designation": "sitio", "is_in:city": "Gingoog", "is_in:village": "Bal-ason", "name": "Mangilit", "place": "hamlet", "postal_code": "9014"}}, {"type": "node", "id": 9329399632, "lat": 8.4819586, "lon": 125.0651233, "tags": {"is_in:barangay": "Guilang-Guilang", "is_in:municipality": "Manolo Fortich", "name": "Upper Guilang-Guilang", "place": "hamlet", "postal_code": "8703"}}, {"type": "node", "id": 9456965445, "lat": 8.7994196, "lon": 125.0560534, "tags": {"admin_level": "10", "admin_type:PH": "barangay", "alt_name": "Bakidbakid", "is_in:city": "Gingoog", "name": "Bakid-Bakid", "official_name": "Barangay Bakidbakid", "old_ref": "104308005", "place": "village", "population": "687", "population:2015": "554", "population:date": "2020-05-01"}}, {"type": "node", "id": 9457032742, "lat": 8.7739341, "lon": 125.1139998, "tags": {"admin_level": "10", "admin_type:PH": "barangay", "is_in:city": "Gingoog", "name": "Libon", "old_ref": "104308019", "place": "village", "population": "628", "population:2015": "623", "population:date": "2020-05-01"}}, {"type": "node", "id": 9457032743, "lat": 8.7729295, "lon": 125.1144558, "tags": {"admin_level": "11", "admin_type:PH": "purok", "is_in:barangay": "Libon", "is_in:city": "Gingoog", "name": "Purok 2", "place": "neighbourhood"}}, {"type": "node", "id": 9457032751, "lat": 8.7528887, "lon": 125.1167411, "tags": {"admin_level": "10", "admin_type:PH": "barangay", "is_in:city": "Gingoog", "name": "Lawit", "old_ref": "104308017", "place": "village", "population": "550", "population:2015": "490", "population:date": "2020-05-01"}}, {"type": "node", "id": 9457032752, "lat": 8.7541929, "lon": 125.1176396, "tags": {"admin_level": "11", "admin_type:PH": "purok", "is_in:barangay": "Lawit", "is_in:city": "Gingoog", "name": "Purok 1", "place": "neighbourhood"}}, {"type": "node", "id": 9457032756, "lat": 8.7189308, "lon": 125.0983398, "tags": {"admin_level": "10", "admin_type:PH": "barangay", "is_in:city": "Gingoog", "name": "Lawaan", "old_ref": "104308016", "place": "village", "population": "944", "population:2015": "1020", "population:date": "2020-05-01"}}, {"type": "node", "id": 9457032757, "lat": 8.7198369, "lon": 125.0961484, "tags": {"admin_level": "11", "admin_type:PH": "purok", "is_in:barangay": "Lawaan", "is_in:city": "Gingoog", "name": "Purok 3", "place": "neighbourhood"}}, {"type": "node", "id": 9459205449, "lat": 8.8046347, "lon": 125.2097064, "tags": {"admin_level": "11", "admin_type:PH": "purok", "is_in:barangay": "Malinao", "name": "Nabugsocan", "place": "neighbourhood"}}, {"type": "node", "id": 9459212634, "lat": 8.8082461, "lon": 125.2334654, "tags": {"admin_level": "11", "admin_type:PH": "sitio", "is_in:city": "Gingoog", "is_in:village": "Malinao", "name": "Kidahon", "place": "hamlet", "source:name": "extrapolated from OSMaPaaralan, way/959002733"}}, {"type": "node", "id": 9459212702, "lat": 8.817963, "lon": 125.2087355, "tags": {"admin_level": "10", "admin_type:PH": "barangay", "is_in:city": "Gingoog", "name": "Malinao", "old_ref": "104308023", "place": "village", "population": "4375", "population:2015": "3910", "population:date": "2020-05-01"}}, {"type": "node", "id": 9459217123, "lat": 8.7826897, "lon": 125.2153391, "tags": {"admin_level": "10", "admin_type:PH": "barangay", "is_in:city": "Gingoog", "name": "Kamanikan", "old_ref": "104308079", "place": "village", "population": "1142", "population:2015": "1369", "population:date": "2020-05-01"}}, {"type": "node", "id": 9459225152, "lat": 8.7970605, "lon": 125.0833181, "tags": {"admin_level": "10", "admin_type:PH": "barangay", "is_in:city": "Gingoog", "name": "Murallon", "old_ref": "104308029", "place": "village", "population": "1063", "population:2015": "1140", "population:date": "2020-05-01"}}, {"type": "node", "id": 9459225153, "lat": 8.7963355, "lon": 125.0824423, "tags": {"admin_level": "11", "admin_type:PH": "purok", "is_in:barangay": "Murallon", "is_in:city": "Gingoog", "name": "Purok 4", "place": "neighbourhood"}}, {"type": "node", "id": 9459233470, "lat": 8.8133232, "lon": 125.0920647, "tags": {"admin_level": "11", "admin_type:PH": "sitio", "is_in:city": "Gingoog", "is_in:village": "Murallon", "name": "Mindulean", "place": "hamlet", "source:name": "extrapolated from OSMaPaaralan, way/1025975267"}}, {"type": "node", "id": 9459305437, "lat": 8.8317467, "lon": 125.2062383, "tags": {"admin_level": "11", "admin_type:PH": "sitio", "is_in:city": "Gingoog", "is_in:village": "Malinao", "name": "Tagdaging", "place": "hamlet", "source:name": "extrapolated from OSMaPaaralan, way/1025980600"}}, {"type": "node", "id": 9512890523, "lat": 8.8267711, "lon": 125.0870352, "tags": {"admin_level": "10", "admin_type:PH": "barangay", "is_in:city": "Gingoog", "name": "San Juan", "place": "village", "postal_code": "9014"}}, {"type": "node", "id": 9512890524, "lat": 8.8303514, "lon": 125.129606, "tags": {"admin_level": "10", "admin_type:PH": "barangay", "is_in:city": "Gingoog", "name": "Santiago", "old_ref": "104308068", "place": "village", "population": "3469", "population:date": "2020-05-01", "postal_code": "9014", "ref": "1004308068"}}, {"type": "node", "id": 9816893825, "lat": 8.6357411, "lon": 125.0107361, "tags": {"admin_level": "11", "admin_type:PH": "sitio", "is_in:town": "Claveria", "is_in:village": "Mat-i", "name": "Aligodon", "place": "hamlet"}}, {"type": "node", "id": 11034386291, "lat": 8.6274926, "lon": 125.3654864, "tags": {"admin_level": "11", "admin_type:PH": "purok", "is_in:barangay": "Kalabuan", "is_in:municipality": "Esperanza", "name": "Purok 1", "place": "neighbourhood", "postal_code": "8513"}}, {"type": "node", "id": 11034386292, "lat": 8.6112045, "lon": 125.3485966, "tags": {"admin_level": "11", "admin_type:PH": "purok", "is_in:barangay": "Guibonon", "is_in:municipality": "Esperanza", "name": "Purok 1", "place": "neighbourhood", "postal_code": "8513"}}, {"type": "node", "id": 11034412008, "lat": 8.6148244, "lon": 125.3575498, "tags": {"admin_level": "11", "admin_type:PH": "purok", "is_in:barangay": "Guibonon", "is_in:municipality": "Esperanza", "name": "Purok 2", "place": "neighbourhood", "postal_code": "8513"}}, {"type": "node", "id": 11955480291, "lat": 8.8069431, "lon": 125.1110727, "tags": {"admin_level": "11", "admin_type:PH": "purok", "is_in:barangay": "Barangay 26 Kahulogan", "is_in:city": "Gingoog", "is_in:suburb": "Poblacion", "name": "Purok 3", "place": "neighbourhood", "postal_code": "9014"}}, {"type": "node", "id": 11961502586, "lat": 8.707032, "lon": 125.019452, "tags": {"alt_name": "Sitio Haruhay", "ele": "1180", "is_in:barangay": "Lunotan", "is_in:city": "Gingoog", "name": "Haruhay", "place": "hamlet", "postal_code": "9014"}}, {"type": "node", "id": 12153071935, "lat": 8.7653079, "lon": 125.2220688, "tags": {"admin_level": "11", "admin_type:PH": "purok", "is_in:barangay": "Kalipay", "is_in:city": "Gingoog", "name": "Purok 3", "place": "neighbourhood"}}, {"type": "node", "id": 12153076869, "lat": 8.7684243, "lon": 125.2165642, "tags": {"admin_level": "11", "admin_type:PH": "purok", "is_in:barangay": "Kalipay", "is_in:city": "Gingoog", "name": "Purok 1", "place": "neighbourhood"}}]}