{"version": 0.6, "generator": "Overpass API 0.7.62.5 1bd436f1", "osm3s": {"timestamp_osm_base": "2025-05-24T17:51:15Z", "copyright": "The data included in this document is from www.openstreetmap.org. The data is made available under ODbL."}, "elements": [{"type": "node", "id": 198492803, "lat": 5.5451683, "lon": 120.8151131, "tags": {"admin_level": "6", "designation": "municipality", "is_in:province": "Sulu", "name": "Siasi", "place": "town", "population": "67705", "population:date": "2015-08-01", "source:population": "Philippine Statistics Authority", "wikidata": "Q156263", "wikimedia_commons": "Category:Siasi", "wikipedia": "en:Siasi"}}, {"type": "node", "id": 198499067, "lat": 5.7020738, "lon": 120.8189755, "tags": {"admin_level": "6", "designation": "municipality", "is_in:province": "Sulu", "name": "Lugus", "place": "town", "population": "21897", "population:date": "2015-08-01", "source:population": "Philippine Statistics Authority", "wikidata": "Q156055", "wikimedia_commons": "Category:Lugus, Sulu", "wikipedia": "en:Lugus, Sulu"}}, {"type": "node", "id": 198525566, "lat": 5.7051707, "lon": 120.8818507, "tags": {"admin_level": "6", "designation": "municipality", "is_in:province": "Sulu", "name": "Tapul", "place": "town", "population": "18197", "population:date": "2015-08-01", "source:population": "Philippine Statistics Authority", "wikidata": "Q156302", "wikimedia_commons": "Category:Tapul", "wikipedia": "en:Tapul"}}, {"type": "node", "id": 4652928314, "lat": 5.541792, "lon": 120.8013302, "tags": {"admin_level": "6", "designation": "municipality", "is_in:province": "Sulu", "name": "Pandami", "place": "town", "population": "25885", "population:date": "2015-08-01", "source:population": "Philippine Statistics Authority", "wikidata": "Q156159", "wikimedia_commons": "Category:Pandami", "wikipedia": "en:Pandami"}}, {"type": "node", "id": 4893076247, "lat": 5.4488797, "lon": 120.5841425, "tags": {"addr:province": "Tawi-Tawi", "admin_level": "10", "name": "Bubuan", "place": "village", "place:PH": "barangay", "source": "Schadow1 Expeditions"}}, {"type": "node", "id": 7723980736, "lat": 5.5198987, "lon": 120.8181317, "tags": {"admin_level": "10", "admin_type:PH": "barangay", "is_in": "Siasi;Sulu", "name": "Sisangat", "old_ref": "156612061", "place": "village", "population": "1035", "population:2015": "857", "ref": "1906612061", "source:population": "Philippine Statistics Authority"}}, {"type": "node", "id": 10907251406, "lat": 5.5452078, "lon": 120.8165721, "tags": {"name": "Poblacion", "place": "suburb"}}, {"type": "node", "id": 10907251407, "lat": 5.5453307, "lon": 120.8178267, "tags": {"name": "West Kuntad", "place": "neighbourhood"}}, {"type": "node", "id": 10907254193, "lat": 5.5497385, "lon": 120.8074608, "tags": {"admin_level": "10", "admin_type:PH": "barangay", "name": "Hambilan", "old_ref": "156618003", "place": "village", "population": "4982", "population:2015": "4109", "ref": "1906618003", "source:population": "Philippine Statistics Authority"}}, {"type": "node", "id": 10907262164, "lat": 5.5120179, "lon": 120.8307104, "tags": {"admin_level": "10", "admin_type:PH": "barangay", "is_in": "Siasi;Sulu", "name": "East Sisangat", "old_ref": "156612013", "place": "village", "population": "1306", "population:2015": "1133", "ref": "1906612013"}}, {"type": "node", "id": 10907279569, "lat": 5.5592819, "lon": 120.8100888, "tags": {"name": "Tangunan", "place": "neighbourhood"}}, {"type": "node", "id": 10907380776, "lat": 5.563109, "lon": 120.8064509, "tags": {"name": "Hadja Arabia Usman Bandar", "place": "hamlet"}}, {"type": "node", "id": 10907403198, "lat": 5.5524556, "lon": 120.7823152, "tags": {"fixme": "name", "place": "hamlet"}}, {"type": "node", "id": 10907442055, "lat": 5.4985396, "lon": 120.7799827, "tags": {"fixme": "name", "place": "village"}}, {"type": "node", "id": 10907442111, "lat": 5.4966093, "lon": 120.7652811, "tags": {"fixme": "name", "place": "village"}}, {"type": "node", "id": 10907442112, "lat": 5.5032124, "lon": 120.7528842, "tags": {"fixme": "name", "place": "village"}}, {"type": "node", "id": 10907442113, "lat": 5.5144146, "lon": 120.7458297, "tags": {"fixme": "name", "place": "village"}}, {"type": "node", "id": 10907447791, "lat": 5.4729317, "lon": 120.7993031, "tags": {"fixme": "name", "place": "village"}}, {"type": "node", "id": 10907484846, "lat": 5.4988288, "lon": 120.8376741, "tags": {"fixme": "name", "place": "neighbourhood"}}, {"type": "node", "id": 10910317084, "lat": 5.5405883, "lon": 120.880959, "tags": {"fixme": "name", "place": "village"}}]}