{"version": 0.6, "generator": "Overpass API 0.7.62.5 1bd436f1", "osm3s": {"timestamp_osm_base": "2025-05-24T18:01:29Z", "copyright": "The data included in this document is from www.openstreetmap.org. The data is made available under ODbL."}, "elements": [{"type": "node", "id": 198497832, "lat": 13.1856583, "lon": 124.1267772, "tags": {"admin_level": "6", "admin_type:PH": "municipality", "name": "Rapu-Rapu", "old_ref": "050515000", "place": "town", "population": "36151", "population:date": "2020-05-01", "ref": "0500515000", "source:population": "Philippine Statistics Authority", "wikidata": "Q493362", "wikimedia_commons": "Category:Rapu-Rapu", "wikipedia": "en:Rapu-Rapu"}}, {"type": "node", "id": 198501662, "lat": 12.9176112, "lon": 124.1231882, "tags": {"admin_level": "6", "admin_type:PH": "municipality", "gns_classification": "ADM2", "gns_uni": "-3346355", "is_in:province": "Sorsogon", "name": "Gubat", "place": "town", "population": "59534", "population:date": "2015-08-01", "ref": "056208000", "source": "GNS", "source:population": "Philippine Statistics Authority", "wikidata": "Q174201", "wikimedia_commons": "Category:Gubat, Sorsogon", "wikipedia": "en:Gubat"}}, {"type": "node", "id": 198508354, "lat": 13.0404252, "lon": 124.1935375, "tags": {"admin_level": "6", "designation": "municipality", "is_in:province": "Sorsogon", "name": "Prieto Diaz", "place": "town", "population": "22442", "population:date": "2015-08-01", "ref": "056214000", "source:population": "Philippine Statistics Authority", "wikidata": "Q174269", "wikimedia_commons": "Category:Prieto Diaz", "wikipedia": "en:Prieto Diaz"}}, {"type": "node", "id": 911666191, "lat": 12.889801, "lon": 124.1319802, "tags": {"name": "Rizal", "place": "village", "source": "NGA-GNS-07092010"}}, {"type": "node", "id": 911666218, "lat": 12.8682088, "lon": 124.1418908, "tags": {"admin_level": "6", "gns_classification": "ADM2", "is_in:province": "Sorsogon", "name": "Barcelona", "place": "town", "place:PH": "municipality", "population": "20990", "population:date": "2015-08-01", "source": "NGA-GNS-07092010", "source:population": "Philippine Statistics Authority", "wikidata": "Q174114", "wikimedia_commons": "Category:Barcelona, Sorsogon", "wikipedia": "en:Barcelona, Sorsogon"}}, {"type": "node", "id": 911666237, "lat": 12.8833139, "lon": 124.1370185, "tags": {"name": "Benquet", "place": "village", "source": "NGA-GNS-07092010"}}, {"type": "node", "id": 911666264, "lat": 12.8803939, "lon": 124.1305694, "tags": {"name": "Nazareno", "place": "village", "source": "NGA-GNS-07092010"}}, {"type": "node", "id": 911666287, "lat": 12.8633303, "lon": 124.1344374, "tags": {"admin_level": "10", "admin_type:PH": "barangay", "is_in:town": "Barcelona", "name": "Lago", "place": "village", "source": "NGA-GNS-07092010"}}, {"type": "node", "id": 911666305, "lat": 12.8799454, "lon": 124.1178485, "tags": {"name": "San Isidro", "place": "village", "source": "NGA-GNS-07092010"}}, {"type": "node", "id": 911672544, "lat": 12.9380867, "lon": 124.1190505, "tags": {"admin_level": "10", "admin_type:PH": "barangay", "name": "San Ignacio", "place": "village", "population": "2181", "population:2015": "2244", "ref": "056208035", "source": "NGA-GNS-07092010", "source:population": "Philippine Statistics Authority"}}, {"type": "node", "id": 911672547, "lat": 12.897079, "lon": 124.1191296, "tags": {"name": "Buenavista", "place": "village", "source": "NGA-GNS-07092010"}}, {"type": "node", "id": 911672562, "lat": 12.9357007, "lon": 124.1245622, "tags": {"admin_level": "10", "admin_type:PH": "barangay", "name": "Cogon", "place": "village", "population": "2689", "population:2015": "2289", "ref": "056208015", "source": "NGA-GNS-07092010", "source:population": "Philippine Statistics Authority"}}, {"type": "node", "id": 911672583, "lat": 12.8918459, "lon": 124.1244114, "tags": {"admin_level": "10", "name": "Villareal", "place": "village", "place:PH": "barangay", "source": "NGA-GNS-07092010"}}, {"type": "node", "id": 911681904, "lat": 12.9669595, "lon": 124.1260373, "tags": {"name": "Ogao", "place": "village", "source": "NGA-GNS-07092010"}}, {"type": "node", "id": 911681905, "lat": 12.9525643, "lon": 124.1265404, "tags": {"name": "Tiris", "place": "village", "source": "NGA-GNS-07092010"}}, {"type": "node", "id": 911681915, "lat": 12.9780883, "lon": 124.1291579, "tags": {"name": "Paco", "place": "village", "source": "NGA-GNS-07092010"}}, {"type": "node", "id": 911681930, "lat": 12.9820512, "lon": 124.1414978, "tags": {"admin_level": "10", "designation": "barangay", "is_in:town": "Gubat", "name": "Bagacay", "place": "village", "ref": "056208002"}}, {"type": "node", "id": 2390313615, "lat": 13.0691291, "lon": 124.141773, "tags": {"admin_level": "10", "admin_type:PH": "barangay", "name": "Talisayan", "place": "village", "population:2015": "9331122", "ref": "056214022", "source:population": "Philippine Statistics Authority"}}, {"type": "node", "id": 8261674059, "lat": 13.0705273, "lon": 124.1274029, "tags": {"name": "Sawanga", "place": "village", "postal_code": "4700"}}, {"type": "node", "id": 8340427521, "lat": 12.9193902, "lon": 124.1228566, "tags": {"is_in:town": "Gubat", "name": "Poblacion", "place": "suburb"}}, {"type": "node", "id": 8807965667, "lat": 13.0385102, "lon": 124.1958077, "tags": {"admin_level": "10", "admin_type:PH": "barangay", "alt_name": "Poblacion", "designation": "barangay", "is_in:town": "Prieto Diaz", "name": "Diamante", "old_ref": "056214001", "place": "village", "population": "653", "population:2015": "647", "ref": "0506214001"}}, {"type": "node", "id": 9052130820, "lat": 13.1904992, "lon": 124.2132361, "tags": {"admin_level": "10", "name": "Binosawan", "place": "village"}}, {"type": "node", "id": 9294776552, "lat": 13.0553704, "lon": 124.153423, "tags": {"admin_level": "10", "admin_type:PH": "barangay", "is_in:town": "Prieto Diaz", "name": "San Antonio", "place": "village", "population": "609", "population:2015": "548", "ref": "056214014", "source:name": "extrapolated from OSMaPaaralan, way/780139681", "source:population": "Philippine Statistics Authority"}}, {"type": "node", "id": 9294776563, "lat": 13.0580773, "lon": 124.1710827, "tags": {"admin_level": "10", "admin_type:PH": "barangay", "is_in:town": "Prieto Diaz", "name": "Santo Domingo", "place": "village", "population": "311", "population:2015": "331", "ref": "056214021", "source:population": "Philippine Statistics Authority"}}, {"type": "node", "id": 9294776564, "lat": 13.0474611, "lon": 124.1766711, "tags": {"admin_level": "10", "admin_type:PH": "barangay", "is_in:town": "Prieto Diaz", "name": "San Juan", "place": "village", "population": "762", "population:2015": "713", "ref": "056214017", "source:name": "extrapolated from OSMaPaaralan, way/969300913", "source:population": "Philippine Statistics Authority"}}, {"type": "node", "id": 9294776566, "lat": 13.0401186, "lon": 124.1790636, "tags": {"admin_level": "10", "admin_type:PH": "barangay", "is_in:town": "Prieto Diaz", "name": "Gogon", "place": "village", "population": "1609", "population:2015": "1693", "ref": "056214006", "source:population": "Philippine Statistics Authority"}}, {"type": "node", "id": 9294835441, "lat": 13.0687428, "lon": 124.149619, "tags": {"admin_level": "10", "admin_type:PH": "barangay", "is_in:town": "Prieto Diaz", "name": "Manlabong", "place": "village", "population": "729", "population:2015": "781", "ref": "056214008", "source:population": "Philippine Statistics Authority"}}, {"type": "node", "id": 9294835446, "lat": 13.0677643, "lon": 124.1647889, "tags": {"admin_level": "10", "admin_type:PH": "barangay", "is_in:town": "Prieto Diaz", "name": "San Ramon", "place": "village", "population": "526", "population:2015": "599", "ref": "056214019", "source:population": "Philippine Statistics Authority"}}]}