{"version": 0.6, "generator": "Overpass API 0.7.62.5 1bd436f1", "osm3s": {"timestamp_osm_base": "2025-05-24T17:52:15Z", "copyright": "The data included in this document is from www.openstreetmap.org. The data is made available under ODbL."}, "elements": [{"type": "node", "id": 198491552, "lat": 17.4596608, "lon": 120.9264284, "tags": {"admin_level": "10", "is_in": "Daguioman", "name": "Tui", "place": "village", "place:PH": "barangay", "ref": "140105004"}}, {"type": "node", "id": 198501927, "lat": 17.3527589, "lon": 121.1758075, "tags": {"admin_level": "6", "name": "Lubuagan", "place": "town", "place:PH": "municipality", "population": "8733", "population:date": "2015-08-01", "ref": "143206000", "source:population": "Philippine Statistics Authority", "wikidata": "Q35858", "wikimedia_commons": "Category:Lubuagan", "wikipedia": "en:Lubuagan"}}, {"type": "node", "id": 198505807, "lat": 17.4414357, "lon": 121.2016265, "tags": {"admin_level": "6", "name": "Balbalan", "place": "town", "place:PH": "municipality", "population": "12195", "population:date": "2015-08-01", "ref": "143201000", "source:population": "Philippine Statistics Authority", "wikidata": "Q35848", "wikimedia_commons": "Category:Balbalan", "wikipedia": "en:Balbalan, Kalinga"}}, {"type": "node", "id": 198513955, "lat": 17.3890052, "lon": 121.1581968, "tags": {"admin_level": "6", "admin_type:PH": "municipality", "name": "Pasil", "place": "town", "population": "9644", "population:date": "2015-08-01", "ref": "143208000", "source:population": "Philippine Statistics Authority", "wikidata": "Q35866", "wikimedia_commons": "Category:Pasil, Kalinga", "wikipedia": "en:Pasil, Kalinga"}}, {"type": "node", "id": 198515960, "lat": 17.4409401, "lon": 120.8572514, "tags": {"admin_level": "6", "name": "Bucloc", "place": "town", "place:PH": "municipality", "population": "2501", "population:date": "2015-08-01", "ref": "140104000", "source:population": "Philippine Statistics Authority", "wikidata": "Q28030", "wikimedia_commons": "Category:Bucloc", "wikipedia": "en:Bucloc"}}, {"type": "node", "id": 198520714, "lat": 17.6090816, "lon": 120.9054377, "tags": {"admin_level": "6", "name": "Licuan-Baay", "place": "town", "place:PH": "municipality", "population": "4689", "population:date": "2015-08-01", "ref": "140113000", "short_name": "Licuan", "source:population": "Philippine Statistics Authority", "wikidata": "Q29045", "wikimedia_commons": "Category:Licuan-Baay", "wikipedia": "en:Licuan-Baay"}}, {"type": "node", "id": 198531228, "lat": 17.6643781, "lon": 120.9456603, "tags": {"admin_level": "6", "admin_type:PH": "municipality", "name": "Lacub", "place": "town", "population": "3403", "population:date": "2015-08-01", "ref": "140109000", "source:population": "Philippine Statistics Authority", "wikidata": "Q29007", "wikimedia_commons": "Category:Lacub", "wikipedia": "en:Lacub"}}, {"type": "node", "id": 198531286, "lat": 17.563315, "lon": 120.9890692, "tags": {"admin_level": "6", "name": "Malibcong", "place": "town", "place:PH": "municipality", "population": "3428", "population:date": "2015-08-01", "ref": "140115000", "source:population": "Philippine Statistics Authority", "wikidata": "Q29069", "wikimedia_commons": "Category:Malibcong", "wikipedia": "en:Malibcong"}}, {"type": "node", "id": 2791690647, "lat": 17.3522184, "lon": 121.1861997, "tags": {"admin_level": "10", "designation": "barangay", "is_in:town": "Lubuagan", "name": "Antonio Canao", "place": "village"}}, {"type": "node", "id": 2791690719, "lat": 17.3600668, "lon": 121.173195, "tags": {"admin_level": "10", "designation": "barangay", "fixme": "move node to barangay center", "is_in:town": "Lubuagan", "name": "Dangoy", "place": "village"}}, {"type": "node", "id": 2791690723, "lat": 17.3894553, "lon": 121.2003819, "tags": {"admin_level": "10", "designation": "barangay", "name": "Cagaluan", "place": "village"}}, {"type": "node", "id": 3553728122, "lat": 17.6002817, "lon": 120.8875754, "tags": {"fixme": "name", "place": "village"}}, {"type": "node", "id": 3553728157, "lat": 17.6277863, "lon": 120.9482843, "tags": {"is_in:town": "Licuan-Baay", "name": "Sucao", "place": "hamlet", "source": "deped"}}, {"type": "node", "id": 3553730534, "lat": 17.6367078, "lon": 120.8870824, "tags": {"admin_level": "10", "admin_type:PH": "barangay", "is_in:municipality": "Licuan-Baay", "name": "Lenneng", "place": "village", "postal_code": "2819"}}, {"type": "node", "id": 3553730819, "lat": 17.6441035, "lon": 120.9104565, "tags": {"fixme": "name", "place": "village"}}, {"type": "node", "id": 3553731401, "lat": 17.6496558, "lon": 120.8589737, "tags": {"name": "Kileng", "place": "hamlet", "source:name": "extrapolated from OSMaPaaralan, way/779021662"}}, {"type": "node", "id": 3553731919, "lat": 17.6605238, "lon": 120.9006247, "tags": {"fixme": "name", "place": "village"}}, {"type": "node", "id": 3553732158, "lat": 17.6671379, "lon": 120.9588671, "tags": {"admin_level": "10", "admin_type:PH": "barangay", "is_in:town": "Lacub", "name": "Pacoc", "old_ref": "140109005", "place": "village", "population": "100", "population:2015": "682", "ref": "1400109005", "source:population": "Philippine Statistics Authority"}}, {"type": "node", "id": 3553732179, "lat": 17.6672158, "lon": 120.9716602, "tags": {"admin_level": "10", "admin_type:PH": "barangay", "designation": "barangay", "is_in:town": "Lacub", "name": "Buneg", "old_ref": "140109002", "place": "village", "population": "865", "population:2015": "875", "ref": "1400109002", "source:name": "extrapolated from OSMaPaaralan, way/957012035", "source:population": "Philippine Statistics Authority"}}, {"type": "node", "id": 3553732190, "lat": 17.6681624, "lon": 120.9491336, "tags": {"admin_level": "10", "admin_type:PH": "sitio", "alt_name": "Talampak", "is_in:town": "Lacub", "is_in:village": "Pacoc", "name": "Talampak", "place": "neighbourhood"}}, {"type": "node", "id": 3553931301, "lat": 17.5714258, "lon": 120.9011111, "tags": {"admin_level": "11", "is_in:town": "Licuan-Baay", "name": "Baquero", "place": "hamlet", "place:PH": "sitio"}}, {"type": "node", "id": 3554502199, "lat": 17.7362283, "lon": 120.8929808, "tags": {"fixme": "name", "place": "village"}}, {"type": "node", "id": 3555659713, "lat": 17.444085, "lon": 120.8865151, "tags": {"admin_level": "10", "is_in": "Bucloc", "name": "Lingay", "place": "village", "place:PH": "barangay", "ref": "140104003"}}, {"type": "node", "id": 3555660010, "lat": 17.4505867, "lon": 120.9064526, "tags": {"admin_level": "10", "is_in": "Daguioman", "name": "Cabaruyan", "place": "village", "place:PH": "barangay", "ref": "140105002"}}, {"type": "node", "id": 3555660023, "lat": 17.458889, "lon": 120.9262943, "tags": {"admin_level": "6", "admin_type:PH": "municipality", "is_in:province": "Abra", "name": "Daguioman", "official_name": "Municipality of Daguioman", "old_ref": "140105000", "place": "town", "population": "2019", "population:date": "2020-05-01", "postal_code": "2816", "wikidata": "Q28044", "wikimedia_commons": "Category:Daguioman", "wikipedia": "en:Daguioman"}}, {"type": "node", "id": 3555660056, "lat": 17.4617672, "lon": 120.9328351, "tags": {"admin_level": "10", "is_in": "Daguioman", "name": "Ableg", "place": "village", "place:PH": "barangay", "ref": "140105001"}}, {"type": "node", "id": 4481023389, "lat": 17.4874981, "lon": 120.8871948, "tags": {"addr:city": "Licuan-Baay", "addr:country": "PH", "is_in:village": "Mapisla", "name": "Nangas-Asan", "place": "hamlet"}}, {"type": "node", "id": 4486247661, "lat": 17.3271428, "lon": 121.0274952, "tags": {"name": "Colayo", "place": "village"}}, {"type": "node", "id": 7698516094, "lat": 17.4507517, "lon": 120.9159511, "tags": {"admin_level": "10", "is_in": "Daguioman", "name": "Pikek", "place": "village", "place:PH": "barangay", "ref": "140105003"}}, {"type": "node", "id": 8416782240, "lat": 17.6397381, "lon": 120.988698, "tags": {"admin_level": "10", "is_in:town": "Malibcong", "name": "Bayabas", "place": "village", "place:PH": "barangay"}}, {"type": "node", "id": 8416782241, "lat": 17.6293703, "lon": 121.0463548, "tags": {"place": "hamlet"}}, {"type": "node", "id": 8416782242, "lat": 17.6208987, "lon": 121.0549539, "tags": {"place": "hamlet"}}, {"type": "node", "id": 8416782243, "lat": 17.6228977, "lon": 121.0610694, "tags": {"place": "hamlet"}}, {"type": "node", "id": 8416782244, "lat": 17.6241094, "lon": 121.0424253, "tags": {"admin_level": "10", "is_in:town": "Malibcong", "name": "Mataragan", "place": "village", "place:PH": "barangay"}}, {"type": "node", "id": 8416782245, "lat": 17.613393, "lon": 121.0260209, "tags": {"admin_level": "10", "is_in:town": "Malibcong", "name": "Dulao", "place": "village", "place:PH": "barangay"}}, {"type": "node", "id": 8416782247, "lat": 17.5806699, "lon": 121.0699958, "tags": {"place": "hamlet"}}, {"type": "node", "id": 8416782248, "lat": 17.5834364, "lon": 121.0674262, "tags": {"admin_level": "10", "admin_type:PH": "barangay", "designation": "barangay", "is_in:district": "Bangilo", "is_in:town": "Malibcong", "name": "Lat-ey", "place": "village", "source:name": "extrapolated from OSMaPaaralan"}}, {"type": "node", "id": 8416782249, "lat": 17.5865123, "lon": 121.0677159, "tags": {"place": "hamlet"}}, {"type": "node", "id": 8416782250, "lat": 17.5438412, "lon": 121.0166788, "tags": {"admin_level": "10", "designation": "barangay", "is_in:town": "Malibcong", "name": "Gacab", "place": "village", "source:name": "extrapolated from OSMaPaaralan, way/957038775"}}, {"type": "node", "id": 8416782251, "lat": 17.6031873, "lon": 121.0371923, "tags": {"place": "hamlet"}}, {"type": "node", "id": 8416782252, "lat": 17.581777, "lon": 121.0576415, "tags": {"admin_level": "10", "admin_type:PH": "barangay", "designation": "barangay", "is_in:district": "Bangilo", "is_in:town": "Malibcong", "name": "Buanao", "place": "village"}}, {"type": "node", "id": 8416782253, "lat": 17.5835157, "lon": 121.0541332, "tags": {"admin_level": "10", "admin_type:PH": "barangay", "designation": "barangay", "is_in:district": "Bangilo", "is_in:town": "Malibcong", "name": "Umnap", "place": "village"}}, {"type": "node", "id": 8416782254, "lat": 17.5741521, "lon": 121.0072535, "tags": {"admin_level": "10", "is_in:town": "Malibcong", "name": "Taripan", "place": "village", "place:PH": "barangay"}}, {"type": "node", "id": 8416782255, "lat": 17.5513459, "lon": 121.018213, "tags": {"place": "village"}}, {"type": "node", "id": 9154979256, "lat": 17.3933062, "lon": 121.3187599, "tags": {"admin_level": "10", "designation": "barangay", "name": "Amlao", "place": "village"}}, {"type": "node", "id": 9154979257, "lat": 17.4040663, "lon": 121.3141143, "tags": {"admin_level": "10", "designation": "barangay", "name": "Lucog", "place": "village"}}, {"type": "node", "id": 9154979258, "lat": 17.3947754, "lon": 121.3084817, "tags": {"place": "hamlet"}}, {"type": "node", "id": 9154979259, "lat": 17.3989883, "lon": 121.2986273, "tags": {"place": "hamlet"}}, {"type": "node", "id": 9154979260, "lat": 17.4068407, "lon": 121.2882525, "tags": {"place": "hamlet"}}, {"type": "node", "id": 9154979277, "lat": 17.4120976, "lon": 121.2654108, "tags": {"admin_level": "11", "admin_type:PH": "sitio", "name": "Gawidan", "place": "hamlet"}}, {"type": "node", "id": 9154979418, "lat": 17.4103316, "lon": 121.1949813, "tags": {"admin_level": "10", "admin_type:PH": "barangay", "name": "Balinciagao Norte", "place": "village"}}, {"type": "node", "id": 9154979419, "lat": 17.4142525, "lon": 121.2024701, "tags": {"name": "Wagas", "place": "hamlet"}}, {"type": "node", "id": 9154979420, "lat": 17.4037284, "lon": 121.1894828, "tags": {"admin_level": "10", "admin_type:PH": "barangay", "is_in:town": "Pasil", "name": "Balinciagao Sur", "place": "village"}}, {"type": "node", "id": 9154979421, "lat": 17.3961626, "lon": 121.1801648, "tags": {"admin_level": "10", "admin_type:PH": "barangay", "name": "Magsilay", "place": "village"}}, {"type": "node", "id": 9154979422, "lat": 17.3883585, "lon": 121.1817071, "tags": {"admin_level": "10", "admin_type:PH": "barangay", "name": "Ableg", "place": "village"}}, {"type": "node", "id": 9154979423, "lat": 17.388443, "lon": 121.1746234, "tags": {"admin_level": "10", "admin_type:PH": "barangay", "name": "Dalupa", "place": "village"}}, {"type": "node", "id": 9154979429, "lat": 17.3997152, "lon": 121.2070942, "tags": {"place": "hamlet"}}, {"type": "node", "id": 9154979586, "lat": 17.3706917, "lon": 121.2097772, "tags": {"admin_level": "10", "designation": "barangay", "is_in:town": "Lubuagan", "name": "Tanglag", "place": "village"}}, {"type": "node", "id": 9154979588, "lat": 17.3652256, "lon": 121.2014347, "tags": {"admin_level": "11", "admin_type:PH": "sitio", "is_in:town": "Lubuagan", "is_in:village": "Tanglag", "name": "Sukiap", "place": "hamlet"}}, {"type": "node", "id": 9154979589, "lat": 17.3958888, "lon": 121.2343052, "tags": {"admin_level": "11", "admin_type:PH": "sitio", "is_in:city": "Tabuk", "is_in:village": "Dupag", "name": "Tomiangan", "place": "hamlet"}}, {"type": "node", "id": 9154979590, "lat": 17.3929427, "lon": 121.2292653, "tags": {"admin_level": "11", "admin_type:PH": "sitio", "name": "Mosimos", "place": "hamlet"}}, {"type": "node", "id": 9154979591, "lat": 17.3985225, "lon": 121.2489688, "tags": {"place": "hamlet"}}, {"type": "node", "id": 9154979645, "lat": 17.4028941, "lon": 121.2404501, "tags": {"admin_level": "11", "admin_type:PH": "sitio", "is_in:village": "Dupag", "name": "Gaogao", "place": "hamlet"}}, {"type": "node", "id": 9154979646, "lat": 17.4094768, "lon": 121.2529653, "tags": {"admin_level": "10", "admin_type:PH": "barangay", "name": "Dupag", "place": "village"}}, {"type": "node", "id": 9154979647, "lat": 17.4088011, "lon": 121.2470376, "tags": {"admin_level": "11", "admin_type:PH": "sitio", "name": "Bullaguian", "place": "hamlet"}}, {"type": "node", "id": 9154979651, "lat": 17.4061343, "lon": 121.2703943, "tags": {"admin_level": "10", "designation": "barangay", "name": "Naneng", "place": "village"}}, {"type": "node", "id": 9154979802, "lat": 17.3381107, "lon": 121.2275273, "tags": {"admin_level": "10", "designation": "barangay", "is_in:town": "Tanudan", "name": "Taloctoc", "place": "village"}}, {"type": "node", "id": 9154980122, "lat": 17.3094049, "lon": 121.2387603, "tags": {"place": "village"}}, {"type": "node", "id": 9351101600, "lat": 17.6895418, "lon": 121.0249427, "tags": {"admin_level": "11", "designation": "sitio", "name": "Sap-al", "place": "hamlet"}}, {"type": "node", "id": 9442500038, "lat": 17.4934806, "lon": 121.2249792, "tags": {"admin_level": "11", "designation": "sitio", "name": "Bolo", "place": "hamlet"}}, {"type": "node", "id": 9442501365, "lat": 17.4393623, "lon": 121.2130755, "tags": {"admin_level": "11", "designation": "sitio", "name": "Sadsadan", "place": "hamlet"}}, {"type": "node", "id": 9573528309, "lat": 17.4767801, "lon": 120.8691734, "tags": {"admin_level": "10", "designation": "barangay", "name": "Ud-udiao", "place": "village"}}, {"type": "node", "id": 10892536878, "lat": 17.3292148, "lon": 121.165936, "tags": {"admin_level": "11", "designation": "sitio", "is_in:town": "Lubuagan", "is_in:village": "Mabilong", "name": "Manangol", "place": "hamlet"}}, {"type": "node", "id": 10892536879, "lat": 17.3487172, "lon": 121.1733873, "tags": {"admin_level": "10", "designation": "barangay", "is_in:town": "Lubuagan", "name": "Mabilong", "place": "village"}}, {"type": "node", "id": 10892536880, "lat": 17.3504245, "lon": 121.1874345, "tags": {"admin_level": "11", "designation": "sitio", "is_in:town": "Lubuagan", "is_in:village": "Antonio Canao", "name": "Dugnac", "place": "hamlet"}}, {"type": "node", "id": 10892536881, "lat": 17.3385474, "lon": 121.1899052, "tags": {"admin_level": "10", "designation": "barangay", "is_in:town": "Lubuagan", "name": "Mabongtot", "place": "village"}}, {"type": "node", "id": 10892547808, "lat": 17.3118202, "lon": 121.156252, "tags": {"admin_level": "11", "designation": "sitio", "is_in:town": "Tinglayan", "is_in:village": "Mallango", "name": "Char-ig", "place": "hamlet"}}, {"type": "node", "id": 11178803873, "lat": 17.48412, "lon": 121.0576335, "tags": {"admin_level": "10", "admin_type:PH": "barangay", "is_in:town": "Balbalan", "name": "Balbalasang", "place": "village"}}, {"type": "node", "id": 11178822347, "lat": 17.483923, "lon": 121.0429966, "tags": {"admin_level": "11", "is_in:village": "Balbalasang", "name": "Saltan", "place": "hamlet"}}, {"type": "node", "id": 11178824852, "lat": 17.5007725, "lon": 121.1031371, "tags": {"admin_level": "10", "admin_type:PH": "barangay", "is_in:town": "Balbalan", "name": "Talalang", "place": "village"}}, {"type": "node", "id": 11178872501, "lat": 17.4995842, "lon": 121.2026551, "tags": {"admin_level": "10", "admin_type:PH": "barangay", "alt_name": "Salegseg", "is_in:town": "Balbalan", "name": "Poblacion", "place": "village"}}, {"type": "node", "id": 11178872502, "lat": 17.4945652, "lon": 121.1701655, "tags": {"admin_level": "11", "is_in:village": "Pantikian", "name": "Bullalayao", "place": "hamlet"}}, {"type": "node", "id": 11178872503, "lat": 17.5012981, "lon": 121.1334568, "tags": {"admin_level": "11", "is_in:village": "Talalang", "name": "Sesec-an", "place": "hamlet"}}, {"type": "node", "id": 11178872512, "lat": 17.4973689, "lon": 121.1618614, "tags": {"admin_level": "10", "admin_type:PH": "barangay", "is_in:town": "Balbalan", "name": "Pantikian", "place": "village"}}, {"type": "node", "id": 11219573029, "lat": 17.4886174, "lon": 120.8988105, "tags": {"admin_level": "11", "admin_type:PH": "sitio", "is_in:town": "Sallapadan", "is_in:village": "Ud-udiao", "name": "Mabongtot", "place": "hamlet"}}, {"type": "node", "id": 11989421296, "lat": 17.69477, "lon": 120.911327, "tags": {"admin_level": "10", "admin_type:PH": "barangay", "is_in:municipality": "Lacub", "name": "Bacag", "place": "village", "postal_code": "2821"}}, {"type": "node", "id": 11989421297, "lat": 17.5930002, "lon": 120.9633297, "tags": {"admin_level": "10", "admin_type:PH": "barangay", "is_in:municipality": "Malibcong", "name": "Binasaran", "place": "village", "postal_code": "2820"}}, {"type": "node", "id": 11989421298, "lat": 17.5986864, "lon": 120.9082559, "tags": {"admin_level": "10", "admin_type:PH": "barangay", "alt_name": "Caoayan", "is_in:municipality": "Licuan-Baay", "name": "Cawayan", "place": "village", "postal_code": "2819"}}, {"type": "node", "id": 11989421299, "lat": 17.6121455, "lon": 120.9263366, "tags": {"is_in:municipality": "Licuan-Baay", "name": "Diangay", "place": "hamlet", "postal_code": "2819"}}, {"type": "node", "id": 11989421300, "lat": 17.5379181, "lon": 120.8826917, "tags": {"is_in:municipality": "Licuan-Baay", "name": "Agat", "place": "hamlet", "postal_code": "2819"}}, {"type": "node", "id": 11989421301, "lat": 17.547107, "lon": 120.8552903, "tags": {"admin_level": "10", "admin_type:PH": "barangay", "is_in:municipality": "Licuan-Baay", "name": "Bulbulala", "place": "village", "postal_code": "2819"}}, {"type": "node", "id": 11989421302, "lat": 17.546859, "lon": 120.8752674, "tags": {"is_in:municipality": "Licuan-Baay", "name": "Baay", "place": "hamlet", "postal_code": "2819"}}, {"type": "node", "id": 11989421303, "lat": 17.5468001, "lon": 120.8950795, "tags": {"admin_level": "10", "admin_type:PH": "barangay", "is_in:municipality": "Licuan-Baay", "name": "Subagan", "place": "village", "postal_code": "2819"}}, {"type": "node", "id": 11989421304, "lat": 17.5478794, "lon": 120.8836935, "tags": {"admin_level": "10", "admin_type:PH": "barangay", "is_in:municipality": "Licuan-Baay", "name": "Nalbuan", "place": "village", "postal_code": "2819"}}, {"type": "node", "id": 12635953042, "lat": 17.5719582, "lon": 121.2631524, "tags": {"admin_level": "10", "admin_type:PH": "barangay", "is_in:town": "Balbalan", "name": "Tawang", "place": "village"}}, {"type": "node", "id": 12636165097, "lat": 17.3975038, "lon": 121.1630845, "tags": {"admin_level": "10", "admin_type:PH": "barangay", "is_in:town": "Pasil", "name": "Malucsad", "place": "village"}}, {"type": "node", "id": 12636165098, "lat": 17.3965363, "lon": 121.1608046, "tags": {"admin_level": "10", "admin_type:PH": "barangay", "is_in:town": "Pasil", "name": "Pugong", "place": "village"}}]}