{"version": 0.6, "generator": "Overpass API 0.7.62.5 1bd436f1", "osm3s": {"timestamp_osm_base": "2025-05-24T18:08:39Z", "copyright": "The data included in this document is from www.openstreetmap.org. The data is made available under ODbL."}, "elements": [{"type": "node", "id": 1319905165, "lat": 5.4999089, "lon": 118.2079604, "tags": {"name": "Kampung Bilit", "place": "hamlet"}}, {"type": "node", "id": 3244616945, "lat": 5.6433749, "lon": 117.8303446, "tags": {"name": "Kampung Lot M", "place": "village"}}, {"type": "node", "id": 3244687861, "lat": 5.588993, "lon": 117.8466525, "tags": {"alt_name:ar": "\u0643\u064a\u0646\u0627\u0628\u0627\u062a\u0627\u0646\u0642\u0627\u0646;\u0643\u064a\u0646\u0627\u0628\u0627\u062a\u0627\u0646\u062c\u0627\u0646", "name": "Kinabatangan", "name:ar": "\u0643\u064a\u0646\u0627\u0628\u062a\u0646\u0642\u0627\u0646", "name:ja": "\u30b3\u30bf\u30ad\u30ca\u30d0\u30bf\u30f3\u30ac\u30f3", "name:zh": "\u4eac\u90a3\u5df4\u5f53\u5cb8", "place": "town", "population": "182328", "wikidata": "Q6433805", "wikipedia": "en:Kinabatangan"}}, {"type": "node", "id": 3244696913, "lat": 5.6059492, "lon": 117.8693107, "tags": {"name": "Pekan Kota Kinabatangan", "place": "neighbourhood"}}, {"type": "node", "id": 3249074801, "lat": 5.4472156, "lon": 117.952007, "tags": {"name": "Kg. Perpaduan Datok Moh", "place": "village"}}, {"type": "node", "id": 3253603857, "lat": 5.5718621, "lon": 117.9061674, "tags": {"name": "Kg. Jaya Baru", "place": "village"}}, {"type": "node", "id": 6192379685, "lat": 5.6487938, "lon": 118.025088, "tags": {"name": "Genting", "place": "hamlet"}}]}