{"version": 0.6, "generator": "Overpass API 0.7.62.5 1bd436f1", "osm3s": {"timestamp_osm_base": "2025-05-24T18:04:28Z", "copyright": "The data included in this document is from www.openstreetmap.org. The data is made available under ODbL."}, "elements": [{"type": "node", "id": 198501576, "lat": 8.7145642, "lon": 125.7481892, "tags": {"admin_level": "6", "gns_classification": "ADM2", "gns_uni": "-3330121", "is_in:province_code": "AGS", "is_in:state": "Agusan del Sur", "name": "Bayugan", "name:ja": "\u30d9\u30a4\u30e6\u30fc\u30ac\u30f3", "place": "city", "population": "103202", "population:date": "2015-08-01", "postal_code": "8502", "source": "GNS", "source:population": "Philippine Statistics Authority", "wikidata": "Q1694", "wikimedia_commons": "Category:Bayugan", "wikipedia": "en:Bayugan"}}, {"type": "node", "id": 198514645, "lat": 8.4486711, "lon": 125.7861565, "tags": {"admin_level": "6", "designation": "municipality", "ele": "20", "is_in:province": "Agusan del Sur", "name": "Talacogon", "name:uk": "\u0422\u0430\u043b\u0430\u043a\u043e\u0491\u043e\u043d", "official_name": "Municipality of Talacogon", "place": "town", "population": "39678", "population:date": "2020-05-01", "postal_code": "8510", "ref": "160311000", "source:population": "Philippine Statistics Authority", "start_date": "1872-11-13", "wikidata": "Q627286", "wikimedia_commons": "Category:Talacogon", "wikipedia": "en:Talacogon"}}, {"type": "node", "id": 198527144, "lat": 8.7359578, "lon": 125.6015136, "tags": {"admin_level": "6", "gns_classification": "ADM2", "gns_uni": "-3353307", "is_in:province": "Agusan del Norte", "name": "Las Nieves", "place": "town", "place:PH": "municipality", "population": "28414", "population:date": "2015-08-01", "source": "GNS", "source:population": "Philippine Statistics Authority", "wikidata": "Q627529", "wikimedia_commons": "Category:Las Nieves, Agusan del Norte", "wikipedia": "en:Las Nieves, Agusan del Norte"}}, {"type": "node", "id": 198531764, "lat": 8.4987859, "lon": 125.7373865, "tags": {"admin_level": "6", "designation": "municipality", "ele": "20", "is_in:province": "Agusan del Sur", "name": "San Luis", "official_name": "Municipality of San Luis", "place": "town", "population": "35196", "population:date": "2020-05-01", "postal_code": "8511", "ref": "160309000", "source:population": "Philippine Statistics Authority", "start_date": "1968-06-15", "wikidata": "Q627210", "wikimedia_commons": "Category:San Luis, Agusan del Sur", "wikipedia": "en:San Luis, Agusan del Sur"}}, {"type": "node", "id": 245197653, "lat": 8.9531262, "lon": 125.4640567, "tags": {"name": "Buenavista/Butuan City", "traffic_sign": "city_limit"}}, {"type": "node", "id": 968811882, "lat": 8.9474561, "lon": 125.5431973, "tags": {"admin_level": "6", "admin_type:PH": "highly_urbanized_city", "capital": "3", "name": "Butuan", "name:en": "Butuan", "name:ja": "\u30d6\u30c8\u30a5\u30a2\u30f3", "name:tl": "Butuan", "name:uk": "\u0411\u0443\u0442\u0443\u0430\u043d", "name:zh": "\u6b66\u7aef", "old_ref": "160202000", "place": "city", "population": "372910", "population:date": "2020-05-01", "ref": "1630400000", "wikidata": "Q1686", "wikimedia_commons": "Category:Butuan", "wikipedia": "en:Butuan"}}, {"type": "node", "id": 1286066030, "lat": 8.9997786, "lon": 125.7064888}, {"type": "node", "id": 1286066093, "lat": 8.7739215, "lon": 125.6586992}, {"type": "node", "id": 1649796346, "lat": 8.6788385, "lon": 125.646773, "tags": {"admin_level": "6", "gns_classification": "ADM2", "gns_uni": "6707691", "is_in:province": "Agusan del Sur", "name": "Esperanza", "place": "town", "place:PH": "municipality", "population": "54801", "population:date": "2015-08-01", "source": "GNS", "source:population": "Philippine Statistics Authority", "wikidata": "Q627077", "wikimedia_commons": "Category:Esperanza, Agusan del Sur", "wikipedia": "en:Esperanza, Agusan del Sur"}}, {"type": "node", "id": 1651181638, "lat": 8.9999814, "lon": 125.5266971}, {"type": "node", "id": 1651181701, "lat": 9.0077699, "lon": 125.5240149}, {"type": "node", "id": 1651181923, "lat": 9.0129907, "lon": 125.5187093}, {"type": "node", "id": 1651182051, "lat": 9.0051367, "lon": 125.5253291}, {"type": "node", "id": 3078034413, "lat": 8.6986076, "lon": 125.8180223, "tags": {"is_in:province": "Agusan del Sur", "is_in:town": "Bayugan", "name": "Osme\u00f1a", "place": "village", "population": "1573", "population:date": "2010", "source:population": "Philippine Statistical Authority, 2010"}}, {"type": "node", "id": 3638260605, "lat": 8.81953, "lon": 125.6931276, "tags": {"admin_level": "6", "admin_subdivisions": "24 barangays", "admin_type:PH": "municipality", "contact:website": "https://sibagat.gov.ph/", "ele": "60", "is_in:province": "Agusan del Sur", "name": "Sibagat", "name:etymology": "bagat", "name:etymology:wikidata": "Q2761147", "official_name": "Municipality of Sibagat", "old_ref": "160314000", "place": "town", "population": "33957", "population:date": "2020-05-01", "postal_code": "8503", "ref": "1600314000", "related_law": "Batas Pambansa Blg. 56", "start_date": "1980-02-01", "was_in:municipality": "Bayugan", "wikidata": "Q627260", "wikimedia_commons": "Category:Sibagat", "wikipedia": "en:Sibagat"}}, {"type": "node", "id": 3695020228, "lat": 8.7700741, "lon": 125.6409404}, {"type": "node", "id": 3695020229, "lat": 8.7706153, "lon": 125.640154}, {"type": "node", "id": 3695020230, "lat": 8.7710301, "lon": 125.6395841}, {"type": "node", "id": 3695020231, "lat": 8.7711368, "lon": 125.6390832}, {"type": "node", "id": 3695020232, "lat": 8.7713893, "lon": 125.6386386}, {"type": "node", "id": 3695020233, "lat": 8.7717465, "lon": 125.638536}, {"type": "node", "id": 3695020234, "lat": 8.7721799, "lon": 125.6383348}, {"type": "node", "id": 3695020235, "lat": 8.7723662, "lon": 125.638137}, {"type": "node", "id": 3695020236, "lat": 8.7728115, "lon": 125.6378158}, {"type": "node", "id": 3695020237, "lat": 8.7731826, "lon": 125.6378936}, {"type": "node", "id": 3695020238, "lat": 8.7734557, "lon": 125.6380693}, {"type": "node", "id": 3695020239, "lat": 8.7739116, "lon": 125.6384253}, {"type": "node", "id": 3695020240, "lat": 8.7740766, "lon": 125.6384294}, {"type": "node", "id": 3695020241, "lat": 8.7744537, "lon": 125.6381544}, {"type": "node", "id": 3695020242, "lat": 8.7746783, "lon": 125.6378333}, {"type": "node", "id": 3791443130, "lat": 8.7110843, "lon": 125.748249, "tags": {"admin_level": "10", "designation": "barangay", "is_in:city": "Bayugan", "name": "Poblacion", "place": "village"}}, {"type": "node", "id": 3846087087, "lat": 8.3949584, "lon": 125.816867, "tags": {"name": "La Flora", "place": "village"}}, {"type": "node", "id": 4001727110, "lat": 8.4896545, "lon": 125.8431692, "tags": {"admin_level": "10", "admin_type:PH": "barangay", "name": "Del Monte", "old_ref": "160311005", "place": "village", "population": "7777", "population:2015": "7750", "population:date": "2020-05-01"}}, {"type": "node", "id": 4019076788, "lat": 8.4238326, "lon": 125.7411677, "tags": {"admin_level": "10", "is_in:province": "Agusan del Sur", "is_in:town": "Talacogon", "name": "Zillovia", "place": "village", "place:PH": "barangay", "source:name": "extrapolated from OSMaPaaralan, way/850692548"}}, {"type": "node", "id": 4019167393, "lat": 8.4672478, "lon": 125.7945536, "tags": {"name": "Zamora", "place": "village"}}, {"type": "node", "id": 4019172196, "lat": 8.4895576, "lon": 125.7811834, "tags": {"name": "Culi Ram", "place": "village"}}, {"type": "node", "id": 4020862186, "lat": 8.8075493, "lon": 125.7010125, "tags": {"admin_level": "10", "is_in:town": "Sibagat", "name": "San Vicente", "place": "village", "place:PH": "barangay"}}, {"type": "node", "id": 4020862187, "lat": 8.7862088, "lon": 125.666801, "tags": {"admin_level": "10", "is_in:town": "Sibagat", "name": "Sinai", "place": "village", "place:PH": "barangay"}}, {"type": "node", "id": 4020886320, "lat": 8.8201182, "lon": 125.7060479, "tags": {"admin_level": "10", "alt_name": "Tag-oyango", "is_in:town": "Sibagat", "name": "Tag-uyango", "place": "village", "place:PH": "barangay"}}, {"type": "node", "id": 4020905927, "lat": 8.7940743, "lon": 125.6948668, "tags": {"admin_level": "10", "is_in:town": "Sibagat", "name": "Ilihan", "place": "village", "place:PH": "barangay"}}, {"type": "node", "id": 4020905960, "lat": 8.80869, "lon": 125.6787176, "tags": {"name": "Kauswagan", "place": "village"}}, {"type": "node", "id": 4183193780, "lat": 8.9969418, "lon": 125.5281629}, {"type": "node", "id": 4183196329, "lat": 8.999609, "lon": 125.5268731}, {"type": "node", "id": 4183196384, "lat": 9.004643, "lon": 125.5254946}, {"type": "node", "id": 4183389486, "lat": 9.0089858, "lon": 125.5231601}, {"type": "node", "id": 5854876930, "lat": 8.7527471, "lon": 125.7174617, "tags": {"admin_level": "10", "is_in:city": "Bayugan", "name": "Canayugan", "place": "village", "place:PH": "barangay"}}, {"type": "node", "id": 5854876931, "lat": 8.7447634, "lon": 125.7230464, "tags": {"admin_level": "10", "is_in:city": "Bayugan", "name": "Noli", "place": "village", "place:PH": "barangay"}}, {"type": "node", "id": 6048132010, "lat": 8.5382477, "lon": 125.8120425, "tags": {"admin_level": "10", "designation": "barangay", "is_in:town": "Prosperidad", "name": "San Roque", "place": "village"}}, {"type": "node", "id": 6048132011, "lat": 8.5799463, "lon": 125.8970117, "tags": {"name": "La Suerte", "place": "village"}}, {"type": "node", "id": 6048132167, "lat": 8.5668155, "lon": 125.873246, "tags": {"name": "Lucena", "place": "village"}}, {"type": "node", "id": 6048132395, "lat": 8.5939976, "lon": 125.8857266, "tags": {"name": "Mapaga", "place": "village"}}, {"type": "node", "id": 6198812247, "lat": 8.4543631, "lon": 125.7856218, "tags": {"name": "San Agustin", "place": "village"}}, {"type": "node", "id": 6198812254, "lat": 8.4511913, "lon": 125.7920698, "tags": {"name": "San Isidro", "place": "village"}}, {"type": "node", "id": 6198812255, "lat": 8.4599851, "lon": 125.7807161, "tags": {"name": "San Nicolas", "place": "village"}}, {"type": "node", "id": 6198812256, "lat": 8.4507767, "lon": 125.8016172, "tags": {"admin_level": "10", "admin_type:PH": "barangay", "is_in:municipality": "Talacogon", "name": "Labnig", "old_ref": "160311007", "place": "village", "population": "3426", "population:date": "2020-05-01"}}, {"type": "node", "id": 6198812486, "lat": 8.4472632, "lon": 125.8408769, "tags": {"admin_level": "10", "admin_type:PH": "barangay", "name": "Causwagan", "old_ref": "160311002", "place": "village", "population": "3132", "population:2015": "3055", "population:date": "2020-05-01"}}, {"type": "node", "id": 6198812648, "lat": 8.5123024, "lon": 125.8481084, "tags": {"name": "San Rafael", "place": "village"}}, {"type": "node", "id": 6198933031, "lat": 8.505966, "lon": 125.7209016, "tags": {"admin_level": "10", "designation": "barangay", "is_in:town": "San Luis", "name": "Nuevo Trabajo", "place": "village", "postal_code": "8511", "ref": "160309005"}}, {"type": "node", "id": 6198936164, "lat": 8.4465633, "lon": 125.7202104, "tags": {"admin_level": "10", "designation": "barangay", "is_in:town": "San Luis", "name": "Don Alejandro", "place": "village", "postal_code": "8511", "ref": "160309012"}}, {"type": "node", "id": 6297347502, "lat": 8.667579, "lon": 125.6623067, "tags": {"admin_level": "10", "designation": "barangay", "is_in:town": "Esperanza", "name": "Piglawigan", "place": "village", "postal_code": "8513", "ref": "160303044"}}, {"type": "node", "id": 6297347503, "lat": 8.6646597, "lon": 125.6823289, "tags": {"admin_level": "10", "designation": "barangay", "is_in:town": "Esperanza", "name": "Dakutan", "place": "village", "postal_code": "8513", "ref": "160303008"}}, {"type": "node", "id": 6297351387, "lat": 8.6460049, "lon": 125.6410763, "tags": {"admin_level": "10", "designation": "barangay", "is_in:town": "Esperanza", "name": "Nato", "place": "village", "postal_code": "8513", "ref": "160303017"}}, {"type": "node", "id": 6297353188, "lat": 8.673445, "lon": 125.6966758, "tags": {"admin_level": "10", "designation": "barangay", "is_in:town": "Esperanza", "name": "Crossing Luna", "place": "village", "postal_code": "8513", "ref": "160303035"}}, {"type": "node", "id": 6322181707, "lat": 8.5337409, "lon": 125.9093073, "tags": {"name": "La Caridad", "place": "village"}}, {"type": "node", "id": 6324579548, "lat": 8.513134, "lon": 125.9067264, "tags": {"name": "Tagapua", "place": "village"}}, {"type": "node", "id": 6334808401, "lat": 8.6790704, "lon": 125.8407417, "tags": {"name": "San Jose", "place": "village"}}, {"type": "node", "id": 6334811416, "lat": 8.7570048, "lon": 125.6793484, "tags": {"admin_level": "10", "is_in:city": "Bayugan", "name": "San Agustin", "place": "village", "place:PH": "barangay"}}, {"type": "node", "id": 6334812001, "lat": 8.7652881, "lon": 125.6902922, "tags": {"admin_level": "10", "is_in:city": "Bayugan", "name": "Taglibas", "place": "village", "place:PH": "barangay"}}, {"type": "node", "id": 6334812002, "lat": 8.7676379, "lon": 125.7134466, "tags": {"admin_level": "10", "is_in:city": "Bayugan", "name": "Mabuhay", "place": "village", "place:PH": "barangay"}}, {"type": "node", "id": 6334812490, "lat": 8.7810207, "lon": 125.6912265, "tags": {"fixme": "sitio?", "name": "Nieves", "place": "hamlet"}}, {"type": "node", "id": 6334812491, "lat": 8.796794, "lon": 125.709856, "tags": {"admin_level": "10", "is_in:city": "Bayugan", "name": "Wawa", "place": "village", "place:PH": "barangay"}}, {"type": "node", "id": 6345345727, "lat": 8.6701582, "lon": 125.8775759, "tags": {"name": "Santa Irene", "place": "village"}}, {"type": "node", "id": 6345345738, "lat": 8.6413301, "lon": 125.9080277, "tags": {"admin_level": "10", "is_in:town": "Prosperidad", "name": "Awa", "place": "village", "place:PH": "barangay"}}, {"type": "node", "id": 6345345749, "lat": 8.7119249, "lon": 125.7945639, "tags": {"name": "Hamogaway", "place": "village"}}, {"type": "node", "id": 6346354050, "lat": 8.6674774, "lon": 125.6298659, "tags": {"admin_level": "10", "designation": "barangay", "is_in:town": "Esperanza", "name": "Hawilian", "place": "village", "postal_code": "8513", "ref": "160303012"}}, {"type": "node", "id": 6346354079, "lat": 8.6918205, "lon": 125.6243802, "tags": {"admin_level": "10", "designation": "barangay", "is_in:town": "Esperanza", "name": "Langag", "place": "village", "postal_code": "8513", "ref": "160303040"}}, {"type": "node", "id": 6346391265, "lat": 8.7049328, "lon": 125.6389505, "tags": {"admin_level": "10", "admin_type:PH": "barangay", "is_in:municipality": "Las Nieves", "name": "Eduardo G. Montilla", "official_name": "Barangay Eduardo G. Montilla", "old_name": "Camboayon", "place": "village", "postal_code": "8610"}}, {"type": "node", "id": 6346392831, "lat": 8.7114187, "lon": 125.6281872, "tags": {"admin_level": "10", "admin_type:PH": "barangay", "is_in:municipality": "Las Nieves", "name": "Ambacon", "official_name": "Barangay Ambaco", "place": "village", "postal_code": "8610"}}, {"type": "node", "id": 6346392832, "lat": 8.6920494, "lon": 125.6524252, "tags": {"admin_level": "10", "alt_name": "Kubo", "designation": "barangay", "is_in:town": "Esperanza", "name": "Cubo", "place": "village", "postal_code": "8513", "ref": "160303036"}}, {"type": "node", "id": 6346392844, "lat": 8.6771388, "lon": 125.6461659, "tags": {"admin_level": "10", "designation": "barangay", "is_in:town": "Esperanza", "name": "Poblacion", "place": "village", "postal_code": "8513", "ref": "160303019"}}, {"type": "node", "id": 6346392900, "lat": 8.6270276, "lon": 125.7148408, "tags": {"admin_level": "10", "designation": "barangay", "is_in:town": "Esperanza", "name": "Labao", "place": "village", "postal_code": "8513", "ref": "160303013"}}, {"type": "node", "id": 6346392951, "lat": 8.6580015, "lon": 125.7838553, "tags": {"admin_level": "10", "is_in:city": "Bayugan", "name": "Marcelina", "place": "village", "place:PH": "barangay"}}, {"type": "node", "id": 6346765925, "lat": 8.6856833, "lon": 125.712267, "tags": {"admin_level": "10", "is_in:city": "Bayugan", "name": "Salvacion", "place": "village", "place:PH": "barangay"}}, {"type": "node", "id": 6346765972, "lat": 8.698363, "lon": 125.7301339, "tags": {"admin_level": "10", "is_in:city": "Bayugan", "name": "Cagbas", "place": "village", "place:PH": "barangay"}}, {"type": "node", "id": 6346765973, "lat": 8.7094476, "lon": 125.7191036, "tags": {"admin_level": "10", "is_in:city": "Bayugan", "name": "Maygatasan", "place": "village", "place:PH": "barangay"}}, {"type": "node", "id": 6346767073, "lat": 8.7123978, "lon": 125.7584664, "tags": {"admin_level": "10", "admin_type:PH": "barangay", "is_in:city": "Bayugan", "name": "Taglatawan", "official_name": "Barangay Taglatawan", "place": "village", "postal_code": "8502"}}, {"type": "node", "id": 6346767074, "lat": 8.7124057, "lon": 125.7698779, "tags": {"name": "Fili", "place": "village"}}, {"type": "node", "id": 6346767075, "lat": 8.7150452, "lon": 125.7826892, "tags": {"name": "Santa Teresita", "place": "village"}}, {"type": "node", "id": 6348700723, "lat": 8.7196365, "lon": 125.826315, "tags": {"name": "Magkiangkang", "place": "village"}}, {"type": "node", "id": 6348701115, "lat": 8.6607274, "lon": 125.8893419, "tags": {"name": "Santa Maria", "place": "village"}}, {"type": "node", "id": 6349024403, "lat": 8.5915031, "lon": 125.8400216, "tags": {"name": "Aurora", "place": "village"}}, {"type": "node", "id": 6374801667, "lat": 8.7249801, "lon": 125.7045494, "tags": {"admin_level": "10", "is_in:city": "Bayugan", "name": "Verdu", "place": "village", "place:PH": "barangay"}}, {"type": "node", "id": 6374802538, "lat": 8.7369181, "lon": 125.7001221, "tags": {"admin_level": "10", "is_in:city": "Bayugan", "name": "Sagmone", "place": "village", "place:PH": "barangay"}}, {"type": "node", "id": 6479845035, "lat": 8.8258315, "lon": 125.5337822, "tags": {"admin_level": "10", "admin_type:PH": "barangay", "is_in:city": "Butuan", "name": "Dulag", "place": "village"}}, {"type": "node", "id": 6479846991, "lat": 8.8047578, "lon": 125.5250424, "tags": {"admin_level": "10", "designation": "barangay", "is_in:city": "Butuan", "is_in:town": "?", "is_in:village": "?", "name": "Manila de Bugabus", "place": "village", "population": "3763", "population:2015": "3785", "population:date": "2020-05-01", "postal_code": "9600", "ref": "160202065", "source:population": "Philippine Statistics Authority"}}, {"type": "node", "id": 6479848968, "lat": 8.805923, "lon": 125.5716583, "tags": {"name": "Manuel J Santos", "place": "village", "short_name": "M.J. Santos"}}, {"type": "node", "id": 6479850812, "lat": 8.78465, "lon": 125.5639697, "tags": {"admin_level": "10", "admin_type:PH": "barangay", "designation": "barangay", "is_in:city": "Butuan", "name": "San Mateo", "place": "village", "postal_code": "9600", "source:name": "extrapolated from OSMaPaaralan, way/960615164"}}, {"type": "node", "id": 6484555291, "lat": 8.7683272, "lon": 125.7793131, "tags": {"admin_level": "10", "is_in:city": "Bayugan", "name": "Calaitan", "place": "village", "place:PH": "barangay"}}, {"type": "node", "id": 6484555292, "lat": 8.7325684, "lon": 125.7525372, "tags": {"name": "Santa Irene", "place": "village"}}, {"type": "node", "id": 6484555452, "lat": 8.6947232, "lon": 125.5704696, "tags": {"admin_level": "10", "admin_type:PH": "barangay", "is_in:municipality": "Las Nieves", "name": "Consorcia", "official_name": "Barangay Consorcia", "old_ref": "160207003", "place": "village", "population": "1383", "population:date": "2020-05-01", "postal_code": "8610", "ref": "1600207003"}}, {"type": "node", "id": 6484555453, "lat": 8.6798313, "lon": 125.5251959, "tags": {"admin_level": "10", "designation": "barangay", "is_in:town": "Esperanza", "name": "Bakingking", "place": "village", "postal_code": "8513", "ref": "160303002"}}, {"type": "node", "id": 6484555610, "lat": 8.612862, "lon": 125.4783082, "tags": {"admin_level": "10", "designation": "barangay", "is_in:town": "Esperanza", "name": "Bunaguit", "place": "village", "postal_code": "8513", "ref": "160303004"}}, {"type": "node", "id": 6484555611, "lat": 8.6826127, "lon": 125.4772407, "tags": {"admin_level": "10", "designation": "barangay", "is_in:town": "Esperanza", "name": "Maasin", "place": "village", "postal_code": "8513", "ref": "160303014"}}, {"type": "node", "id": 6484555628, "lat": 8.7426741, "lon": 125.6718383, "tags": {"admin_level": "10", "admin_type:PH": "barangay", "is_in:municipality": "Las Nieves", "name": "Marcos Calo", "official_name": "Barangay Marcos Calo", "place": "village", "postal_code": "8610"}}, {"type": "node", "id": 6484555629, "lat": 8.5907122, "lon": 125.668721, "tags": {"admin_level": "10", "admin_type:PH": "barangay", "is_in:municipality": "Esperanza", "name": "Oromica", "nat_name": "Barangay Oro", "official_name": "Barangay Oromica", "old_ref": "160303018", "place": "village", "population": "2183", "population:date": "2020-05-01", "postal_code": "8513", "ref": "1600303018", "short_name": "Oro"}}, {"type": "node", "id": 6484555636, "lat": 8.611019, "lon": 125.6607137, "tags": {"admin_level": "10", "designation": "barangay", "is_in:town": "Esperanza", "name": "Tahina", "place": "village", "postal_code": "8513", "ref": "160303029"}}, {"type": "node", "id": 6484555637, "lat": 8.626111, "lon": 125.6888455, "tags": {"admin_level": "10", "designation": "barangay", "is_in:town": "Esperanza", "name": "Santa Fe", "place": "village", "postal_code": "8513", "ref": "160303023"}}, {"type": "node", "id": 6484555685, "lat": 8.6144532, "lon": 125.6760567, "tags": {"admin_level": "10", "designation": "barangay", "is_in:town": "Esperanza", "name": "Concordia", "place": "village", "postal_code": "8513", "ref": "160303007"}}, {"type": "node", "id": 6484555754, "lat": 8.4856844, "lon": 125.5082309, "tags": {"admin_level": "10", "designation": "barangay", "ele": "80", "is_in:town": "San Luis", "name": "Mahagsay", "place": "village", "postal_code": "8511", "ref": "160309015"}}, {"type": "node", "id": 6484555756, "lat": 8.6368509, "lon": 125.5811977, "tags": {"admin_level": "10", "designation": "barangay", "is_in:town": "Esperanza", "name": "Milagros", "place": "village", "postal_code": "8513", "ref": "160303016"}}, {"type": "node", "id": 6484555836, "lat": 8.6683397, "lon": 125.6092053, "tags": {"admin_level": "10", "designation": "barangay", "is_in:town": "Esperanza", "name": "Remedios", "place": "village", "postal_code": "8513", "ref": "160303020"}}, {"type": "node", "id": 6484555869, "lat": 8.8017966, "lon": 125.5440085, "tags": {"admin_level": "11", "designation": "sitio", "is_in:city": "Butuan", "is_in:village": "Manila de Bugabus", "name": "Mabuhay", "place": "village", "postal_code": "9600"}}, {"type": "node", "id": 6484555871, "lat": 8.8205194, "lon": 125.5194399, "tags": {"admin_level": "11", "admin_type:PH": "sitio", "is_in:city": "Butuan", "is_in:quarter": "Manila de Bugabus", "name": "Santa Cruz", "place": "village"}}, {"type": "node", "id": 6484555927, "lat": 8.6972751, "lon": 125.672822, "tags": {"admin_level": "10", "designation": "barangay", "is_in:town": "Esperanza", "name": "San Isidro", "place": "village", "postal_code": "8513", "ref": "160303045"}}, {"type": "node", "id": 6484555928, "lat": 8.8259267, "lon": 125.6265671, "tags": {"admin_level": "10", "admin_type:PH": "barangay", "is_in:city": "Butuan", "name": "Sumile", "old_ref": "160202101", "place": "village", "population": "2399", "population:2015": "2087", "population:date": "2020-05-01", "ref": "1630400101", "source:population": "Philippine Statistics Authority"}}, {"type": "node", "id": 6484555931, "lat": 8.8368382, "lon": 125.6075906, "tags": {"admin_level": "10", "admin_type:PH": "barangay", "is_in:town": "?", "is_in:village": "?", "name": "Maibu", "place": "village"}}, {"type": "node", "id": 6484555972, "lat": 8.7840973, "lon": 125.5872059, "tags": {"admin_level": "10", "admin_type:PH": "barangay", "is_in:city": "Butuan", "name": "Florida", "place": "village", "population": "2752", "population:2015": "2507", "population:date": "2020-05-01", "source:population": "Philippine Statistics Authority"}}, {"type": "node", "id": 6484555973, "lat": 8.8205997, "lon": 125.5897834, "tags": {"admin_level": "10", "admin_type:PH": "barangay", "is_in:city": "Butuan", "name": "Maguinda", "place": "village", "source:name": "extrapolated from OSMaPaaralan, way/691139115"}}, {"type": "node", "id": 6484555976, "lat": 8.6159776, "lon": 125.7526439, "tags": {"admin_level": "10", "designation": "barangay", "is_in:town": "Esperanza", "name": "Odiong", "place": "village", "postal_code": "8513", "ref": "160303043"}}, {"type": "node", "id": 6484555980, "lat": 8.5260004, "lon": 125.7589316, "tags": {"admin_level": "10", "designation": "barangay", "is_in:town": "San Luis", "name": "Muritula", "place": "village", "postal_code": "8511", "ref": "160309018"}}, {"type": "node", "id": 6484555981, "lat": 8.4948155, "lon": 125.7578587, "tags": {"place": "village"}}, {"type": "node", "id": 6484555982, "lat": 8.5204989, "lon": 125.7290357, "tags": {"admin_level": "10", "designation": "barangay", "is_in:town": "San Luis", "name": "Santa Ines", "place": "village", "postal_code": "8511", "ref": "160309007"}}, {"type": "node", "id": 6484555983, "lat": 8.546854, "lon": 125.7180165, "tags": {"admin_level": "10", "designation": "barangay", "is_in:town": "San Luis", "name": "Dimasalang", "place": "village", "postal_code": "8511", "ref": "160309011"}}, {"type": "node", "id": 6484555984, "lat": 8.5803257, "lon": 125.7105573, "tags": {"admin_level": "10", "admin_type:PH": "barangay", "is_in:municipality": "Esperanza", "name": "Guadalupe", "old_ref": "160303011", "place": "village", "population": "4111", "population:date": "2020-05-01", "postal_code": "8513", "ref": "1600303011"}}, {"type": "node", "id": 6484555989, "lat": 8.5436342, "lon": 125.6969941, "tags": {"admin_level": "10", "designation": "barangay", "is_in:town": "Esperanza", "name": "Tandang Sora", "place": "village", "postal_code": "8513", "ref": "160303030"}}, {"type": "node", "id": 6484614680, "lat": 8.7597133, "lon": 125.5807496, "tags": {"name": "Dankias", "place": "village"}}, {"type": "node", "id": 6484621309, "lat": 8.7599442, "lon": 125.603021, "tags": {"name": "Mandamo", "place": "village"}}, {"type": "node", "id": 6486733610, "lat": 8.9505744, "lon": 125.6929707}, {"type": "node", "id": 6486733611, "lat": 8.9498007, "lon": 125.6919408}, {"type": "node", "id": 6486733612, "lat": 8.94908, "lon": 125.6918228}, {"type": "node", "id": 6486733613, "lat": 8.9487091, "lon": 125.6920588}, {"type": "node", "id": 6486733614, "lat": 8.9490376, "lon": 125.6931424}, {"type": "node", "id": 6486733615, "lat": 8.9496735, "lon": 125.6944942}, {"type": "node", "id": 6486733616, "lat": 8.9497371, "lon": 125.694977}, {"type": "node", "id": 6486733617, "lat": 8.9496205, "lon": 125.6953955}, {"type": "node", "id": 6486733618, "lat": 8.949398, "lon": 125.6956208}, {"type": "node", "id": 6486733619, "lat": 8.9488257, "lon": 125.6959748}, {"type": "node", "id": 6486733620, "lat": 8.9482852, "lon": 125.6961894}, {"type": "node", "id": 6486733621, "lat": 8.9474691, "lon": 125.696286}, {"type": "node", "id": 6486733622, "lat": 8.9464728, "lon": 125.6959963}, {"type": "node", "id": 6486733623, "lat": 8.9464728, "lon": 125.6955778}, {"type": "node", "id": 6486733624, "lat": 8.9470876, "lon": 125.6951809}, {"type": "node", "id": 6486733625, "lat": 8.9476917, "lon": 125.6949985}, {"type": "node", "id": 6486733626, "lat": 8.9480096, "lon": 125.6947088}, {"type": "node", "id": 6486733627, "lat": 8.9480202, "lon": 125.6944621}, {"type": "node", "id": 6486733628, "lat": 8.9478506, "lon": 125.6941616}, {"type": "node", "id": 6486733629, "lat": 8.9467166, "lon": 125.6943011}, {"type": "node", "id": 6486733630, "lat": 8.9462821, "lon": 125.694108}, {"type": "node", "id": 6486733631, "lat": 8.9459217, "lon": 125.6936896}, {"type": "node", "id": 6486733632, "lat": 8.9452752, "lon": 125.6930458}, {"type": "node", "id": 6486733633, "lat": 8.9447241, "lon": 125.6924343}, {"type": "node", "id": 6486733634, "lat": 8.9449361, "lon": 125.6918442}, {"type": "node", "id": 6486733635, "lat": 8.9452752, "lon": 125.6917047}, {"type": "node", "id": 6486733636, "lat": 8.9455296, "lon": 125.6921017}, {"type": "node", "id": 6486733637, "lat": 8.9460595, "lon": 125.6927025}, {"type": "node", "id": 6486733638, "lat": 8.9465682, "lon": 125.692842}, {"type": "node", "id": 6486733639, "lat": 8.9468332, "lon": 125.6927669}, {"type": "node", "id": 6486733640, "lat": 8.946812, "lon": 125.6915545}, {"type": "node", "id": 6486733641, "lat": 8.9460277, "lon": 125.6898701}, {"type": "node", "id": 6486733642, "lat": 8.9458264, "lon": 125.689044}, {"type": "node", "id": 6486733643, "lat": 8.9454872, "lon": 125.6888831}, {"type": "node", "id": 6486733644, "lat": 8.9450951, "lon": 125.6890762}, {"type": "node", "id": 6486733645, "lat": 8.9447453, "lon": 125.6899774}, {"type": "node", "id": 6486733646, "lat": 8.944438, "lon": 125.6905031}, {"type": "node", "id": 6486733647, "lat": 8.9440564, "lon": 125.6907821}, {"type": "node", "id": 6486733648, "lat": 8.9433781, "lon": 125.6904387}, {"type": "node", "id": 6486733649, "lat": 8.942615, "lon": 125.689398}, {"type": "node", "id": 6486733650, "lat": 8.943145, "lon": 125.6888831}, {"type": "node", "id": 6486733651, "lat": 8.9439186, "lon": 125.688647}, {"type": "node", "id": 6486733652, "lat": 8.9443426, "lon": 125.6885183}, {"type": "node", "id": 6486733653, "lat": 8.9448513, "lon": 125.6882822}, {"type": "node", "id": 6486733654, "lat": 8.9450739, "lon": 125.6877458}, {"type": "node", "id": 6486733655, "lat": 8.9449891, "lon": 125.6867587}, {"type": "node", "id": 6486733656, "lat": 8.9446817, "lon": 125.6861794}, {"type": "node", "id": 6486733657, "lat": 8.9441518, "lon": 125.6862759}, {"type": "node", "id": 6486733658, "lat": 8.9431026, "lon": 125.6869304}, {"type": "node", "id": 6486733659, "lat": 8.9420109, "lon": 125.687499}, {"type": "node", "id": 6486733660, "lat": 8.9416718, "lon": 125.6876171}, {"type": "node", "id": 6486733661, "lat": 8.9412584, "lon": 125.6875956}, {"type": "node", "id": 6486733662, "lat": 8.9410995, "lon": 125.6869089}, {"type": "node", "id": 6486733663, "lat": 8.9413326, "lon": 125.6858575}, {"type": "node", "id": 6486733664, "lat": 8.9422229, "lon": 125.6853533}, {"type": "node", "id": 6486733665, "lat": 8.9426892, "lon": 125.684613}, {"type": "node", "id": 6486733666, "lat": 8.9427316, "lon": 125.683701}, {"type": "node", "id": 6486733667, "lat": 8.9420957, "lon": 125.6830037}, {"type": "node", "id": 6486733668, "lat": 8.9410253, "lon": 125.6825423}, {"type": "node", "id": 6486733669, "lat": 8.9400608, "lon": 125.6824243}, {"type": "node", "id": 6486733670, "lat": 8.9396263, "lon": 125.6822956}, {"type": "node", "id": 6486733671, "lat": 8.9393719, "lon": 125.681963}, {"type": "node", "id": 6486733672, "lat": 8.9395839, "lon": 125.6814587}, {"type": "node", "id": 6486733673, "lat": 8.9406119, "lon": 125.681051}, {"type": "node", "id": 6486733674, "lat": 8.9411101, "lon": 125.6810188}, {"type": "node", "id": 6486733675, "lat": 8.9413856, "lon": 125.6808364}, {"type": "node", "id": 6486733676, "lat": 8.9413326, "lon": 125.6806326}, {"type": "node", "id": 6486733677, "lat": 8.9406543, "lon": 125.6804609}, {"type": "node", "id": 6486733678, "lat": 8.9395733, "lon": 125.6803214}, {"type": "node", "id": 6486733679, "lat": 8.9390222, "lon": 125.6799996}, {"type": "node", "id": 6486733680, "lat": 8.9387572, "lon": 125.6796133}, {"type": "node", "id": 6486733681, "lat": 8.9386406, "lon": 125.6791413}, {"type": "node", "id": 6486733682, "lat": 8.9388844, "lon": 125.6788838}, {"type": "node", "id": 6486733683, "lat": 8.9394567, "lon": 125.678755}, {"type": "node", "id": 6486733684, "lat": 8.9396581, "lon": 125.6783688}, {"type": "node", "id": 6486733685, "lat": 8.9393931, "lon": 125.6781649}, {"type": "node", "id": 6486733686, "lat": 8.9390116, "lon": 125.6782615}, {"type": "node", "id": 6486733687, "lat": 8.9384816, "lon": 125.678519}, {"type": "node", "id": 6486733688, "lat": 8.9380259, "lon": 125.6785297}, {"type": "node", "id": 6486733689, "lat": 8.9375278, "lon": 125.6781006}, {"type": "node", "id": 6486733690, "lat": 8.9374536, "lon": 125.6770921}, {"type": "node", "id": 6486733691, "lat": 8.937602, "lon": 125.6762016}, {"type": "node", "id": 6486733692, "lat": 8.9381849, "lon": 125.6758261}, {"type": "node", "id": 6486733693, "lat": 8.9389904, "lon": 125.6758475}, {"type": "node", "id": 6486733694, "lat": 8.9402516, "lon": 125.6761157}, {"type": "node", "id": 6486733695, "lat": 8.941322, "lon": 125.6758261}, {"type": "node", "id": 6486733696, "lat": 8.9418838, "lon": 125.6756544}, {"type": "node", "id": 6486733697, "lat": 8.9420957, "lon": 125.6752896}, {"type": "node", "id": 6486733698, "lat": 8.9417778, "lon": 125.6745601}, {"type": "node", "id": 6486733699, "lat": 8.9411843, "lon": 125.6741416}, {"type": "node", "id": 6486733700, "lat": 8.9408875, "lon": 125.6736374}, {"type": "node", "id": 6486733701, "lat": 8.9409723, "lon": 125.6730902}, {"type": "node", "id": 6486733702, "lat": 8.9408451, "lon": 125.6727683}, {"type": "node", "id": 6486733703, "lat": 8.9403364, "lon": 125.6725967}, {"type": "node", "id": 6486733704, "lat": 8.9389586, "lon": 125.6724465}, {"type": "node", "id": 6486733705, "lat": 8.9381743, "lon": 125.6718027}, {"type": "node", "id": 6486733706, "lat": 8.9381637, "lon": 125.6709015}, {"type": "node", "id": 6486733707, "lat": 8.9388738, "lon": 125.6702363}, {"type": "node", "id": 6486733708, "lat": 8.9393083, "lon": 125.6687128}, {"type": "node", "id": 6486733709, "lat": 8.939001, "lon": 125.6668997}, {"type": "node", "id": 6486733710, "lat": 8.938842, "lon": 125.6663847}, {"type": "node", "id": 6486733711, "lat": 8.9384392, "lon": 125.6658697}, {"type": "node", "id": 6486733712, "lat": 8.9380365, "lon": 125.6658697}, {"type": "node", "id": 6486733713, "lat": 8.9375066, "lon": 125.6658053}, {"type": "node", "id": 6486733714, "lat": 8.9373688, "lon": 125.6651294}, {"type": "node", "id": 6486733715, "lat": 8.9377503, "lon": 125.6646359}, {"type": "node", "id": 6486733716, "lat": 8.9379305, "lon": 125.6640029}, {"type": "node", "id": 6486733717, "lat": 8.9375172, "lon": 125.6633592}, {"type": "node", "id": 6486733718, "lat": 8.9370932, "lon": 125.6632626}, {"type": "node", "id": 6486733719, "lat": 8.9364997, "lon": 125.6634235}, {"type": "node", "id": 6486733720, "lat": 8.936044, "lon": 125.6640673}, {"type": "node", "id": 6486733721, "lat": 8.93562, "lon": 125.6645179}, {"type": "node", "id": 6486733722, "lat": 8.9351007, "lon": 125.664593}, {"type": "node", "id": 6486733723, "lat": 8.9348993, "lon": 125.6642818}, {"type": "node", "id": 6486733724, "lat": 8.9349735, "lon": 125.6638849}, {"type": "node", "id": 6486733725, "lat": 8.9349417, "lon": 125.6631124}, {"type": "node", "id": 6486733726, "lat": 8.9344542, "lon": 125.6626403}, {"type": "node", "id": 6486733727, "lat": 8.9333731, "lon": 125.6618142}, {"type": "node", "id": 6486733728, "lat": 8.93261, "lon": 125.6617606}, {"type": "node", "id": 6486733729, "lat": 8.9313699, "lon": 125.6623185}, {"type": "node", "id": 6486733730, "lat": 8.9305432, "lon": 125.662533}, {"type": "node", "id": 6486733731, "lat": 8.9295258, "lon": 125.6624472}, {"type": "node", "id": 6486733732, "lat": 8.9288686, "lon": 125.6611705}, {"type": "node", "id": 6486733733, "lat": 8.9282221, "lon": 125.6595719}, {"type": "node", "id": 6486733734, "lat": 8.9274908, "lon": 125.6587458}, {"type": "node", "id": 6486733735, "lat": 8.9270774, "lon": 125.6587565}, {"type": "node", "id": 6486733736, "lat": 8.9263249, "lon": 125.6594217}, {"type": "node", "id": 6486733737, "lat": 8.9253498, "lon": 125.6610203}, {"type": "node", "id": 6486733738, "lat": 8.9246821, "lon": 125.6619644}, {"type": "node", "id": 6486733739, "lat": 8.9242899, "lon": 125.6622326}, {"type": "node", "id": 6486733740, "lat": 8.9236434, "lon": 125.6622004}, {"type": "node", "id": 6486733741, "lat": 8.9230498, "lon": 125.6619537}, {"type": "node", "id": 6486733742, "lat": 8.9227637, "lon": 125.6617069}, {"type": "node", "id": 6486733743, "lat": 8.9228167, "lon": 125.6613314}, {"type": "node", "id": 6486733744, "lat": 8.9232194, "lon": 125.6611597}, {"type": "node", "id": 6486733745, "lat": 8.9239084, "lon": 125.660634}, {"type": "node", "id": 6486733746, "lat": 8.9241627, "lon": 125.6602263}, {"type": "node", "id": 6486733747, "lat": 8.923972, "lon": 125.6599259}, {"type": "node", "id": 6486733748, "lat": 8.9233572, "lon": 125.6598401}, {"type": "node", "id": 6486733749, "lat": 8.9228273, "lon": 125.6600976}, {"type": "node", "id": 6486733750, "lat": 8.9222973, "lon": 125.6604838}, {"type": "node", "id": 6486733751, "lat": 8.9219157, "lon": 125.6604194}, {"type": "node", "id": 6486733752, "lat": 8.921619, "lon": 125.6583166}, {"type": "node", "id": 6486733753, "lat": 8.9213434, "lon": 125.6558919}, {"type": "node", "id": 6486733754, "lat": 8.9207711, "lon": 125.654819}, {"type": "node", "id": 6486733755, "lat": 8.9200927, "lon": 125.6547761}, {"type": "node", "id": 6486733756, "lat": 8.9194568, "lon": 125.6552052}, {"type": "node", "id": 6486733757, "lat": 8.9194144, "lon": 125.6557846}, {"type": "node", "id": 6486733758, "lat": 8.919584, "lon": 125.6562781}, {"type": "node", "id": 6486733759, "lat": 8.9193508, "lon": 125.6570935}, {"type": "node", "id": 6486733760, "lat": 8.9187572, "lon": 125.6573725}, {"type": "node", "id": 6486733761, "lat": 8.9172309, "lon": 125.6569862}, {"type": "node", "id": 6486733762, "lat": 8.9160226, "lon": 125.6569433}, {"type": "node", "id": 6486735081, "lat": 8.7787374, "lon": 125.56835, "tags": {"admin_level": "10", "designation": "barangay", "is_in:city": "Butuan", "name": "Tungao", "place": "village", "postal_code": "9600"}}, {"type": "node", "id": 6509818992, "lat": 8.765671, "lon": 125.515955, "tags": {"admin_level": "11", "designation": "sitio", "is_in:city": "Butuan", "name": "Kauswagan", "place": "village", "postal_code": "9600"}}, {"type": "node", "id": 6509819000, "lat": 8.7610615, "lon": 125.5031991, "tags": {"place": "hamlet"}}, {"type": "node", "id": 6509819001, "lat": 8.7508077, "lon": 125.4989933, "tags": {"admin_level": "11", "designation": "sitio", "is_in:city": "Butuan", "name": "Bagong Silang", "place": "village", "postal_code": "9600"}}, {"type": "node", "id": 6509819002, "lat": 8.7690036, "lon": 125.4814839, "tags": {"place": "hamlet"}}, {"type": "node", "id": 6509819005, "lat": 8.7286225, "lon": 125.4619807, "tags": {"admin_level": "10", "admin_type:PH": "barangay", "is_in:municipality": "Las Nieves", "name": "Casiklan", "official_name": "Barangay Casiklan", "place": "village", "postal_code": "8610"}}, {"type": "node", "id": 6509820002, "lat": 8.833806, "lon": 125.8145699, "tags": {"name": "Berseba", "place": "village"}}, {"type": "node", "id": 6509820003, "lat": 8.7848554, "lon": 125.7988, "tags": {"fixme": "name", "place": "hamlet"}}, {"type": "node", "id": 6509820004, "lat": 8.7834028, "lon": 125.8283686, "tags": {"place": "village"}}, {"type": "node", "id": 6509820005, "lat": 8.8069089, "lon": 125.8393443, "tags": {"admin_level": "11", "admin_type:PH": "sitio", "is_in:city": "Bayugan", "is_in:village": "Mount Carmel", "name": "Wilderness", "place": "village", "source:name": "extrapolated from OSMaPaaralan, way/1034062028"}}, {"type": "node", "id": 6509820183, "lat": 8.8153324, "lon": 125.7784125, "tags": {"admin_level": "10", "admin_type:PH": "barangay", "is_in:city": "Bayugan", "name": "Santo Ni\u00f1o", "old_ref": "160301047", "place": "village", "population": "1551", "population:date": "2020-05-01", "ref": "1600301047"}}, {"type": "node", "id": 6509820400, "lat": 8.8020848, "lon": 125.470798, "tags": {"place": "hamlet"}}, {"type": "node", "id": 6509820401, "lat": 8.8346997, "lon": 125.4870639, "tags": {"admin_level": "11", "admin_type:PH": "purok", "alt_name": "Purok 13;Purok Imelda Mar;Sitio Imelda Mar", "is_in:barangay": "Manila de Bugabus", "is_in:city": "Butuan", "name": "Imelda Mar", "official_name": "Purok 13 Imelda Mar", "place": "hamlet", "postal_code": "8600"}}, {"type": "node", "id": 6509820437, "lat": 8.8199444, "lon": 125.4832227, "tags": {"name": "Calaitan", "place": "village"}}, {"type": "node", "id": 6511754566, "lat": 8.6831824, "lon": 125.5878098, "tags": {"admin_level": "10", "designation": "barangay", "is_in:town": "Esperanza", "name": "New Gingoog", "place": "village", "postal_code": "8513", "ref": "160303042"}}, {"type": "node", "id": 6511754568, "lat": 8.6653566, "lon": 125.5837083, "tags": {"admin_level": "10", "admin_type:PH": "barangay", "is_in:municipality": "Esperanza", "name": "Tagabase", "old_ref": "160303026", "place": "village", "population": "883", "population:2015": "827", "population:date": "2020-05-01", "postal_code": "8513"}}, {"type": "node", "id": 6511755699, "lat": 8.4085055, "lon": 125.5185521, "tags": {"place": "hamlet"}}, {"type": "node", "id": 6511755700, "lat": 8.4454546, "lon": 125.488624, "tags": {"place": "hamlet"}}, {"type": "node", "id": 6511755748, "lat": 8.5523315, "lon": 125.525389, "tags": {"admin_level": "10", "designation": "barangay", "is_in:town": "Esperanza", "name": "Segunda", "place": "village", "postal_code": "8513", "ref": "160303024"}}, {"type": "node", "id": 6511755749, "lat": 8.5929134, "lon": 125.4756367, "tags": {"place": "hamlet"}}, {"type": "node", "id": 6511755752, "lat": 8.6034474, "lon": 125.4909038, "tags": {"place": "hamlet"}}, {"type": "node", "id": 6511755753, "lat": 8.529698, "lon": 125.5322474, "tags": {"admin_level": "10", "designation": "barangay", "is_in:town": "Esperanza", "name": "Maliwanag", "place": "village", "postal_code": "8513", "ref": "160303041"}}, {"type": "node", "id": 6511755755, "lat": 8.4862416, "lon": 125.559445, "tags": {"place": "hamlet"}}, {"type": "node", "id": 6511755756, "lat": 8.7145576, "lon": 125.4948267, "tags": {"admin_level": "10", "admin_type:PH": "barangay", "is_in:municipality": "Las Nieves", "name": "Durian", "official_name": "Barangay Durian", "place": "village", "postal_code": "8610"}}, {"type": "node", "id": 6525380561, "lat": 8.6469488, "lon": 125.6790984, "tags": {"place": "hamlet"}}, {"type": "node", "id": 6525380562, "lat": 8.6353128, "lon": 125.6676936, "tags": {"place": "hamlet"}}, {"type": "node", "id": 6525380563, "lat": 8.6711741, "lon": 125.6450665, "tags": {"place": "hamlet"}}, {"type": "node", "id": 6525380564, "lat": 8.6652134, "lon": 125.6383932, "tags": {"place": "hamlet"}}, {"type": "node", "id": 6612582971, "lat": 8.4686236, "lon": 125.8373028, "tags": {"name": "Batucan", "place": "village"}}, {"type": "node", "id": 6643944134, "lat": 9.0066027, "lon": 125.5247158}, {"type": "node", "id": 6872582204, "lat": 8.7324837, "lon": 125.8341209, "tags": {"name": "Grace State", "place": "village"}}, {"type": "node", "id": 6872582998, "lat": 8.7629087, "lon": 125.8271247, "tags": {"name": "New Katipunan", "place": "village"}}, {"type": "node", "id": 6928867961, "lat": 8.4055231, "lon": 125.6398952, "tags": {"place": "hamlet"}}, {"type": "node", "id": 6928868278, "lat": 8.4495336, "lon": 125.7071577, "tags": {"admin_level": "10", "designation": "barangay", "is_in:town": "San Luis", "name": "San Pedro", "place": "village", "postal_code": "8511", "ref": "160309021"}}, {"type": "node", "id": 6928868279, "lat": 8.4199785, "lon": 125.6218171, "tags": {"place": "hamlet"}}, {"type": "node", "id": 6933268847, "lat": 8.7740243, "lon": 125.6384408}, {"type": "node", "id": 6933268848, "lat": 8.7743046, "lon": 125.6382959}, {"type": "node", "id": 6936094308, "lat": 8.5335336, "lon": 125.685431, "tags": {"place": "hamlet"}}, {"type": "node", "id": 6936094309, "lat": 8.5141538, "lon": 125.68214, "tags": {"place": "hamlet"}}, {"type": "node", "id": 6936094355, "lat": 8.4909291, "lon": 125.6848758, "tags": {"place": "hamlet"}}, {"type": "node", "id": 6936094607, "lat": 8.4728286, "lon": 125.5703026, "tags": {"admin_level": "10", "designation": "barangay", "is_in:town": "San Luis", "name": "Santa Rita", "place": "village", "postal_code": "8511", "ref": "160309022"}}, {"type": "node", "id": 6936094834, "lat": 8.438063, "lon": 125.5664724, "tags": {"place": "hamlet"}}, {"type": "node", "id": 6936094835, "lat": 8.4061493, "lon": 125.5933213, "tags": {"place": "hamlet"}}, {"type": "node", "id": 6936094836, "lat": 8.4691012, "lon": 125.707004, "tags": {"admin_level": "11", "alt_name": "Sitio San Jose", "designation": "sitio", "fixme": "confirm location", "is_in:town": "San Luis", "is_in:village": "Don Alejandro", "name": "San Jose", "place": "hamlet", "postal_code": "8511"}}, {"type": "node", "id": 6936094837, "lat": 8.4883957, "lon": 125.7054269, "tags": {"place": "hamlet"}}, {"type": "node", "id": 6936094838, "lat": 8.4846746, "lon": 125.6872667, "tags": {"admin_level": "10", "designation": "barangay", "is_in:town": "San Luis", "name": "Balit", "place": "village", "postal_code": "8511", "ref": "160309008"}}, {"type": "node", "id": 6936094839, "lat": 8.4745039, "lon": 125.6568548, "tags": {"admin_level": "10", "designation": "barangay", "is_in:town": "San Luis", "name": "Policarpo", "place": "village", "postal_code": "8511", "ref": "160309019"}}, {"type": "node", "id": 6943842219, "lat": 8.971036, "lon": 125.6946286}, {"type": "node", "id": 6943842220, "lat": 8.9710177, "lon": 125.6948107}, {"type": "node", "id": 6943842221, "lat": 8.9710018, "lon": 125.6948912}, {"type": "node", "id": 6943842222, "lat": 8.9708004, "lon": 125.6949609}, {"type": "node", "id": 6943842223, "lat": 8.9704984, "lon": 125.6949449}, {"type": "node", "id": 6943842224, "lat": 8.9701222, "lon": 125.6950575}, {"type": "node", "id": 6943842225, "lat": 8.969942, "lon": 125.6951702}, {"type": "node", "id": 6943842226, "lat": 8.9698308, "lon": 125.6953418}, {"type": "node", "id": 6943842227, "lat": 8.9697725, "lon": 125.695669}, {"type": "node", "id": 6943842228, "lat": 8.9697354, "lon": 125.6959104}, {"type": "node", "id": 6943842229, "lat": 8.9697513, "lon": 125.6962109}, {"type": "node", "id": 6943842230, "lat": 8.9698361, "lon": 125.6963825}, {"type": "node", "id": 6943842231, "lat": 8.9699791, "lon": 125.6965756}, {"type": "node", "id": 6943842232, "lat": 8.9700427, "lon": 125.6967419}, {"type": "node", "id": 6943842233, "lat": 8.970048, "lon": 125.6971067}, {"type": "node", "id": 6943842234, "lat": 8.9700586, "lon": 125.697332}, {"type": "node", "id": 6943842235, "lat": 8.9700586, "lon": 125.6976539}, {"type": "node", "id": 6943842236, "lat": 8.9701381, "lon": 125.6978792}, {"type": "node", "id": 6943842237, "lat": 8.9701593, "lon": 125.6980079}, {"type": "node", "id": 6943842238, "lat": 8.9700851, "lon": 125.6981313}, {"type": "node", "id": 6943842239, "lat": 8.9700003, "lon": 125.6981689}, {"type": "node", "id": 6943842240, "lat": 8.9698626, "lon": 125.698142}, {"type": "node", "id": 6943842241, "lat": 8.969746, "lon": 125.6980133}, {"type": "node", "id": 6943842242, "lat": 8.9694916, "lon": 125.6978255}, {"type": "node", "id": 6943842243, "lat": 8.9691154, "lon": 125.6976592}, {"type": "node", "id": 6943842244, "lat": 8.9685749, "lon": 125.6974715}, {"type": "node", "id": 6943842245, "lat": 8.9677642, "lon": 125.6970906}, {"type": "node", "id": 6943842246, "lat": 8.9673827, "lon": 125.6970745}, {"type": "node", "id": 6943842247, "lat": 8.9671496, "lon": 125.6972194}, {"type": "node", "id": 6943842248, "lat": 8.9668899, "lon": 125.6974339}, {"type": "node", "id": 6943842249, "lat": 8.9667574, "lon": 125.6976592}, {"type": "node", "id": 6943842250, "lat": 8.9666038, "lon": 125.6978202}, {"type": "node", "id": 6943842251, "lat": 8.9663494, "lon": 125.6978792}, {"type": "node", "id": 6943842252, "lat": 8.9659255, "lon": 125.6975144}, {"type": "node", "id": 6943842253, "lat": 8.9657189, "lon": 125.6972623}, {"type": "node", "id": 6943842254, "lat": 8.9653479, "lon": 125.6970906}, {"type": "node", "id": 6943842255, "lat": 8.9650194, "lon": 125.6970531}, {"type": "node", "id": 6943842256, "lat": 8.964781, "lon": 125.6971872}, {"type": "node", "id": 6943842257, "lat": 8.9647121, "lon": 125.6972837}, {"type": "node", "id": 6943842258, "lat": 8.964675, "lon": 125.6978202}, {"type": "node", "id": 6943842259, "lat": 8.9647121, "lon": 125.6983244}, {"type": "node", "id": 6943842260, "lat": 8.9647333, "lon": 125.698539}, {"type": "node", "id": 6943842261, "lat": 8.9646909, "lon": 125.6986785}, {"type": "node", "id": 6943842262, "lat": 8.964463, "lon": 125.6987482}, {"type": "node", "id": 6943842263, "lat": 8.9641186, "lon": 125.6986034}, {"type": "node", "id": 6943842264, "lat": 8.9629846, "lon": 125.6983459}, {"type": "node", "id": 6943842265, "lat": 8.9620838, "lon": 125.6985819}, {"type": "node", "id": 6943842266, "lat": 8.9616281, "lon": 125.6987965}, {"type": "node", "id": 6943842267, "lat": 8.961077, "lon": 125.6993008}, {"type": "node", "id": 6943842268, "lat": 8.9608969, "lon": 125.6996763}, {"type": "node", "id": 6943842269, "lat": 8.9607273, "lon": 125.7002878}, {"type": "node", "id": 6943842270, "lat": 8.9603988, "lon": 125.7006955}, {"type": "node", "id": 6943842271, "lat": 8.9598477, "lon": 125.7005989}, {"type": "node", "id": 6943842272, "lat": 8.9596675, "lon": 125.7000089}, {"type": "node", "id": 6943842273, "lat": 8.9596039, "lon": 125.6996977}, {"type": "node", "id": 6943842274, "lat": 8.9597099, "lon": 125.699408}, {"type": "node", "id": 6943842275, "lat": 8.9594449, "lon": 125.6989896}, {"type": "node", "id": 6943842276, "lat": 8.9592648, "lon": 125.6990433}, {"type": "node", "id": 6943842277, "lat": 8.9587773, "lon": 125.6992042}, {"type": "node", "id": 6943842278, "lat": 8.958311, "lon": 125.6990969}, {"type": "node", "id": 6943842279, "lat": 8.9580884, "lon": 125.6987965}, {"type": "node", "id": 6943842280, "lat": 8.9579188, "lon": 125.6983137}, {"type": "node", "id": 6943842281, "lat": 8.9576433, "lon": 125.6977343}, {"type": "node", "id": 6943842282, "lat": 8.9572936, "lon": 125.6975412}, {"type": "node", "id": 6943842283, "lat": 8.9565941, "lon": 125.6973588}, {"type": "node", "id": 6943842284, "lat": 8.9556403, "lon": 125.6974018}, {"type": "node", "id": 6943842285, "lat": 8.9552481, "lon": 125.6977343}, {"type": "node", "id": 6943842286, "lat": 8.9552587, "lon": 125.6981313}, {"type": "node", "id": 6943842287, "lat": 8.9555661, "lon": 125.6984317}, {"type": "node", "id": 6943842288, "lat": 8.9558628, "lon": 125.6987429}, {"type": "node", "id": 6943842289, "lat": 8.955884, "lon": 125.6994295}, {"type": "node", "id": 6943842290, "lat": 8.9557568, "lon": 125.6996763}, {"type": "node", "id": 6943842291, "lat": 8.9551422, "lon": 125.6997192}, {"type": "node", "id": 6943842292, "lat": 8.9546864, "lon": 125.6998479}, {"type": "node", "id": 6943842293, "lat": 8.9542625, "lon": 125.7002878}, {"type": "node", "id": 6943842294, "lat": 8.9541989, "lon": 125.7005131}, {"type": "node", "id": 6943842295, "lat": 8.9543261, "lon": 125.7006419}, {"type": "node", "id": 6943842296, "lat": 8.9546441, "lon": 125.7009745}, {"type": "node", "id": 6943842297, "lat": 8.954803, "lon": 125.701468}, {"type": "node", "id": 6943842298, "lat": 8.9547288, "lon": 125.7017469}, {"type": "node", "id": 6943842299, "lat": 8.9541565, "lon": 125.7018435}, {"type": "node", "id": 6943842300, "lat": 8.9534783, "lon": 125.7016504}, {"type": "node", "id": 6943842301, "lat": 8.9526092, "lon": 125.70135}, {"type": "node", "id": 6943842302, "lat": 8.9518038, "lon": 125.7009315}, {"type": "node", "id": 6943842303, "lat": 8.951719, "lon": 125.7006955}, {"type": "node", "id": 6943842304, "lat": 8.9517826, "lon": 125.7004166}, {"type": "node", "id": 6943842305, "lat": 8.9523443, "lon": 125.700041}, {"type": "node", "id": 6943842306, "lat": 8.9528424, "lon": 125.6997728}, {"type": "node", "id": 6943842307, "lat": 8.9534571, "lon": 125.6994831}, {"type": "node", "id": 6943842308, "lat": 8.9536372, "lon": 125.6991827}, {"type": "node", "id": 6943842309, "lat": 8.9535419, "lon": 125.6989467}, {"type": "node", "id": 6943842310, "lat": 8.9534465, "lon": 125.6988609}, {"type": "node", "id": 6943842311, "lat": 8.9528, "lon": 125.6987643}, {"type": "node", "id": 6943842312, "lat": 8.9521429, "lon": 125.698539}, {"type": "node", "id": 6943842313, "lat": 8.9517296, "lon": 125.6983137}, {"type": "node", "id": 6943842314, "lat": 8.9516978, "lon": 125.6980669}, {"type": "node", "id": 6943842315, "lat": 8.9520157, "lon": 125.6978094}, {"type": "node", "id": 6943842316, "lat": 8.9527682, "lon": 125.6975198}, {"type": "node", "id": 6943842317, "lat": 8.9532663, "lon": 125.6972623}, {"type": "node", "id": 6943842318, "lat": 8.9535419, "lon": 125.6968009}, {"type": "node", "id": 6943842319, "lat": 8.9533193, "lon": 125.6963289}, {"type": "node", "id": 6943842320, "lat": 8.9528424, "lon": 125.6961465}, {"type": "node", "id": 6943842321, "lat": 8.9521535, "lon": 125.696125}, {"type": "node", "id": 6943842322, "lat": 8.9516872, "lon": 125.6962752}, {"type": "node", "id": 6943842323, "lat": 8.9512527, "lon": 125.6962967}, {"type": "node", "id": 6943842324, "lat": 8.9508817, "lon": 125.6959426}, {"type": "node", "id": 6943842325, "lat": 8.9508605, "lon": 125.6955349}, {"type": "node", "id": 6943842326, "lat": 8.9511785, "lon": 125.6949448}, {"type": "node", "id": 6943842327, "lat": 8.9517508, "lon": 125.6948054}, {"type": "node", "id": 6943842328, "lat": 8.9520581, "lon": 125.6949985}, {"type": "node", "id": 6943842329, "lat": 8.9521429, "lon": 125.6951702}, {"type": "node", "id": 6943842330, "lat": 8.9523231, "lon": 125.6954491}, {"type": "node", "id": 6943842331, "lat": 8.9526622, "lon": 125.6956208}, {"type": "node", "id": 6943842332, "lat": 8.9530543, "lon": 125.6954491}, {"type": "node", "id": 6943842333, "lat": 8.9531603, "lon": 125.6952667}, {"type": "node", "id": 6943842334, "lat": 8.9530543, "lon": 125.6948697}, {"type": "node", "id": 6943842335, "lat": 8.9525668, "lon": 125.6941938}, {"type": "node", "id": 6943842336, "lat": 8.9518568, "lon": 125.6935716}, {"type": "node", "id": 6943842337, "lat": 8.9511467, "lon": 125.6933677}, {"type": "node", "id": 7256291014, "lat": 8.4769766, "lon": 125.6019071, "tags": {"place": "hamlet"}}, {"type": "node", "id": 7279302622, "lat": 8.6409617, "lon": 125.7407326, "tags": {"admin_level": "10", "admin_type:PH": "barangay", "is_in:municipality": "Esperanza", "name": "San Toribio", "old_ref": "160303022", "place": "village", "population": "2103", "population:2015": "2424", "population:date": "2020-05-01", "postal_code": "8513"}}, {"type": "node", "id": 7279313423, "lat": 8.6790322, "lon": 125.7774134, "tags": {"admin_level": "10", "is_in:city": "Bayugan", "name": "San Isidro", "place": "village", "place:PH": "barangay"}}, {"type": "node", "id": 7279317365, "lat": 8.6151676, "lon": 125.7757359, "tags": {"admin_level": "10", "designation": "barangay", "is_in:town": "Esperanza", "name": "Anolingan", "place": "village", "postal_code": "8513", "ref": "160303001"}}, {"type": "node", "id": 7279317515, "lat": 8.6122724, "lon": 125.7296632, "tags": {"admin_level": "10", "designation": "barangay", "is_in:town": "Esperanza", "name": "Duangan", "place": "village", "postal_code": "8513", "ref": "160303009"}}, {"type": "node", "id": 7279319898, "lat": 8.6285576, "lon": 125.7636912, "tags": {"admin_level": "10", "designation": "barangay", "is_in:town": "Esperanza", "name": "Cebulan", "place": "village", "postal_code": "8513", "ref": "160303034"}}, {"type": "node", "id": 7932915499, "lat": 8.7100757, "lon": 125.7591811, "tags": {"admin_level": "11", "admin_type:PH": "purok", "is_in:barangay": "Taglatawan", "is_in:city": "Bayugan", "name": "Purok 8", "place": "neighbourhood"}}, {"type": "node", "id": 7933148766, "lat": 8.7263223, "lon": 125.8364072, "tags": {"admin_level": "11", "admin_type:PH": "purok", "is_in:barangay": "Magkiangkang", "name": "Purok 11", "place": "neighbourhood"}}, {"type": "node", "id": 7933197300, "lat": 8.6257264, "lon": 125.8067822, "tags": {"admin_level": "11", "admin_type:PH": "purok", "is_in:barangay": "Katipunan", "is_in:city": "Bayugan", "name": "Purok 1", "place": "neighbourhood"}}, {"type": "node", "id": 7933197349, "lat": 8.6278002, "lon": 125.8071202, "tags": {"admin_level": "10", "is_in:city": "Bayugan", "name": "Katipunan", "place": "village", "place:PH": "barangay"}}, {"type": "node", "id": 7933232089, "lat": 8.7497042, "lon": 125.6275698, "tags": {"admin_level": "10", "admin_type:PH": "barangay", "is_in:municipality": "Las Nieves", "name": "Katipunan", "official_name": "Barangay Katipunan", "place": "village", "postal_code": "8610"}}, {"type": "node", "id": 7933256428, "lat": 8.7142938, "lon": 125.7419693, "tags": {"admin_level": "11", "admin_type:PH": "purok", "is_in:barangay": "Poblacion", "is_in:city": "Bayugan", "name": "Purok 23", "place": "neighbourhood"}}, {"type": "node", "id": 7933407805, "lat": 8.7120111, "lon": 125.7680297, "tags": {"admin_level": "11", "admin_type:PH": "purok", "is_in:barangay": "Fili", "is_in:city": "Bayugan", "name": "Purok 1", "place": "neighbourhood"}}, {"type": "node", "id": 7933407915, "lat": 8.727734, "lon": 125.7685473, "tags": {"admin_level": "11", "admin_type:PH": "purok", "alt_name": "Purok 6;Purok Kiawan;Sitio Kiawan", "ele": "70", "is_in:barangay": "Taglatawan", "is_in:city": "Bayugan", "name": "Kiawan", "official_name": "Purok 6 Kiawan", "place": "hamlet", "postal_code": "8502"}}, {"type": "node", "id": 7933422254, "lat": 8.7073607, "lon": 125.7829159, "tags": {"admin_level": "11", "admin_type:PH": "purok", "is_in:barangay": "Santa Teresita", "is_in:city": "Bayugan", "name": "Purok 5", "place": "neighbourhood"}}, {"type": "node", "id": 7933422255, "lat": 8.7061518, "lon": 125.7830635, "tags": {"admin_level": "10", "is_in:city": "Bayugan", "name": "Sinadyap", "place": "village", "place:PH": "barangay", "source:name": "extrapolated from OSMaPaaralan, way/850369367"}}, {"type": "node", "id": 7936087873, "lat": 8.4295992, "lon": 125.7403171, "tags": {"admin_level": "11", "admin_type:PH": "purok", "is_in:barangay": "Zillovia", "is_in:municipality": "Talacogon", "name": "Purok 2", "place": "neighbourhood"}}, {"type": "node", "id": 7954360674, "lat": 8.7703953, "lon": 125.6404102}, {"type": "node", "id": 7954360675, "lat": 8.770832, "lon": 125.6399435}, {"type": "node", "id": 7954360676, "lat": 8.7709268, "lon": 125.6398221}, {"type": "node", "id": 7954360677, "lat": 8.7709897, "lon": 125.6397028}, {"type": "node", "id": 7954360678, "lat": 8.7711925, "lon": 125.6388974}, {"type": "node", "id": 7954360679, "lat": 8.7712389, "lon": 125.6388015}, {"type": "node", "id": 7954360680, "lat": 8.7713118, "lon": 125.6386996}, {"type": "node", "id": 7954360681, "lat": 8.7714722, "lon": 125.6385997}, {"type": "node", "id": 7954360682, "lat": 8.7715848, "lon": 125.6385709}, {"type": "node", "id": 7954360683, "lat": 8.7719135, "lon": 125.6384991}, {"type": "node", "id": 7954360684, "lat": 8.7720063, "lon": 125.6384676}, {"type": "node", "id": 7954364085, "lat": 8.7720984, "lon": 125.6384086}, {"type": "node", "id": 7954364086, "lat": 8.7725497, "lon": 125.6379244}, {"type": "node", "id": 7954364087, "lat": 8.7726412, "lon": 125.6378554}, {"type": "node", "id": 7954364088, "lat": 8.7727167, "lon": 125.6378265}, {"type": "node", "id": 7954364089, "lat": 8.7729202, "lon": 125.6378219}, {"type": "node", "id": 7954364090, "lat": 8.7730468, "lon": 125.6378426}, {"type": "node", "id": 7954364091, "lat": 8.7733244, "lon": 125.6379794}, {"type": "node", "id": 7954364092, "lat": 8.7739706, "lon": 125.6384435}, {"type": "node", "id": 7954364093, "lat": 8.7741747, "lon": 125.6383798}, {"type": "node", "id": 7954409220, "lat": 8.7737134, "lon": 125.6382751}, {"type": "node", "id": 8140376672, "lat": 8.4886435, "lon": 125.8715561, "tags": {"name": "Rizal", "place": "village"}}, {"type": "node", "id": 8140385939, "lat": 8.6624291, "lon": 125.7535003, "tags": {"admin_level": "10", "is_in:city": "Bayugan", "name": "Charito", "place": "village", "place:PH": "barangay"}}, {"type": "node", "id": 8140388585, "lat": 8.4855509, "lon": 125.8937018, "tags": {"name": "Borbon", "place": "village"}}, {"type": "node", "id": 8150452262, "lat": 8.4664674, "lon": 125.8060789, "tags": {"place": "hamlet"}}, {"type": "node", "id": 8150452263, "lat": 8.4395647, "lon": 125.8359539, "tags": {"place": "hamlet"}}, {"type": "node", "id": 8150452264, "lat": 8.4433145, "lon": 125.8994581, "tags": {"admin_level": "10", "admin_type:PH": "barangay", "name": "New Visayas", "old_ref": "160308011", "place": "village", "population": "1962", "population:2015": "1334", "population:date": "2020-05-01"}}, {"type": "node", "id": 8150452265, "lat": 8.4640818, "lon": 125.879159, "tags": {"fixme": "name", "place": "hamlet"}}, {"type": "node", "id": 8150452266, "lat": 8.4485482, "lon": 125.8732796, "tags": {"place": "hamlet"}}, {"type": "node", "id": 8150452267, "lat": 8.4477955, "lon": 125.8596953, "tags": {"place": "hamlet"}}, {"type": "node", "id": 8150452268, "lat": 8.4583857, "lon": 125.850352, "tags": {"place": "hamlet"}}, {"type": "node", "id": 8150452269, "lat": 8.4686104, "lon": 125.8587259, "tags": {"is_in:town": "Talacogon", "is_in:village": "Del Monte", "name": "Mabini", "place": "hamlet", "source:name": "extrapolated from OSMaPaaralan, way/662118207"}}, {"type": "node", "id": 8150801613, "lat": 8.9398981, "lon": 125.6823761}, {"type": "node", "id": 8150802699, "lat": 8.811611, "lon": 125.8459264, "tags": {"fixme": "name", "place": "neighbourhood"}}, {"type": "node", "id": 8150804461, "lat": 8.7050775, "lon": 125.6648074, "tags": {"admin_level": "10", "admin_type:PH": "barangay", "is_in:municipality": "Las Nieves", "name": "San Roque", "official_name": "Barangay San Roque", "place": "village", "postal_code": "8610"}}, {"type": "node", "id": 8150804462, "lat": 8.7084151, "lon": 125.6792107, "tags": {"admin_level": "10", "designation": "barangay", "is_in:town": "Esperanza", "name": "Taganahaw", "place": "village", "postal_code": "8513", "ref": "160303027"}}, {"type": "node", "id": 8150804594, "lat": 8.7644569, "lon": 125.6561012, "tags": {"admin_level": "10", "admin_type:PH": "barangay", "is_in:municipality": "Las Nieves", "name": "Bonifacio", "official_name": "Barangay Bonifacio", "place": "village", "postal_code": "8610"}}, {"type": "node", "id": 8150805646, "lat": 8.6909904, "lon": 125.8972593, "tags": {"name": "La Purisima", "place": "village"}}, {"type": "node", "id": 8150806301, "lat": 8.6350424, "lon": 125.908497, "tags": {"place": "hamlet"}}, {"type": "node", "id": 8152823781, "lat": 8.805027, "lon": 125.6094843, "tags": {"place": "hamlet"}}, {"type": "node", "id": 8152823782, "lat": 8.7981406, "lon": 125.6203955, "tags": {"place": "hamlet"}}, {"type": "node", "id": 8152922343, "lat": 8.8220063, "lon": 125.6161201, "tags": {"place": "hamlet"}}, {"type": "node", "id": 8152922344, "lat": 8.8250703, "lon": 125.5999625, "tags": {"place": "hamlet"}}, {"type": "node", "id": 8152922345, "lat": 8.831646, "lon": 125.6006088, "tags": {"admin_level": "11", "admin_type:PH": "sitio", "alt_name": "Cabaasan", "is_in:city": "Butuan", "name": "Caba-asan", "place": "hamlet", "source:name": "extrapolated from OSMaPaaralan, way/964168831"}}, {"type": "node", "id": 8152922593, "lat": 8.8384442, "lon": 125.6350619, "tags": {"place": "hamlet"}}, {"type": "node", "id": 8152922594, "lat": 8.8229128, "lon": 125.6654084, "tags": {"place": "hamlet"}}, {"type": "node", "id": 8152922624, "lat": 8.8053927, "lon": 125.5051813, "tags": {"place": "hamlet"}}, {"type": "node", "id": 8152922627, "lat": 8.8149613, "lon": 125.6035459, "tags": {"place": "hamlet"}}, {"type": "node", "id": 8152922628, "lat": 8.8082978, "lon": 125.6404263, "tags": {"place": "hamlet"}}, {"type": "node", "id": 8152922629, "lat": 8.8134187, "lon": 125.6316286, "tags": {"place": "hamlet"}}, {"type": "node", "id": 8152922630, "lat": 8.7939392, "lon": 125.6457861, "tags": {"admin_level": "11", "admin_type:PH": "sitio", "is_in:city": "Butuan", "is_in:village": "Florida", "name": "Subait", "place": "neighbourhood"}}, {"type": "node", "id": 8152922632, "lat": 8.8354228, "lon": 125.4983979, "tags": {"place": "hamlet"}}, {"type": "node", "id": 8152923730, "lat": 8.7657218, "lon": 125.647282, "tags": {"place": "hamlet"}}, {"type": "node", "id": 8152924239, "lat": 8.775526, "lon": 125.6371909, "tags": {"place": "neighbourhood"}}, {"type": "node", "id": 8152924240, "lat": 8.7260784, "lon": 125.6493902, "tags": {"admin_level": "10", "admin_type:PH": "barangay", "is_in:municipality": "Las Nieves", "name": "Rosario", "official_name": "Barangay Rosario", "place": "village", "postal_code": "8610"}}, {"type": "node", "id": 8152924241, "lat": 8.7018619, "lon": 125.5943298, "tags": {"place": "hamlet"}}, {"type": "node", "id": 8152924242, "lat": 8.7195883, "lon": 125.6118393, "tags": {"place": "hamlet"}}, {"type": "node", "id": 8152924243, "lat": 8.7200045, "lon": 125.600861, "tags": {"admin_level": "10", "admin_type:PH": "barangay", "alt_name": "Pinanaan", "is_in:municipality": "Las Nieves", "name": "Pinana-an", "official_name": "Barangay Pinana-an", "place": "village", "postal_code": "8610"}}, {"type": "node", "id": 8152924244, "lat": 8.7128369, "lon": 125.593395, "tags": {"admin_level": "10", "admin_type:PH": "barangay", "is_in:municipality": "Las Nieves", "name": "Mat-i", "official_name": "Barangay Mat-i", "old_ref": "160207009", "place": "village", "population": "2304", "population:date": "2020-05-01", "postal_code": "8610", "ref": "1600207009"}}, {"type": "node", "id": 8154085428, "lat": 8.9520578, "lon": 125.7010635}, {"type": "node", "id": 8154086005, "lat": 8.9596876, "lon": 125.7005027}, {"type": "node", "id": 8170116919, "lat": 8.8226053, "lon": 125.9124666, "tags": {"place": "hamlet"}}, {"type": "node", "id": 8328040555, "lat": 8.6280256, "lon": 125.7353282, "tags": {"admin_level": "10", "designation": "barangay", "is_in:town": "Esperanza", "name": "Aguinaldo", "place": "village", "postal_code": "8513", "ref": "160303032"}}, {"type": "node", "id": 8328041113, "lat": 8.6905724, "lon": 125.7057595, "tags": {"place": "hamlet"}}, {"type": "node", "id": 8328041114, "lat": 8.6970418, "lon": 125.6989252, "tags": {"place": "hamlet"}}, {"type": "node", "id": 8328041115, "lat": 8.7048738, "lon": 125.7011729, "tags": {"place": "hamlet"}}, {"type": "node", "id": 8328041116, "lat": 8.7422926, "lon": 125.7147717, "tags": {"place": "hamlet"}}, {"type": "node", "id": 8328041117, "lat": 8.7147843, "lon": 125.6788838, "tags": {"place": "hamlet"}}, {"type": "node", "id": 8328041118, "lat": 8.722791, "lon": 125.6771672, "tags": {"admin_level": "10", "is_in:city": "Bayugan", "name": "Montivesta", "place": "village", "place:PH": "barangay"}}, {"type": "node", "id": 8328041361, "lat": 8.7013979, "lon": 125.5276045, "tags": {"place": "hamlet"}}, {"type": "node", "id": 8328041362, "lat": 8.6867967, "lon": 125.6901491, "tags": {"admin_level": "10", "alt_name": "Mahagkot", "designation": "barangay", "is_in:town": "Esperanza", "name": "Mahagcot", "place": "village", "postal_code": "8513", "ref": "160303015"}}, {"type": "node", "id": 8328041363, "lat": 8.6857786, "lon": 125.6753862, "tags": {"admin_level": "10", "designation": "barangay", "is_in:town": "Esperanza", "name": "Bentahon", "place": "village", "postal_code": "8513", "ref": "160303003"}}, {"type": "node", "id": 8328041364, "lat": 8.6346393, "lon": 125.7817519, "tags": {"admin_level": "11", "is_in:village": "Marcelina", "name": "New Demar", "place": "hamlet", "place:PH": "sitio"}}, {"type": "node", "id": 8331524158, "lat": 8.6020896, "lon": 125.540294, "tags": {"place": "hamlet"}}, {"type": "node", "id": 8331524179, "lat": 8.5855564, "lon": 125.740993, "tags": {"admin_level": "10", "designation": "barangay", "is_in:town": "Esperanza", "name": "Mac-Arthur", "place": "village", "postal_code": "8513", "ref": "160303010"}}, {"type": "node", "id": 8331524596, "lat": 8.6460896, "lon": 125.7073259, "tags": {"admin_level": "10", "designation": "barangay", "is_in:town": "Esperanza", "name": "Catmonon", "place": "village", "postal_code": "8513", "ref": "160303006"}}, {"type": "node", "id": 8336022959, "lat": 8.5701683, "lon": 125.7471567, "tags": {"admin_level": "10", "designation": "barangay", "is_in:town": "Esperanza", "name": "Valentina", "place": "village", "postal_code": "8513", "ref": "160303049"}}, {"type": "node", "id": 8336052799, "lat": 8.5937701, "lon": 125.7510164, "tags": {"admin_level": "10", "admin_type:PH": "barangay", "is_in:municipality": "Esperanza", "name": "San Jose", "old_ref": "160303046", "place": "village", "population": "197", "population:date": "2020-05-01", "postal_code": "8513", "ref": "1600303046"}}, {"type": "node", "id": 8346062565, "lat": 8.5350985, "lon": 125.7247496, "tags": {"place": "hamlet"}}, {"type": "node", "id": 8346062566, "lat": 8.5473184, "lon": 125.7387614, "tags": {"admin_level": "10", "designation": "barangay", "is_in:town": "San Luis", "name": "Don Pedro", "place": "village", "postal_code": "8511", "ref": "160309013"}}, {"type": "node", "id": 8346062567, "lat": 8.5622539, "lon": 125.7638132, "tags": {"admin_level": "10", "designation": "barangay", "is_in:town": "San Luis", "name": "Mahapag", "place": "village", "postal_code": "8511", "ref": "160309016"}}, {"type": "node", "id": 8346062568, "lat": 8.5591135, "lon": 125.7523709, "tags": {"admin_level": "10", "designation": "barangay", "is_in:town": "San Luis", "name": "Santiago", "place": "village", "postal_code": "8511", "ref": "160309023"}}, {"type": "node", "id": 8346062569, "lat": 8.6018032, "lon": 125.7141026, "tags": {"admin_level": "11", "admin_type:PH": "sitio", "is_in:town": "Esperanza", "is_in:village": "Guadalupe", "name": "Casanaag", "place": "neighbourhood", "source:name": "extrapolated from OSMaPaaralan, way/1031887585"}}, {"type": "node", "id": 8346062570, "lat": 8.6294788, "lon": 125.7740754, "tags": {"place": "hamlet"}}, {"type": "node", "id": 8510197029, "lat": 8.4647264, "lon": 125.5171144, "tags": {"place": "hamlet"}}, {"type": "node", "id": 8526215564, "lat": 8.7326586, "lon": 125.7291537, "tags": {"admin_level": "11", "is_in:city": "Bayugan", "is_in:village": "Noli", "name": "Andanan", "place": "hamlet", "place:PH": "sitio"}}, {"type": "node", "id": 8921016621, "lat": 8.7839904, "lon": 125.5137914, "tags": {"admin_level": "11", "designation": "sitio", "is_in:city": "Butuan", "is_in:village": "Tungao", "name": "Lamosig", "place": "hamlet", "postal_code": "8600"}}, {"type": "node", "id": 8925285066, "lat": 8.7267613, "lon": 125.5177653, "tags": {"admin_level": "10", "admin_type:PH": "barangay", "is_in:municipality": "Las Nieves", "name": "Ibuan", "official_name": "Barangay Ibuan", "place": "village", "postal_code": "8610"}}, {"type": "node", "id": 8925307642, "lat": 8.7457137, "lon": 125.5845264, "tags": {"admin_level": "10", "admin_type:PH": "barangay", "ele": "10", "is_in:municipality": "Las Nieves", "name": "Lingayao", "official_name": "Barangay Lingayao", "place": "village", "postal_code": "8610"}}, {"type": "node", "id": 8925316069, "lat": 8.72172, "lon": 125.5724985, "tags": {"admin_level": "10", "admin_type:PH": "barangay", "is_in:municipality": "Las Nieves", "name": "Maningalao", "official_name": "Barangay Maningalao", "old_ref": "160207007", "place": "village", "population": "1761", "population:date": "2020-05-01", "postal_code": "8610", "ref": "1630400101"}}, {"type": "node", "id": 8925357896, "lat": 8.7332538, "lon": 125.5420528, "tags": {"admin_level": "10", "admin_type:PH": "barangay", "is_in:municipality": "Las Nieves", "name": "Balungagan", "official_name": "Barangay Balungagan", "place": "village", "postal_code": "8610"}}, {"type": "node", "id": 8931716340, "lat": 8.824812, "lon": 125.7369809, "tags": {"name": "Kioya", "place": "village"}}, {"type": "node", "id": 8931734445, "lat": 8.7687002, "lon": 125.7321732, "tags": {"name": "Claro Cortez", "place": "village"}}, {"type": "node", "id": 8931841552, "lat": 8.7463217, "lon": 125.8210427, "tags": {"name": "Mount Olive", "place": "village"}}, {"type": "node", "id": 8932140219, "lat": 8.7291773, "lon": 125.860397, "tags": {"name": "Villa Ondayon", "place": "village"}}, {"type": "node", "id": 8932163267, "lat": 8.6876181, "lon": 125.7456449, "tags": {"name": "Centro Saguma", "place": "village"}}, {"type": "node", "id": 8932174876, "lat": 8.6973796, "lon": 125.7643423, "tags": {"name": "Bucac", "place": "village"}}, {"type": "node", "id": 8937148584, "lat": 8.6521347, "lon": 125.8386108, "tags": {"name": "La Perian", "place": "village"}}, {"type": "node", "id": 8937259884, "lat": 8.5519887, "lon": 125.8860837, "tags": {"name": "San Pedro", "place": "village"}}, {"type": "node", "id": 8952777098, "lat": 8.4773232, "lon": 125.8219937, "tags": {"admin_level": "11", "is_in:town": "Talacogon", "name": "San Miguel", "place": "hamlet"}}, {"type": "node", "id": 8952785616, "lat": 8.4219601, "lon": 125.8015406, "tags": {"name": "Buena Gracia", "place": "village"}}, {"type": "node", "id": 8952850405, "lat": 8.5300602, "lon": 125.8002012, "tags": {"name": "Santa Cruz", "place": "hamlet"}}, {"type": "node", "id": 8952869783, "lat": 8.4098469, "lon": 125.7449317, "tags": {"name": "Kabakahan", "place": "hamlet"}}, {"type": "node", "id": 8952879987, "lat": 8.4476502, "lon": 125.7333977, "tags": {"admin_level": "10", "admin_type:PH": "barangay", "is_in:municipality": "San Luis", "name": "Baylo", "old_ref": "160309002", "place": "village", "population": "1448", "population:date": "2020-05-01", "postal_code": "8511", "ref": "1600309002"}}, {"type": "node", "id": 8952887718, "lat": 8.4190362, "lon": 125.7345995, "tags": {"admin_level": "10", "designation": "barangay", "is_in:town": "San Luis", "name": "Coalicion", "place": "village", "postal_code": "8511", "ref": "160309003"}}, {"type": "node", "id": 8956091475, "lat": 8.5379711, "lon": 125.7802106, "tags": {"admin_level": "10", "designation": "barangay", "is_in:town": "San Luis", "name": "San Isidro", "place": "village", "postal_code": "8511", "ref": "160309020"}}, {"type": "node", "id": 8956125096, "lat": 8.5997158, "lon": 125.7964254, "tags": {"admin_level": "10", "designation": "barangay", "is_in:town": "San Luis", "name": "Anislagan", "place": "village", "postal_code": "8511", "ref": "160309001"}}, {"type": "node", "id": 8959033599, "lat": 8.5012158, "lon": 125.7645121, "tags": {"admin_level": "10", "designation": "barangay", "is_in:town": "San Luis", "name": "Culi", "place": "village", "postal_code": "8511", "ref": "160309004"}}, {"type": "node", "id": 8987251398, "lat": 8.722912, "lon": 125.7599399}, {"type": "node", "id": 8987251399, "lat": 8.7221447, "lon": 125.7599315}, {"type": "node", "id": 9036970653, "lat": 8.784585, "lon": 125.5446955, "tags": {"admin_level": "11", "admin_type:PH": "purok", "is_in:barangay": "San Mateo", "is_in:city": "Butuan", "name": "San Roque", "place": "neighbourhood"}}, {"type": "node", "id": 9039687197, "lat": 8.5774142, "lon": 125.8476591, "tags": {"admin_level": "10", "admin_type:PH": "barangay", "designation": "barangay", "is_in:town": "Prosperidad", "name": "La Union", "place": "village", "postal_code": "8500"}}, {"type": "node", "id": 9039687198, "lat": 8.5616783, "lon": 125.8165482, "tags": {"admin_level": "11", "admin_type:PH": "sitio", "is_in:quarter": "La Union", "is_in:town": "Prosperidad", "name": "New Visayas", "place": "village", "source:name": "extrapolated from OSMaPaaralan, way/966070409"}}, {"type": "node", "id": 9039726017, "lat": 8.5767326, "lon": 125.8463985, "tags": {"admin_level": "11", "admin_type:PH": "purok", "is_in:barangay": "La Union", "is_in:municipality": "Prosperidad", "name": "Purok 1", "place": "neighbourhood"}}, {"type": "node", "id": 9132822226, "lat": 8.4836073, "lon": 125.7943019, "tags": {"place": "hamlet"}}, {"type": "node", "id": 9132822252, "lat": 8.4910896, "lon": 125.8072034, "tags": {"place": "hamlet"}}, {"type": "node", "id": 9156857991, "lat": 8.7993026, "lon": 125.7534723, "tags": {"name": "Mahayag", "place": "village"}}, {"type": "node", "id": 9156869144, "lat": 8.7434768, "lon": 125.8041684, "tags": {"name": "Pinagalaan", "place": "village"}}, {"type": "node", "id": 9156869145, "lat": 8.7156288, "lon": 125.7821732, "tags": {"place": "village"}}, {"type": "node", "id": 9170912274, "lat": 8.3965014, "lon": 125.4934868, "tags": {"place": "hamlet"}}, {"type": "node", "id": 9176145278, "lat": 8.4076458, "lon": 125.6908116, "tags": {"admin_level": "11", "alt_name": "Km 18 Sitio Datu Sandigan", "designation": "sitio", "is_in:town": "San Luis", "is_in:village": "Don Alejandro", "name": "Datu Sandigan", "place": "hamlet", "postal_code": "8511"}}, {"type": "node", "id": 9176169522, "lat": 8.5854477, "lon": 125.76487, "tags": {"admin_level": "10", "designation": "barangay", "is_in:town": "San Luis", "name": "Wegguam", "place": "village", "postal_code": "8511", "ref": "160309024"}}, {"type": "node", "id": 9176169523, "lat": 8.5539812, "lon": 125.7847211, "tags": {"admin_level": "10", "designation": "barangay", "is_in:town": "San Luis", "name": "Cecilia", "place": "village", "postal_code": "8511", "ref": "160309010"}}, {"type": "node", "id": 9176169524, "lat": 8.4931548, "lon": 125.7313263, "tags": {"admin_level": "10", "designation": "barangay", "is_in:town": "San Luis", "name": "Do\u00f1a Flavia", "place": "village", "postal_code": "8511", "ref": "160309014"}}, {"type": "node", "id": 9176169525, "lat": 8.5036704, "lon": 125.739833, "tags": {"admin_level": "10", "designation": "barangay", "is_in:town": "San Luis", "name": "Do\u00f1a Maxima", "place": "village", "postal_code": "8511", "ref": "160309025"}}, {"type": "node", "id": 9176195990, "lat": 8.5457747, "lon": 125.8284357, "tags": {"admin_level": "11", "alt_name": "Sitio San Agustin", "designation": "sitio", "is_in:town": "Prosperidad", "is_in:village": "San Vicente", "name": "San Agustin", "place": "hamlet", "postal_code": "8500"}}, {"type": "node", "id": 9208528111, "lat": 8.8321164, "lon": 125.8679608, "tags": {"fixme": "name", "place": "hamlet"}}, {"type": "node", "id": 9217308386, "lat": 8.7826367, "lon": 125.5636454, "tags": {"admin_level": "11", "admin_type:PH": "purok", "is_in:barangay": "San Mateo", "is_in:city": "Butuan", "name": "Purok 20", "place": "neighbourhood"}}, {"type": "node", "id": 9217463827, "lat": 8.7141507, "lon": 125.4919821, "tags": {"admin_level": "11", "admin_type:PH": "purok", "is_in:barangay": "Durian", "is_in:municipality": "Las Nieves", "name": "Purok 6", "place": "neighbourhood"}}, {"type": "node", "id": 9217463828, "lat": 8.7161073, "lon": 125.493004, "tags": {"admin_level": "11", "admin_type:PH": "purok", "is_in:barangay": "Durian", "is_in:municipality": "Las Nieves", "name": "Purok 3", "place": "neighbourhood"}}, {"type": "node", "id": 9217490740, "lat": 8.7454009, "lon": 125.5845639, "tags": {"admin_level": "11", "admin_type:PH": "purok", "is_in:barangay": "Lingayao", "is_in:municipality": "Las Nieves", "name": "Purok 2", "place": "neighbourhood"}}, {"type": "node", "id": 9217508187, "lat": 8.75974, "lon": 125.5589797, "tags": {"admin_level": "11", "admin_type:PH": "purok", "is_in:barangay": "Lingayao", "is_in:municipality": "Las Nieves", "name": "Purok 6-B", "place": "neighbourhood"}}, {"type": "node", "id": 9217508188, "lat": 8.7590753, "lon": 125.5593344, "tags": {"admin_level": "11", "admin_type:PH": "sitio", "is_in:quarter": "Lingayao", "is_in:town": "Las Nieves", "name": "Kahayagan", "place": "village"}}, {"type": "node", "id": 9217520764, "lat": 8.748443, "lon": 125.5629185, "tags": {"fixme": "name", "place": "hamlet"}}, {"type": "node", "id": 9220720220, "lat": 8.8252293, "lon": 125.5382368, "tags": {"admin_level": "11", "admin_type:PH": "purok", "is_in:barangay": "Dulag", "is_in:city": "Butuan", "name": "Purok 7", "place": "neighbourhood"}}, {"type": "node", "id": 9220720520, "lat": 8.8248662, "lon": 125.5353065, "tags": {"admin_level": "11", "admin_type:PH": "purok", "is_in:barangay": "Dulag", "is_in:city": "Butuan", "name": "Purok 6", "place": "neighbourhood"}}, {"type": "node", "id": 9220810672, "lat": 8.8173752, "lon": 125.5900309, "tags": {"admin_level": "11", "admin_type:PH": "purok", "is_in:barangay": "Maguinda", "is_in:city": "Butuan", "name": "Purok 1", "place": "neighbourhood"}}, {"type": "node", "id": 9220860507, "lat": 8.8379671, "lon": 125.6080869, "tags": {"admin_level": "11", "admin_type:PH": "purok", "is_in:barangay": "Maibu", "is_in:city": "Butuan", "name": "Purok 2", "place": "neighbourhood"}}, {"type": "node", "id": 9223260575, "lat": 8.8246806, "lon": 125.625591, "tags": {"admin_level": "11", "admin_type:PH": "purok", "is_in:barangay": "Sumile", "is_in:city": "Butuan", "name": "Purok 1", "place": "neighbourhood"}}, {"type": "node", "id": 9223292863, "lat": 8.7824306, "lon": 125.5887441, "tags": {"admin_level": "11", "admin_type:PH": "purok", "is_in:barangay": "Florida", "is_in:city": "Butuan", "name": "Purok 9", "place": "neighbourhood"}}, {"type": "node", "id": 9231339622, "lat": 8.8164858, "lon": 125.5358027, "tags": {"fixme": "name", "place": "neighbourhood"}}, {"type": "node", "id": 9509596536, "lat": 8.6647759, "lon": 125.5828017, "tags": {"admin_level": "11", "admin_type:PH": "purok", "is_in:barangay": "Tagabase", "is_in:municipality": "Esperanza", "name": "Purok 6", "place": "neighbourhood"}}, {"type": "node", "id": 9515490331, "lat": 8.5400958, "lon": 125.8579159, "tags": {"admin_level": "10", "admin_type:PH": "barangay", "is_in:city": "Prosperidad", "name": "San Vicente", "old_ref": "160306030", "place": "village", "population": "3687", "population:2015": "3728", "population:date": "2020-05-01"}}, {"type": "node", "id": 9515490333, "lat": 8.539934, "lon": 125.8596352, "tags": {"admin_level": "11", "admin_type:PH": "purok", "is_in:barangay": "San Vicente", "is_in:municipality": "Prosperidad", "name": "Purok 2", "place": "neighbourhood"}}, {"type": "node", "id": 9515540863, "lat": 8.4512517, "lon": 125.8189514, "tags": {"admin_level": "11", "admin_type:PH": "sitio", "is_in:town": "Talacogon", "is_in:village": "Labnig", "name": "Unsayawon", "place": "neighbourhood"}}, {"type": "node", "id": 9515579998, "lat": 8.4518566, "lon": 125.8025041, "tags": {"admin_level": "11", "admin_type:PH": "purok", "is_in:barangay": "Labnig", "is_in:municipality": "Talacogon", "name": "Purok 2", "place": "neighbourhood"}}, {"type": "node", "id": 9523698855, "lat": 8.4547948, "lon": 125.8806758, "tags": {"fixme": "name", "place": "hamlet"}}, {"type": "node", "id": 9523729894, "lat": 8.4473463, "lon": 125.9069721, "tags": {"place": "neighbourhood"}}, {"type": "node", "id": 9523758644, "lat": 8.439822, "lon": 125.9006837, "tags": {"admin_level": "11", "admin_type:PH": "purok", "is_in:barangay": "New Visayas", "is_in:municipality": "San Francisco", "name": "Purok 2", "place": "neighbourhood"}}, {"type": "node", "id": 9525844670, "lat": 8.4924479, "lon": 125.8435942, "tags": {"admin_level": "11", "admin_type:PH": "purok", "is_in:barangay": "Del Monte", "is_in:municipality": "Talacogon", "name": "Purok 5", "place": "neighbourhood"}}, {"type": "node", "id": 9525891354, "lat": 8.4879845, "lon": 125.8456233, "tags": {"admin_level": "11", "admin_type:PH": "purok", "is_in:barangay": "Del Monte", "is_in:municipality": "Talacogon", "name": "Purok 8", "place": "neighbourhood"}}, {"type": "node", "id": 9525917464, "lat": 8.502921, "lon": 125.8106567, "tags": {"admin_level": "11", "admin_type:PH": "sitio", "is_in": "Del Monte;Talacogon", "name": "Tuburan", "place": "hamlet", "source:name": "extrapolated from OSMaPaaralan, way/966096485"}}, {"type": "node", "id": 9525954633, "lat": 8.5143514, "lon": 125.8017008, "tags": {"admin_level": "11", "admin_type:PH": "sitio", "is_in": "Del Monte;Talacogon", "name": "Cebuna", "place": "hamlet", "source:name": "extrapolated from OSMaPaaralan, way/1034026978"}}, {"type": "node", "id": 9525959040, "lat": 8.5020084, "lon": 125.7999681, "tags": {"admin_level": "11", "admin_type:PH": "sitio", "is_in": "Del Monte;Talacogon", "name": "New Davao", "place": "hamlet", "source:name": "extrapolated from OSMaPaaralan, way/993841633"}}, {"type": "node", "id": 9525975692, "lat": 8.4471778, "lon": 125.8421136, "tags": {"admin_level": "11", "admin_type:PH": "purok", "is_in:barangay": "Causwagan", "is_in:municipality": "Talacogon", "name": "Purok 1", "place": "neighbourhood"}}, {"type": "node", "id": 9525982450, "lat": 8.4504743, "lon": 125.8267754, "tags": {"fixme": "name", "place": "neighbourhood"}}, {"type": "node", "id": 9526072319, "lat": 8.7562978, "lon": 125.8427627, "tags": {"admin_level": "10", "admin_type:PH": "barangay", "alt_name": "Getsemane", "is_in:city": "Bayugan", "name": "Gethsemane", "nat_name": "Barangay Getsemane", "official_name": "Barangay Gethsemane", "old_ref": "160301034", "place": "village", "population": "446", "population:2015": "398", "population:date": "2020-05-01"}}, {"type": "node", "id": 9526082743, "lat": 8.7643089, "lon": 125.8566914, "tags": {"admin_level": "10", "admin_type:PH": "barangay", "is_in:city": "Bayugan", "name": "New Salem", "old_ref": "160301042", "place": "village", "population": "715", "population:2015": "569", "population:date": "2020-05-01"}}, {"type": "node", "id": 9526101045, "lat": 8.825652, "lon": 125.8309704, "tags": {"admin_level": "10", "admin_type:PH": "barangay", "is_in:city": "Bayugan", "name": "Mount Ararat", "old_ref": "160301039", "place": "village", "population": "348", "population:2015": "684", "population:date": "2020-05-01"}}, {"type": "node", "id": 9526101046, "lat": 8.826577, "lon": 125.8309905, "tags": {"admin_level": "11", "admin_type:PH": "purok", "is_in:barangay": "Mount Ararat", "is_in:city": "Bayugan", "name": "Purok 2", "place": "neighbourhood"}}, {"type": "node", "id": 9526107458, "lat": 8.7896439, "lon": 125.8298506, "tags": {"admin_level": "11", "admin_type:PH": "purok", "is_in:barangay": "Mount Carmel", "is_in:city": "Bayugan", "name": "Purok 4", "place": "neighbourhood"}}, {"type": "node", "id": 9526107464, "lat": 8.7871178, "lon": 125.8287817, "tags": {"admin_level": "10", "admin_type:PH": "barangay", "is_in:city": "Bayugan", "name": "Mount Carmel", "place": "village"}}, {"type": "node", "id": 9526219426, "lat": 8.7916041, "lon": 125.7872531, "tags": {"fixme": "name", "place": "neighbourhood"}}, {"type": "node", "id": 9526220683, "lat": 8.7957736, "lon": 125.7931727, "tags": {"admin_level": "11", "admin_type:PH": "sitio", "is_in:city": "Bayugan", "is_in:village": "Santo Ni\u00f1o", "name": "New Leyte", "place": "hamlet", "source:name": "extrapolated from OSMaPaaralan, way/1034064271"}}, {"type": "node", "id": 9526347390, "lat": 8.7815181, "lon": 125.799956, "tags": {"admin_level": "11", "admin_type:PH": "sitio", "is_in": "Calaitan;Bayugan", "name": "New Bohol", "place": "hamlet"}}, {"type": "node", "id": 9741814190, "lat": 9.0483253, "lon": 125.7356281}, {"type": "node", "id": 9741814191, "lat": 9.0473921, "lon": 125.7071895}, {"type": "node", "id": 9741814192, "lat": 9.0470102, "lon": 125.6959553}, {"type": "node", "id": 9741814193, "lat": 9.0463702, "lon": 125.6761156}, {"type": "node", "id": 9741814194, "lat": 9.0464199, "lon": 125.6629887}, {"type": "node", "id": 9741814195, "lat": 9.0464696, "lon": 125.6364161}, {"type": "node", "id": 9741814196, "lat": 9.0465194, "lon": 125.6257737}, {"type": "node", "id": 9741814197, "lat": 9.0465691, "lon": 125.6145941}, {"type": "node", "id": 9741814198, "lat": 9.0465691, "lon": 125.6066542}, {"type": "node", "id": 9741814199, "lat": 9.0465525, "lon": 125.6048413}, {"type": "node", "id": 9741814200, "lat": 8.9964246, "lon": 125.5283985}, {"type": "node", "id": 9741814201, "lat": 8.9964048, "lon": 125.5390889}, {"type": "node", "id": 9741814202, "lat": 8.9963957, "lon": 125.5586021}, {"type": "node", "id": 9741814203, "lat": 8.9965017, "lon": 125.5710261}, {"type": "node", "id": 9741814204, "lat": 9.0177372, "lon": 125.5711978}, {"type": "node", "id": 9741814205, "lat": 9.0342669, "lon": 125.5711978}, {"type": "node", "id": 9741814206, "lat": 9.0353265, "lon": 125.5789655}, {"type": "node", "id": 9741814207, "lat": 9.043146, "lon": 125.5793088}, {"type": "node", "id": 9741814208, "lat": 9.0435128, "lon": 125.5842557}, {"type": "node", "id": 9741814209, "lat": 9.0454211, "lon": 125.5883866}, {"type": "node", "id": 9741814210, "lat": 9.0475956, "lon": 125.5930739}, {"type": "node", "id": 9741814211, "lat": 9.0490487, "lon": 125.5961498}, {"type": "node", "id": 9741814212, "lat": 9.0490142, "lon": 125.5964028}, {"type": "node", "id": 9741814213, "lat": 9.0489813, "lon": 125.5965185}, {"type": "node", "id": 9741814214, "lat": 9.0480811, "lon": 125.597925}, {"type": "node", "id": 9741814215, "lat": 9.0479813, "lon": 125.5980969}, {"type": "node", "id": 9741814216, "lat": 9.0480041, "lon": 125.5982214}, {"type": "node", "id": 9741837417, "lat": 9.0481151, "lon": 125.5986488}, {"type": "node", "id": 9741837418, "lat": 9.0480585, "lon": 125.598858}, {"type": "node", "id": 9741837419, "lat": 9.0477976, "lon": 125.5993512}, {"type": "node", "id": 9741837420, "lat": 9.0477086, "lon": 125.5995136}, {"type": "node", "id": 9741837421, "lat": 9.04778, "lon": 125.5997546}, {"type": "node", "id": 9741837422, "lat": 9.0480707, "lon": 125.600403}, {"type": "node", "id": 9741837423, "lat": 9.0483401, "lon": 125.6010196}, {"type": "node", "id": 9741837424, "lat": 9.0484241, "lon": 125.601366}, {"type": "node", "id": 9741837425, "lat": 9.0483126, "lon": 125.6019839}, {"type": "node", "id": 9741837426, "lat": 9.0482913, "lon": 125.6021285}, {"type": "node", "id": 9741837427, "lat": 9.0483577, "lon": 125.6046102}, {"type": "node", "id": 9741837428, "lat": 8.9980061, "lon": 125.7053906}, {"type": "node", "id": 9741837429, "lat": 8.9937461, "lon": 125.7028152}, {"type": "node", "id": 9741837430, "lat": 8.9913733, "lon": 125.7014029}, {"type": "node", "id": 9741837431, "lat": 8.989992, "lon": 125.7001914}, {"type": "node", "id": 9741837432, "lat": 8.9879405, "lon": 125.6984052}, {"type": "node", "id": 9741837433, "lat": 8.9850549, "lon": 125.6958644}, {"type": "node", "id": 9741837434, "lat": 8.9789346, "lon": 125.6939813}, {"type": "node", "id": 9741837435, "lat": 8.9738948, "lon": 125.6944936}, {"type": "node", "id": 9741837436, "lat": 8.9709516, "lon": 125.694347}, {"type": "node", "id": 9741837437, "lat": 8.7818146, "lon": 125.6570041}, {"type": "node", "id": 9741837438, "lat": 8.7940485, "lon": 125.6543861}, {"type": "node", "id": 9741837439, "lat": 8.8064907, "lon": 125.6516924}, {"type": "node", "id": 9741837440, "lat": 8.8143196, "lon": 125.649913}, {"type": "node", "id": 9741837441, "lat": 8.8210524, "lon": 125.6482919}, {"type": "node", "id": 9741837442, "lat": 8.831916, "lon": 125.6481578}, {"type": "node", "id": 9741837443, "lat": 8.8383352, "lon": 125.6495717}, {"type": "node", "id": 9741837444, "lat": 8.8473558, "lon": 125.6487916}, {"type": "node", "id": 9741837445, "lat": 8.8475364, "lon": 125.6387607}, {"type": "node", "id": 9741837446, "lat": 8.8594711, "lon": 125.6374931}, {"type": "node", "id": 9741837447, "lat": 8.876138, "lon": 125.6357136}, {"type": "node", "id": 9741837448, "lat": 8.8894686, "lon": 125.6342632}, {"type": "node", "id": 9741837449, "lat": 8.8975968, "lon": 125.6359574}, {"type": "node", "id": 9741837450, "lat": 8.9059054, "lon": 125.6440504}, {"type": "node", "id": 9741837451, "lat": 8.9114323, "lon": 125.6493645}, {"type": "node", "id": 9741837457, "lat": 8.7748842, "lon": 125.637523}, {"type": "node", "id": 9741837464, "lat": 8.7589629, "lon": 125.6421784}, {"type": "node", "id": 9741837465, "lat": 8.7588428, "lon": 125.6325627}, {"type": "node", "id": 9741837466, "lat": 8.7539881, "lon": 125.6290046}, {"type": "node", "id": 9741837467, "lat": 8.7521354, "lon": 125.6263317}, {"type": "node", "id": 9741837468, "lat": 8.7516723, "lon": 125.6235199}, {"type": "node", "id": 9741837469, "lat": 8.7506601, "lon": 125.6202048}, {"type": "node", "id": 9741837470, "lat": 8.7492535, "lon": 125.6174277}, {"type": "node", "id": 9741837471, "lat": 8.7489961, "lon": 125.6043928}, {"type": "node", "id": 9741837473, "lat": 8.7489787, "lon": 125.5805106}, {"type": "node", "id": 9741837474, "lat": 8.7614887, "lon": 125.5559287}, {"type": "node", "id": 9741837476, "lat": 8.7517772, "lon": 125.5331576}, {"type": "node", "id": 9741837478, "lat": 8.7592961, "lon": 125.4914745}, {"type": "node", "id": 9741837479, "lat": 8.7703353, "lon": 125.4942282}, {"type": "node", "id": 9741837480, "lat": 8.7760481, "lon": 125.4948872}, {"type": "node", "id": 9741837481, "lat": 8.7908584, "lon": 125.4931592}, {"type": "node", "id": 9741837482, "lat": 8.7961001, "lon": 125.490446}, {"type": "node", "id": 9741837483, "lat": 8.8044705, "lon": 125.4828611}, {"type": "node", "id": 9741837484, "lat": 8.8157221, "lon": 125.4668235}, {"type": "node", "id": 9741837485, "lat": 8.8275223, "lon": 125.4668756}, {"type": "node", "id": 9741837486, "lat": 8.8386189, "lon": 125.4668929}, {"type": "node", "id": 9741837487, "lat": 8.8493207, "lon": 125.4668756}, {"type": "node", "id": 9741837488, "lat": 8.860914, "lon": 125.4661987}, {"type": "node", "id": 9741837489, "lat": 8.880464, "lon": 125.4651746}, {"type": "node", "id": 9741837490, "lat": 8.9021735, "lon": 125.4639076}, {"type": "node", "id": 9741837491, "lat": 8.9206753, "lon": 125.462953}, {"type": "node", "id": 9741837492, "lat": 8.9377017, "lon": 125.4620157}, {"type": "node", "id": 9741837493, "lat": 8.9524641, "lon": 125.4613214}, {"type": "node", "id": 9741837494, "lat": 8.9525841, "lon": 125.4638208}, {"type": "node", "id": 9741837495, "lat": 8.9668658, "lon": 125.4700345}, {"type": "node", "id": 9741837496, "lat": 8.9823642, "lon": 125.472152}, {"type": "node", "id": 9741837497, "lat": 8.9968267, "lon": 125.4724601}, {"type": "node", "id": 9741837498, "lat": 8.9998394, "lon": 125.4711939}, {"type": "node", "id": 9741837499, "lat": 9.0044091, "lon": 125.4690283}, {"type": "node", "id": 9741837510, "lat": 9.0153322, "lon": 125.5142076}, {"type": "node", "id": 9741837512, "lat": 8.9981731, "lon": 125.5275129}, {"type": "node", "id": 9741837513, "lat": 9.001087, "lon": 125.5262722}, {"type": "node", "id": 9741837514, "lat": 9.0022235, "lon": 125.5259374}, {"type": "node", "id": 9741837515, "lat": 9.0057622, "lon": 125.5250978}, {"type": "node", "id": 9741837516, "lat": 9.0083463, "lon": 125.5236552}, {"type": "node", "id": 9741837517, "lat": 9.0095995, "lon": 125.5226031}, {"type": "node", "id": 9741837518, "lat": 9.0109641, "lon": 125.5211809}, {"type": "node", "id": 9741837519, "lat": 9.0123705, "lon": 125.5196047}, {"type": "node", "id": 10920668414, "lat": 8.5806393, "lon": 125.7102442, "tags": {"name": "Purok 2", "place": "neighbourhood"}}, {"type": "node", "id": 10920674656, "lat": 8.5882042, "lon": 125.6677143, "tags": {"admin_level": "11", "admin_type:PH": "purok", "is_in:barangay": "Oromica", "is_in:municipality": "Esperanza", "name": "Purok 2", "place": "neighbourhood", "postal_code": "8513"}}, {"type": "node", "id": 10920674660, "lat": 8.5914784, "lon": 125.6696403, "tags": {"admin_level": "11", "admin_type:PH": "purok", "is_in:barangay": "Oromica", "is_in:municipality": "Esperanza", "name": "Purok 1", "place": "neighbourhood", "postal_code": "8513"}}, {"type": "node", "id": 11046115170, "lat": 8.7438542, "lon": 125.488334}, {"type": "node", "id": 11129551297, "lat": 8.5449657, "lon": 125.8976018, "tags": {"admin_level": "10", "admin_type:PH": "barangay", "is_in:municipality": "Prosperidad", "name": "Napo", "place": "village"}}, {"type": "node", "id": 11347796481, "lat": 8.7133579, "lon": 125.5932301, "tags": {"admin_level": "11", "admin_type:PH": "purok", "is_in:barangay": "Mat-i", "is_in:municipality": "Las Nieves", "name": "Purok 1", "place": "neighbourhood", "postal_code": "8610"}}, {"type": "node", "id": 11423818672, "lat": 8.6185216, "lon": 125.4919571, "tags": {"alt_name": "Sitio Grabahan", "is_in:barangay": "Bunaguit", "is_in:town": "Esperanza", "name": "Grabahan", "place": "hamlet", "postal_code": "8513"}}, {"type": "node", "id": 12156754085, "lat": 8.7205971, "lon": 125.5728051, "tags": {"admin_level": "11", "admin_type:PH": "purok", "is_in:barangay": "Maningalao", "name": "Purok 1", "place": "neighbourhood"}}, {"type": "node", "id": 12156760284, "lat": 8.6958824, "lon": 125.5714848, "tags": {"admin_level": "11", "admin_type:PH": "purok", "is_in:barangay": "Consorcia", "is_in:municipality": "Las Nieves", "name": "Purok 2", "place": "neighbourhood"}}, {"type": "node", "id": 12156797488, "lat": 8.7104985, "lon": 125.5922605, "tags": {"admin_level": "11", "admin_type:PH": "purok", "is_in:barangay": "Mat-i", "is_in:municipality": "Las Nieves", "name": "Purok 3", "place": "neighbourhood"}}, {"type": "node", "id": 12156797496, "lat": 8.7094831, "lon": 125.5904259, "tags": {"admin_level": "11", "admin_type:PH": "purok", "is_in:barangay": "Mat-i", "is_in:municipality": "Las Nieves", "name": "Purok 4", "place": "neighbourhood"}}, {"type": "node", "id": 12254147249, "lat": 8.8263743, "lon": 125.5749723, "tags": {"alt_name": "Sitio Tagpulangi", "is_in:barangay": "Dulag", "is_in:city": "Butuan", "name": "Tagpulangi", "place": "hamlet", "postal_code": "8600"}}, {"type": "node", "id": 12258014586, "lat": 8.7221632, "lon": 125.7581924}, {"type": "node", "id": 12258014587, "lat": 8.7229306, "lon": 125.7582007}, {"type": "node", "id": 12282064234, "lat": 8.7395699, "lon": 125.5081505, "tags": {"alt_name": "Sitio Fatima", "is_in:barangay": "Ibuan", "is_in:municipality": "Las Nieves", "name": "Fatima", "place": "hamlet", "postal_code": "8610"}}, {"type": "node", "id": 12282092434, "lat": 8.743748, "lon": 125.5974264, "tags": {"admin_level": "10", "admin_type:PH": "barangay", "is_in:municipality": "Las Nieves", "name": "Tinucoran", "official_name": "Barangay Tinucoran", "place": "village", "postal_code": "8610"}}, {"type": "node", "id": 12282092435, "lat": 8.7365026, "lon": 125.6131133, "tags": {"admin_level": "10", "admin_type:PH": "barangay", "is_in:municipality": "Las Nieves", "name": "Malicato", "official_name": "Barangay Malicato", "place": "village", "postal_code": "8610"}}, {"type": "node", "id": 12282092437, "lat": 8.7283584, "lon": 125.627836, "tags": {"admin_level": "10", "admin_type:PH": "barangay", "is_in:municipality": "Las Nieves", "name": "San Isidro", "official_name": "Barangay San Isidro", "place": "village", "postal_code": "8610"}}, {"type": "node", "id": 12282099141, "lat": 8.6472723, "lon": 125.5139574, "tags": {"place": "hamlet"}}, {"type": "node", "id": 12282136681, "lat": 8.7614963, "lon": 125.5646968}, {"type": "node", "id": 12282136682, "lat": 8.7819396, "lon": 125.494852}, {"type": "node", "id": 12282136683, "lat": 8.7851629, "lon": 125.4945516}, {"type": "node", "id": 12479788713, "lat": 8.7094283, "lon": 125.7557253, "tags": {"is_in:barangay": "Taglatawan", "is_in:city": "Bayugan", "name": "Buri", "place": "neighbourhood", "postal_code": "8502"}}, {"type": "node", "id": 12832782321, "lat": 9.0102791, "lon": 125.5219282}, {"type": "node", "id": 12832782322, "lat": 9.0116855, "lon": 125.5204589}, {"type": "node", "id": 12832802228, "lat": 9.0029627, "lon": 125.5257833}, {"type": "node", "id": 12832802229, "lat": 9.003678, "lon": 125.5257136}, {"type": "node", "id": 12832802230, "lat": 9.0264555, "lon": 125.4876085}, {"type": "node", "id": 12832802231, "lat": 9.0559447, "lon": 125.4423327}, {"type": "node", "id": 12832802232, "lat": 9.0363102, "lon": 125.4662358}, {"type": "node", "id": 12832802233, "lat": 9.019802, "lon": 125.5055126}, {"type": "node", "id": 12832802234, "lat": 8.9947898, "lon": 125.4734083},