{"version": 0.6, "generator": "Overpass API 0.7.62.5 1bd436f1", "osm3s": {"timestamp_osm_base": "2025-05-24T17:50:13Z", "copyright": "The data included in this document is from www.openstreetmap.org. The data is made available under ODbL."}, "elements": [{"type": "node", "id": 198490728, "lat": 18.5110086, "lon": 120.6436311, "tags": {"admin_level": "6", "admin_type:PH": "municipality", "name": "Burgos", "official_name": "Municipality of Burgos", "place": "town", "population": "9777", "population:date": "2015-08-01", "website": "http://www.burgosilocosnorte.gov.ph/", "wikidata": "Q39368", "wikimedia_commons": "Category:Burgos, Ilocos Norte", "wikipedia": "en:Burgos, Ilocos Norte"}}, {"type": "node", "id": 198507930, "lat": 18.5203924, "lon": 120.812245, "tags": {"admin_level": "6", "admin_type:PH": "municipality", "name": "Dumalneg", "official_name": "Municipality of Dumalneg", "place": "town", "population": "2947", "population:date": "2015-08-01", "postal_code": "2921", "wikidata": "Q39511", "wikimedia_commons": "Category:Dumalneg", "wikipedia": "en:Dumalneg"}}, {"type": "node", "id": 198513709, "lat": 18.5367387, "lon": 120.7657563, "tags": {"admin_level": "6", "admin_type:PH": "municipality", "name": "Bangui", "official_name": "Municipality of Bangui", "place": "town", "population": "14672", "population:date": "2015-08-01", "postal_code": "2920", "website": "http://www.bangui.gov.ph/", "wikidata": "Q39326", "wikimedia_commons": "Category:Bangui, Ilocos Norte", "wikipedia": "en:Bangui, Ilocos Norte"}}, {"type": "node", "id": 198518629, "lat": 18.5593916, "lon": 120.7869782, "tags": {"admin_level": "6", "admin_type:PH": "municipality", "name": "Pagudpud", "old_ref": "012815000", "place": "town", "population": "25098", "population:date": "2020-05-01", "ref": "0102815000", "source:population": "Philippine Statistics Authority", "wikidata": "Q39559", "wikimedia_commons": "Category:Pagudpud", "wikipedia": "en:Pagudpud"}}, {"type": "node", "id": 198520796, "lat": 18.3339819, "lon": 120.6194886, "tags": {"admin_level": "6", "admin_type:PH": "municipality", "name": "Pasuquin", "official_name": "Municipality of Pasuquin", "place": "town", "population": "28980", "population:date": "2015-08-01", "postal_code": "2917", "wikidata": "Q39591", "wikimedia_commons": "Category:Pasuquin", "wikipedia": "en:Pasuquin"}}, {"type": "node", "id": 198522528, "lat": 18.2517377, "lon": 120.6106589, "tags": {"admin_level": "6", "admin_type:PH": "municipality", "gns_classification": "ADM2", "gns_uni": "-3325156", "is_in:province": "Ilocos Norte", "name": "Bacarra", "name:be": "\u0433\u0430\u0440\u0430 \u0411\u0430\u043a\u0430\u044f\u043d", "name:uk": "\u0411\u0430\u043a\u0430\u0440\u0440\u0430", "place": "town", "population": "32215", "population:date": "2015-08-01", "source": "GNS", "source:population": "Philippine Statistics Authority", "website": "https://www.bacarra.gov.ph", "wikidata": "Q39271", "wikimedia_commons": "Category:Bacarra", "wikipedia": "en:Bacarra"}}, {"type": "node", "id": 317949136, "lat": 18.1973235, "lon": 120.5935433, "tags": {"admin_level": "6", "capital": "4", "is_in:country": "Philippines", "is_in:state": "Ilocos Norte", "name": "Laoag", "name:en": "Laoag", "name:ja": "\u30e9\u30aa\u30a2\u30b0", "name:ru": "\u041b\u0430\u043e\u0430\u0433", "name:uk": "\u041b\u0430\u043e\u0430\u0433", "name:zh": "\u62c9\u74e6\u683c", "place": "city", "population": "111125", "population:date": "2015-08-01", "source:population": "Philippine Statistics Authority", "website": "http://www.laoagcity.gov.ph/", "wikidata": "Q39738", "wikimedia_commons": "Category:Laoag", "wikipedia": "en:Laoag"}}, {"type": "node", "id": 913238696, "lat": 18.2438858, "lon": 120.5941797, "tags": {"gns:adm1": "RP28", "gns:dsg": "PPL", "is_in:state": "Ilocos Norte", "name": "Sangil", "place": "village", "source": "NGA-GNS-09152010"}}, {"type": "node", "id": 913238702, "lat": 18.2457993, "lon": 120.5911, "tags": {"gns:adm1": "RP28", "gns:dsg": "PPL", "is_in:state": "Ilocos Norte", "name": "Saguel", "place": "hamlet", "source": "NGA-GNS-09152010"}}, {"type": "node", "id": 913238704, "lat": 18.2500031, "lon": 120.5833361, "tags": {"gns:adm1": "RP28", "gns:dsg": "PPL", "is_in:state": "Ilocos Norte", "name": "Baldias", "place": "hamlet", "source": "NGA-GNS-09152010"}}, {"type": "node", "id": 913238710, "lat": 18.2539988, "lon": 120.5844986, "tags": {"gns:adm1": "RP28", "gns:dsg": "PPL", "is_in:state": "Ilocos Norte", "name": "Ganagan", "place": "village", "source": "NGA-GNS-09152010"}}, {"type": "node", "id": 913242791, "lat": 18.2357702, "lon": 120.6062981, "tags": {"gns:adm1": "RP28", "gns:dsg": "PPL", "is_in:state": "Ilocos Norte", "name": "Pasiocan", "place": "village", "source": "NGA-GNS-09152010"}}, {"type": "node", "id": 913242793, "lat": 18.237496, "lon": 120.5975001, "tags": {"gns:adm1": "RP28", "gns:dsg": "PPL", "is_in:state": "Ilocos Norte", "name": "Barit-Pandan", "place": "hamlet", "source": "NGA-GNS-09152010"}}, {"type": "node", "id": 913242800, "lat": 18.2166663, "lon": 120.566666, "tags": {"gns:adm1": "RP28", "gns:dsg": "PPL", "is_in:state": "Ilocos Norte", "name": "Silbung", "place": "hamlet", "source": "NGA-GNS-09152010"}}, {"type": "node", "id": 913242805, "lat": 18.2381048, "lon": 120.599067, "tags": {"gns:adm1": "RP28", "gns:dsg": "PPL", "is_in:state": "Ilocos Norte", "name": "Purarig", "place": "hamlet", "source": "NGA-GNS-09152010"}}, {"type": "node", "id": 913242812, "lat": 18.2333321, "lon": 120.5666678, "tags": {"gns:adm1": "RP28", "gns:dsg": "PPL", "is_in:state": "Ilocos Norte", "name": "Daratan", "place": "hamlet", "source": "NGA-GNS-09152010"}}, {"type": "node", "id": 913242815, "lat": 18.2333332, "lon": 120.5999999, "tags": {"gns:adm1": "RP28", "gns:dsg": "PPL", "is_in:state": "Ilocos Norte", "name": "Casilig", "place": "hamlet", "source": "NGA-GNS-09152010"}}, {"type": "node", "id": 913242823, "lat": 18.233333, "lon": 120.5833351, "tags": {"gns:adm1": "RP28", "gns:dsg": "PPL", "is_in:state": "Ilocos Norte", "name": "Dichai", "place": "hamlet", "source": "NGA-GNS-09152010"}}, {"type": "node", "id": 1235041015, "lat": 18.2113716, "lon": 120.570286, "tags": {"admin_level": "11", "admin_type:PH": "purok", "name": "Pannabatan", "official_name": "Sitio Pannabatan", "place": "neighbourhood", "source": "waiting shed with that name"}}, {"type": "node", "id": 1236307023, "lat": 18.4127779, "lon": 120.595143, "tags": {"admin_level": "11", "admin_type:PH": "sitio", "name": "Tulnagan", "place": "hamlet"}}, {"type": "node", "id": 1236325571, "lat": 18.4674157, "lon": 120.5785499, "tags": {"admin_level": "10", "admin_type:PH": "barangay", "is_in:town": "Pasuquin", "name": "Davila", "place": "village"}}, {"type": "node", "id": 1237403618, "lat": 18.5323807, "lon": 120.6176541, "tags": {"admin_level": "10", "admin_type:PH": "barangay", "name": "Pagali", "place": "village"}}, {"type": "node", "id": 1237492438, "lat": 18.5166201, "lon": 120.70745, "tags": {"admin_level": "10", "admin_type:PH": "barangay", "name": "Baruyen", "place": "village", "population": "1742", "population:2015": "1541", "ref": "012804004", "source:name": "extrapolated from OSMaPaaralan, addr:village=Baruyen", "source:population": "Philippine Statistics Authority"}}, {"type": "node", "id": 1237577645, "lat": 18.5144712, "lon": 120.71361, "tags": {"alt_name": "Barangay 15", "name": "Utol", "place": "village"}}, {"type": "node", "id": 1238067275, "lat": 18.5321987, "lon": 120.7568516, "tags": {"admin_level": "10", "admin_type:PH": "barangay", "is_in:town": "Bangui", "name": "Abaca", "old_ref": "012804001", "place": "village", "population": "1842", "ref": "0102804001", "source:population": "Philippine Statistics Authority"}}, {"type": "node", "id": 1238067288, "lat": 18.5359154, "lon": 120.7640137, "tags": {"admin_level": "11", "admin_type:PH": "purok", "name": "Salucag", "place": "neighbourhood"}}, {"type": "node", "id": 1238076433, "lat": 18.5274661, "lon": 120.7879997, "tags": {"name": "Malasin", "place": "village"}}, {"type": "node", "id": 1238089216, "lat": 18.5313986, "lon": 120.7950681, "tags": {"name": "Lanao", "place": "village"}}, {"type": "node", "id": 1238089218, "lat": 18.5454665, "lon": 120.79153, "tags": {"is_in:city": "Pagudpud", "is_in:state": "Ilocos Norte", "name": "Tarrag", "place": "village"}}, {"type": "node", "id": 1238122800, "lat": 18.5855466, "lon": 120.7877064, "tags": {"admin_level": "10", "admin_type:PH": "barangay", "is_in:city": "Pagudpud", "is_in:state": "Ilocos Norte", "name": "Saud", "place": "village"}}, {"type": "node", "id": 1238122827, "lat": 18.5553367, "lon": 120.7912844, "tags": {"admin_level": "10", "admin_type:PH": "barangay", "name": "Ligaya", "place": "village"}}, {"type": "node", "id": 1243504320, "lat": 18.5749111, "lon": 120.7957192, "tags": {"is_in:city": "Pagudpud", "is_in:state": "Ilocos Norte", "name": "Burayoc", "place": "village"}}, {"type": "node", "id": 2653584618, "lat": 18.5522685, "lon": 120.8147642, "tags": {"is_in:city": "Pagudpud", "is_in:state": "Ilocos Norte", "name": "Aggasi", "place": "village"}}, {"type": "node", "id": 2653584619, "lat": 18.5668382, "lon": 120.8107379, "tags": {"is_in:city": "Pagudpud", "is_in:state": "Ilocos Norte", "name": "Baduang", "place": "village"}}, {"type": "node", "id": 2653584621, "lat": 18.6024119, "lon": 120.7979567, "tags": {"admin_level": "10", "admin_type:PH": "barangay", "is_in:city": "Pagudpud", "is_in:state": "Ilocos Norte", "name": "Caparispisan", "old_ref": "012815018", "place": "village", "population": "930", "population:2015": "839", "ref": "0102815018", "source:population": "Philippine Statistics Authority"}}, {"type": "node", "id": 2653584622, "lat": 18.6209421, "lon": 120.834954, "tags": {"is_in:city": "Pagudpud", "is_in:state": "Ilocos Norte", "name": "Caunayan", "place": "village"}}, {"type": "node", "id": 2653584623, "lat": 18.5405657, "lon": 120.8212782, "tags": {"admin_level": "10", "designation": "barangay", "is_in:city": "Pagudpud", "is_in:province": "Ilocos Norte", "name": "Dampig", "place": "village"}}, {"type": "node", "id": 2653584626, "lat": 18.5633064, "lon": 120.8138538, "tags": {"is_in:city": "Pagudpud", "is_in:state": "Ilocos Norte", "name": "Saguigui", "place": "village"}}, {"type": "node", "id": 2653584627, "lat": 18.5773569, "lon": 120.8169427, "tags": {"admin_level": "10", "designation": "barangay", "is_in:province": "Ilocos Norte", "is_in:town": "Pagudpud", "name": "Subec", "place": "village"}}, {"type": "node", "id": 3329566941, "lat": 18.6361823, "lon": 120.8348159, "tags": {"name": "Aryargo", "place": "village"}}, {"type": "node", "id": 3329566943, "lat": 18.631609, "lon": 120.8094751, "tags": {"name": "Nagudungan", "place": "village"}}, {"type": "node", "id": 4493736046, "lat": 18.5290973, "lon": 120.8282479, "tags": {"admin_level": "10", "admin_type:PH": "barangay", "name": "San Isidro", "place": "village"}}, {"type": "node", "id": 4992438121, "lat": 18.4939889, "lon": 120.6674354, "tags": {"name": "Tanap", "place": "village", "wikidata": "Q26207978"}}, {"type": "node", "id": 5125615179, "lat": 18.1886082, "lon": 120.5499054}, {"type": "node", "id": 5125615180, "lat": 18.1886745, "lon": 120.5504097}, {"type": "node", "id": 5125615181, "lat": 18.1895437, "lon": 120.5509314}, {"type": "node", "id": 5125615182, "lat": 18.1903486, "lon": 120.5506833}, {"type": "node", "id": 5125615183, "lat": 18.1906519, "lon": 120.5507047}, {"type": "node", "id": 5125615184, "lat": 18.1906723, "lon": 120.5514772}, {"type": "node", "id": 5125615185, "lat": 18.1909488, "lon": 120.5517939}, {"type": "node", "id": 5125615186, "lat": 18.1911262, "lon": 120.5519826}, {"type": "node", "id": 5125615187, "lat": 18.1918095, "lon": 120.5521858}, {"type": "node", "id": 5125615188, "lat": 18.191876, "lon": 120.5521484}, {"type": "node", "id": 5125615189, "lat": 18.1924971, "lon": 120.5521624}, {"type": "node", "id": 5125615190, "lat": 18.1925082, "lon": 120.5525337}, {"type": "node", "id": 5125615191, "lat": 18.1924905, "lon": 120.5529867}, {"type": "node", "id": 5125615192, "lat": 18.1926835, "lon": 120.5532505}, {"type": "node", "id": 5125615193, "lat": 18.1931915, "lon": 120.5532809}, {"type": "node", "id": 5125615194, "lat": 18.1949275, "lon": 120.5527771}, {"type": "node", "id": 5125615195, "lat": 18.1944726, "lon": 120.5514013}, {"type": "node", "id": 5125615196, "lat": 18.193597, "lon": 120.5508886}, {"type": "node", "id": 5125615197, "lat": 18.1938016, "lon": 120.5502006}, {"type": "node", "id": 5125615198, "lat": 18.1934654, "lon": 120.5498325}, {"type": "node", "id": 5125615199, "lat": 18.1934721, "lon": 120.5496804}, {"type": "node", "id": 5125615200, "lat": 18.1926046, "lon": 120.5493831}, {"type": "node", "id": 5125615201, "lat": 18.1921675, "lon": 120.5490752}, {"type": "node", "id": 5125615202, "lat": 18.1921608, "lon": 120.5486858}, {"type": "node", "id": 5125615203, "lat": 18.1919893, "lon": 120.5481266}, {"type": "node", "id": 5125615204, "lat": 18.1919053, "lon": 120.5480629}, {"type": "node", "id": 5125615205, "lat": 18.1906713, "lon": 120.5481231}, {"type": "node", "id": 5125615206, "lat": 18.190409, "lon": 120.5499139}, {"type": "node", "id": 5125615207, "lat": 18.1905562, "lon": 120.5501795}, {"type": "node", "id": 5125615208, "lat": 18.1903669, "lon": 120.5504697}, {"type": "node", "id": 5125615209, "lat": 18.1893205, "lon": 120.5503325}, {"type": "node", "id": 5125615210, "lat": 18.1893051, "lon": 120.5502593}, {"type": "node", "id": 5125615211, "lat": 18.1893809, "lon": 120.5509069}, {"type": "node", "id": 5125615213, "lat": 18.1895927, "lon": 120.5505929}, {"type": "node", "id": 5125615214, "lat": 18.190635, "lon": 120.550373}, {"type": "node", "id": 5385235921, "lat": 18.5246284, "lon": 120.6064239, "tags": {"admin_level": "10", "alt_name": "Ablan Sarat", "description": "barangay", "name": "Ablan", "place": "village"}}, {"type": "node", "id": 5909797388, "lat": 18.1906593, "lon": 120.5505189}, {"type": "node", "id": 5909797389, "lat": 18.1894285, "lon": 120.5505672}, {"type": "node", "id": 7092875685, "lat": 18.5307139, "lon": 120.6774974, "tags": {"admin_level": "12", "admin_type:PH": "purok", "is_in:district": "Baruyen", "is_in:town": "Bangui", "is_in:village": "Baruyen", "name": "Bantoc", "place": "neighbourhood"}}, {"type": "node", "id": 7298326740, "lat": 18.4080786, "lon": 120.7852551, "tags": {"name": "Tungel", "place": "neighbourhood"}}, {"type": "node", "id": 7298326741, "lat": 18.3992308, "lon": 120.7747248, "tags": {"name": "Tanap", "place": "neighbourhood"}}, {"type": "node", "id": 7310451543, "lat": 18.4579265, "lon": 120.5802753, "tags": {"admin_level": "11", "admin_type:PH": "sitio", "name": "Dirique", "place": "hamlet"}}, {"type": "node", "id": 8041186280, "lat": 18.3426301, "lon": 120.7311563, "tags": {"admin_level": "10", "admin_type:PH": "barangay", "is_in:municipality": "Vintar", "name": "Bago", "place": "village"}}, {"type": "node", "id": 8041201911, "lat": 18.3528708, "lon": 120.7337701, "tags": {"admin_level": "10", "admin_type:PH": "barangay", "is_in:municipality": "Vintar", "name": "San Jose", "old_name": "Lipay", "place": "village"}}, {"type": "node", "id": 8882225916, "lat": 18.3052032, "lon": 120.6098378, "tags": {"admin_level": "10", "designation": "barangay", "name": "Dadaeman", "place": "village", "population": "340", "ref": "012817007", "source:population": "Philippine Statistics Authority"}}, {"type": "node", "id": 8882296121, "lat": 18.3495538, "lon": 120.6330336, "tags": {"name": "Sulbec", "place": "village"}}, {"type": "node", "id": 8882296146, "lat": 18.3340934, "lon": 120.6114718, "tags": {"admin_level": "10", "admin_type:PH": "barangay", "name": "Malasin North", "place": "village"}}, {"type": "node", "id": 8882296159, "lat": 18.3349094, "lon": 120.6072219, "tags": {"admin_level": "10", "designation": "barangay", "name": "Puyupuyan", "place": "village"}}, {"type": "node", "id": 8882296163, "lat": 18.3311269, "lon": 120.664498, "tags": {"admin_level": "10", "admin_type:PH": "barangay", "is_in:town": "Pasuquin", "name": "San Juan", "place": "village"}}, {"type": "node", "id": 8882296192, "lat": 18.3256486, "lon": 120.6207644, "tags": {"admin_level": "11", "name": "San Isidro", "place": "hamlet"}}, {"type": "node", "id": 8882296203, "lat": 18.3139923, "lon": 120.602828, "tags": {"admin_level": "10", "designation": "barangay", "name": "Naglicuan", "place": "village"}}, {"type": "node", "id": 8882296205, "lat": 18.3347509, "lon": 120.6181548, "tags": {"name": "Purok Camia", "place": "neighbourhood"}}, {"type": "node", "id": 8882296207, "lat": 18.348274, "lon": 120.6150172, "tags": {"name": "Nagsanga", "place": "village"}}, {"type": "node", "id": 8947529467, "lat": 18.2920231, "lon": 120.5991864, "tags": {"admin_level": "10", "designation": "barangay", "name": "Cadaratan", "place": "village", "population": "1192", "ref": "012802006", "source:population": "Philippine Statistics Authority"}}, {"type": "node", "id": 9396070148, "lat": 18.5259807, "lon": 120.6873357, "tags": {"admin_level": "12", "admin_type:PH": "purok", "is_in:district": "Baruyen", "is_in:town": "Bangui", "is_in:village": "Baruyen", "name": "Suyo", "place": "neighbourhood"}}, {"type": "node", "id": 9398139393, "lat": 18.2445649, "lon": 120.5721107, "tags": {"admin_level": "10", "admin_type:PH": "barangay", "alt_name": "Barangay \u2116 60-B", "is_in:city": "Laoag", "name": "Madiladig", "place": "village", "population": "1653", "population:2015": "1469", "ref": "012812033"}}, {"type": "node", "id": 9646053559, "lat": 18.5248388, "lon": 120.7471034, "tags": {"admin_level": "10", "admin_type:PH": "barangay", "name": "Masikil", "place": "village"}}, {"type": "node", "id": 9646079801, "lat": 18.5287452, "lon": 120.7718334, "tags": {"admin_level": "10", "designation": "barangay", "name": "Bacsil", "place": "village"}}, {"type": "node", "id": 9646135104, "lat": 18.5064782, "lon": 120.7125887, "tags": {"admin_level": "10", "designation": "barangay", "name": "Dadaor", "place": "village"}}, {"type": "node", "id": 9646144223, "lat": 18.5110463, "lon": 120.7275528, "tags": {"admin_level": "10", "designation": "barangay", "name": "Banban", "place": "village"}}, {"type": "node", "id": 9646156649, "lat": 18.5224431, "lon": 120.7113737, "tags": {"admin_level": "10", "designation": "barangay", "name": "Taguipuro", "place": "village"}}, {"type": "node", "id": 9646363105, "lat": 18.5061552, "lon": 120.6763708, "tags": {"admin_level": "10", "designation": "barangay", "name": "Nagsurot", "place": "village"}}, {"type": "node", "id": 9646450122, "lat": 18.5351437, "lon": 120.6283808, "tags": {"admin_level": "10", "admin_type:PH": "barangay", "designation": "barangay", "is_in:town": "Burgos", "name": "Saoit", "place": "village"}}, {"type": "node", "id": 9646495987, "lat": 18.4948998, "lon": 120.570429, "tags": {"admin_level": "10", "designation": "barangay", "name": "Paayas", "place": "village"}}, {"type": "node", "id": 9646514529, "lat": 18.5061425, "lon": 120.5829012, "tags": {"admin_level": "10", "designation": "barangay", "name": "Bobon", "place": "village"}}, {"type": "node", "id": 9649408165, "lat": 18.2676935, "lon": 120.5741814, "tags": {"admin_level": "10", "admin_type:PH": "barangay", "name": "Casilian", "place": "village"}}, {"type": "node", "id": 9649460321, "lat": 18.2772319, "lon": 120.5871445, "tags": {"admin_level": "10", "designation": "barangay", "name": "Cabulalaan", "place": "village"}}, {"type": "node", "id": 9663681997, "lat": 18.3117668, "lon": 120.6424624, "tags": {"admin_level": "10", "designation": "barangay", "name": "Dilanis", "place": "village"}}, {"type": "node", "id": 9663683476, "lat": 18.3144507, "lon": 120.6227481, "tags": {"admin_level": "10", "admin_type:PH": "barangay", "is_in:town": "Pasuquin", "name": "Tabungao", "place": "village"}}, {"type": "node", "id": 9663840219, "lat": 18.2912188, "lon": 120.6072074, "tags": {"admin_level": "10", "designation": "barangay", "name": "Pungto", "place": "village"}}, {"type": "node", "id": 9664075430, "lat": 18.3830713, "lon": 120.6058931, "tags": {"admin_level": "10", "designation": "barangay", "name": "Sulongan", "place": "village"}}, {"type": "node", "id": 9664075431, "lat": 18.3843389, "lon": 120.5983829, "tags": {"admin_level": "10", "designation": "barangay", "name": "Caruan", "place": "village"}}, {"type": "node", "id": 9666274167, "lat": 18.2945855, "lon": 120.6409416, "tags": {"admin_level": "10", "designation": "barangay", "name": "Macupit", "place": "village"}}, {"type": "node", "id": 9666281373, "lat": 18.2871874, "lon": 120.6547469, "tags": {"admin_level": "10", "admin_type:PH": "barangay", "is_in:town": "Bacarra", "name": "Paninaan", "place": "village"}}, {"type": "node", "id": 9666314653, "lat": 18.2717381, "lon": 120.6284559, "tags": {"admin_level": "10", "designation": "barangay", "name": "Pulangi", "place": "village"}}, {"type": "node", "id": 9666356496, "lat": 18.2652432, "lon": 120.5855566, "tags": {"admin_level": "10", "designation": "barangay", "name": "Cabaruan", "place": "village"}}, {"type": "node", "id": 9666434965, "lat": 18.2663436, "lon": 120.6160507, "tags": {"admin_level": "10", "designation": "barangay", "name": "Libtong", "place": "village"}}, {"type": "node", "id": 9666568225, "lat": 18.2978579, "lon": 120.5935335, "tags": {"admin_level": "10", "designation": "barangay", "name": "Binsang", "place": "village"}}, {"type": "node", "id": 9666645108, "lat": 18.2567587, "lon": 120.6280804, "tags": {"admin_level": "10", "admin_type:PH": "barangay", "is_in:town": "Bacarra", "name": "Tambidao", "place": "village"}}, {"type": "node", "id": 9666696641, "lat": 18.2549808, "lon": 120.5601722, "tags": {"admin_level": "10", "alt_name": "Barangay No. 60-A", "designation": "barangay", "name": "Caaoacan", "place": "village"}}, {"type": "node", "id": 9668343771, "lat": 18.2347827, "lon": 120.5618083, "tags": {"admin_level": "10", "alt_name": "Barangay No. 61", "designation": "barangay", "name": "Cataban", "place": "village"}}, {"type": "node", "id": 9668447559, "lat": 18.2026288, "lon": 120.537124, "tags": {"admin_level": "10", "alt_name": "Barangay No. 33-B", "designation": "barangay", "name": "La Paz Proper", "place": "village"}}, {"type": "node", "id": 9668450929, "lat": 18.2053463, "lon": 120.5334762, "tags": {"admin_level": "10", "alt_name": "Barangay No. 32-B", "designation": "barangay", "name": "La Paz West", "place": "village"}}, {"type": "node", "id": 9668500479, "lat": 18.2103605, "lon": 120.5669421, "tags": {"admin_level": "10", "admin_type:PH": "barangay", "alt_name": "Barangay No. 30-A", "name": "Suyo", "place": "village"}}, {"type": "node", "id": 9668564863, "lat": 18.1953071, "lon": 120.5688411, "tags": {"admin_level": "10", "alt_name": "Barangay No. 45", "designation": "barangay", "name": "Tangid", "place": "village"}}, {"type": "node", "id": 9695868896, "lat": 18.2018708, "lon": 120.6327635, "tags": {"admin_level": "10", "admin_type:PH": "barangay", "alt_name": "Barangay 54-A", "name": "Lagui-Sail", "place": "village"}}, {"type": "node", "id": 9695991380, "lat": 18.2210511, "lon": 120.6697297, "tags": {"admin_level": "10", "name": "Lubnac", "place": "village"}}, {"type": "node", "id": 9721215454, "lat": 18.2368105, "lon": 120.6156349, "tags": {"admin_level": "10", "designation": "barangay", "is_in:town": "Bacarra", "name": "Buyon", "place": "village"}}, {"type": "node", "id": 9721275482, "lat": 18.2496571, "lon": 120.6545804, "tags": {"admin_level": "10", "admin_type:PH": "barangay", "is_in:town": "Vintar", "name": "Abkir", "place": "village"}}, {"type": "node", "id": 9721313029, "lat": 18.2434033, "lon": 120.675196, "tags": {"admin_level": "10", "admin_type:PH": "barangay", "is_in:town": "Vintar", "name": "Salsalamagui", "place": "village"}}, {"type": "node", "id": 9721313037, "lat": 18.2430874, "lon": 120.6642687, "tags": {"admin_level": "10", "admin_type:PH": "barangay", "alt_name": "Barangay 17", "is_in:town": "Vintar", "name": "Pedro F. Alviar", "place": "village"}}, {"type": "node", "id": 9764837047, "lat": 18.1948637, "lon": 120.5519351}, {"type": "node", "id": 9764837048, "lat": 18.1944331, "lon": 120.5518077}, {"type": "node", "id": 10839272685, "lat": 18.2064072, "lon": 120.7232356, "tags": {"admin_level": "10", "admin_type:PH": "barangay", "is_in:town": "Vintar", "name": "Mabanbanag", "place": "village"}}, {"type": "node", "id": 10839272686, "lat": 18.2112828, "lon": 120.7153126, "tags": {"admin_level": "10", "admin_type:PH": "barangay", "is_in:town": "Vintar", "name": "Namoroc", "place": "village"}}, {"type": "node", "id": 10839273073, "lat": 18.2251617, "lon": 120.7041871, "tags": {"admin_level": "10", "admin_type:PH": "barangay", "is_in:town": "Vintar", "name": "Ester", "place": "village"}}, {"type": "node", "id": 10839273797, "lat": 18.2143899, "lon": 120.7004092, "tags": {"admin_level": "11", "admin_type:PH": "sitio", "is_in:town": "Vintar", "is_in:village": "Bulbulala", "name": "Casalamagian", "place": "hamlet"}}, {"type": "node", "id": 10839273798, "lat": 18.214406, "lon": 120.7014632, "tags": {"admin_level": "10", "admin_type:PH": "barangay", "is_in:town": "Vintar", "name": "Bulbulala", "place": "village"}}, {"type": "node", "id": 10997138501, "lat": 18.4766428, "lon": 120.752905, "tags": {"admin_level": "11", "admin_type:PH": "sitio", "is_in:town": "Bangui", "is_in:village": "Payac", "name": "Paddagan", "place": "hamlet"}}, {"type": "node", "id": 10997138502, "lat": 18.4873424, "lon": 120.7202411, "tags": {"admin_level": "11", "admin_type:PH": "sitio", "is_in:town": "Bangui", "is_in:village": "Payac", "name": "Alao-ao", "place": "hamlet"}}, {"type": "node", "id": 10997138503, "lat": 18.4872203, "lon": 120.7239961, "tags": {"admin_level": "10", "admin_type:PH": "barangay", "is_in:town": "Bangui", "name": "Payac", "place": "village"}}, {"type": "node", "id": 10997175748, "lat": 18.4514228, "lon": 120.6461933, "tags": {"admin_level": "10", "admin_type:PH": "barangay", "is_in:town": "Burgos", "name": "Agaga", "place": "village"}}, {"type": "node", "id": 11054162405, "lat": 18.532121, "lon": 120.7578057, "tags": {"admin_level": "11", "admin_type:PH": "purok", "is_in:town": "Bangui", "is_in:village": "Abaca", "name": "Saranay", "place": "hamlet"}}, {"type": "node", "id": 11056417797, "lat": 18.2821269, "lon": 120.5754112, "tags": {"admin_level": "10", "admin_type:PH": "barangay", "is_in:town": "Bacarra", "name": "Natba", "place": "village"}}, {"type": "node", "id": 11056417798, "lat": 18.2757381, "lon": 120.582975, "tags": {"admin_level": "10", "admin_type:PH": "barangay", "is_in:town": "Bacarra", "name": "Pipias", "place": "village"}}, {"type": "node", "id": 11058042336, "lat": 18.2566136, "lon": 120.6577241, "tags": {"admin_level": "10", "admin_type:PH": "barangay", "is_in:town": "Vintar", "name": "Cabisuculan", "place": "village"}}, {"type": "node", "id": 11058042337, "lat": 18.2553196, "lon": 120.6629947, "tags": {"admin_level": "10", "admin_type:PH": "barangay", "is_in:town": "Vintar", "name": "Columbia", "place": "village"}}, {"type": "node", "id": 11092462392, "lat": 18.382359, "lon": 120.6942852, "tags": {"admin_level": "10", "admin_type:PH": "barangay", "is_in:town": "Pasuquin", "name": "Tadao", "place": "village"}}, {"type": "node", "id": 11092462393, "lat": 18.3617429, "lon": 120.6046343, "tags": {"name": "Cababaan", "place": "village"}}, {"type": "node", "id": 11092462394, "lat": 18.3361196, "lon": 120.6832169, "tags": {"admin_level": "10", "admin_type:PH": "barangay", "name": "Carusikis", "place": "village"}}, {"type": "node", "id": 11153642110, "lat": 18.5097975, "lon": 120.5909318, "tags": {"admin_level": "10", "admin_type:PH": "barangay", "is_in:town": "Burgos", "name": "Bayog", "place": "village"}}, {"type": "node", "id": 11153703997, "lat": 18.4338127, "lon": 120.5868548, "tags": {"admin_level": "10", "admin_type:PH": "barangay", "is_in:town": "Pasuquin", "name": "Dilavo", "place": "village"}}, {"type": "node", "id": 11225418981, "lat": 18.2975065, "lon": 120.7087988, "tags": {"admin_level": "10", "admin_type:PH": "barangay", "is_in:town": "Vintar", "name": "Alsem", "place": "village"}}, {"type": "node", "id": 11225418982, "lat": 18.2631801, "lon": 120.6806074, "tags": {"admin_level": "11", "admin_type:PH": "sitio", "is_in:town": "Vintar", "is_in:village": "Salsalamagui", "name": "Magabobo", "place": "hamlet"}}, {"type": "node", "id": 11801716870, "lat": 18.2927392, "lon": 120.6851953, "tags": {"admin_level": "10", "admin_type:PH": "barangay", "name": "Manarang", "place": "village"}}, {"type": "node", "id": 12118125261, "lat": 18.3157519, "lon": 120.6148705, "tags": {"admin_level": "10", "admin_type:PH": "barangay", "is_in:town": "Pasuquin", "name": "Batuli", "place": "village"}}, {"type": "node", "id": 12300922366, "lat": 18.3054848, "lon": 120.7887661, "tags": {"admin_level": "10", "admin_type:PH": "barangay", "name": "Canaam", "place": "village"}}, {"type": "node", "id": 12300922367, "lat": 18.3026862, "lon": 120.7187618, "tags": {"admin_level": "10", "admin_type:PH": "barangay", "name": "Dipilat", "place": "village"}}, {"type": "node", "id": 12300922368, "lat": 18.3263124, "lon": 120.73272, "tags": {"admin_level": "10", "admin_type:PH": "barangay", "name": "Tamdagan", "place": "village"}}, {"type": "node", "id": 12300922369, "lat": 18.335747, "lon": 120.7328689, "tags": {"admin_level": "10", "admin_type:PH": "barangay", "name": "Esperanza", "place": "village"}}, {"type": "node", "id": 12300922370, "lat": 18.3630536, "lon": 120.7584786, "tags": {"admin_level": "10", "admin_type:PH": "barangay", "name": "Cabangaran", "place": "village"}}, {"type": "node", "id": 12300922371, "lat": 18.3460912, "lon": 120.7417631, "tags": {"admin_level": "10", "admin_type:PH": "barangay", "name": "Dagupan", "place": "village"}}, {"type": "node", "id": 12561350548, "lat": 18.3985513, "lon": 120.7640737, "tags": {"admin_level": "10", "admin_type:PH": "barangay", "is_in:town": "Vintar", "name": "Isic Isic", "place": "village"}}, {"type": "node", "id": 12561350549, "lat": 18.3959705, "lon": 120.7527333, "tags": {"admin_level": "10", "admin_type:PH": "barangay", "is_in:town": "Vintar", "name": "Cabayo", "place": "village"}}, {"type": "node", "id": 12561412184, "lat": 18.3239636, "lon": 120.6817031, "tags": {"admin_level": "10", "admin_type:PH": "barangay", "is_in:town": "Pasuquin", "name": "Santa Matilde", "place": "village"}}, {"type": "node", "id": 12561424877, "lat": 18.3049169, "lon": 120.6713068, "tags": {"admin_level": "10", "admin_type:PH": "barangay", "is_in:town": "Pasuquin", "name": "Santa Catalina", "place": "village"}}, {"type": "node", "id": 12561613035, "lat": 18.269847, "lon": 120.6668919, "tags": {"admin_level": "10", "admin_type:PH": "barangay", "is_in:town": "Bacarra", "name": "Malampa", "place": "village"}}, {"type": "node", "id": 12561613036, "lat": 18.2668173, "lon": 120.6463382, "tags": {"admin_level": "10", "admin_type:PH": "barangay", "is_in:town": "Bacarra", "name": "Nambaran", "place": "village"}}, {"type": "way", "id": 527174111, "nodes": [5125615183, 5125615184, 5125615185, 5125615186, 5125615187, 5125615188, 5125615189, 5125615190, 5125615191, 5125615192, 5125615193, 5125615194, 9764837047, 9764837048, 5125615195, 5125615196, 5125615197, 5125615198, 5125615199, 5125615200, 5125615201, 5125615202, 5125615203, 5125615204, 5125615205, 5125615206, 5125615207, 5125615214, 5909797388], "tags": {"barrier": "wall", "height": "3"}}, {"type": "way", "id": 625962884, "nodes": [5909797388, 5125615208]}, {"type": "way", "id": 625962885, "nodes": [5125615208, 5125615209, 5125615210, 5125615179], "tags": {"barrier": "wall", "height": "3"}}, {"type": "way", "id": 625962886, "nodes": [5125615180, 5909797389, 5125615211, 5125615181, 5125615213, 5125615182, 5125615183]}, {"type": "way", "id": 625962887, "nodes": [5125615179, 5125615180]}, {"type": "relation", "id": 8704325, "members": [{"type": "way", "ref": 625962887, "role": "outer"}, {"type": "way", "ref": 625962886, "role": "outer"}, {"type": "way", "ref": 527174111, "role": "outer"}, {"type": "way", "ref": 625962884, "role": "outer"}, {"type": "way", "ref": 625962885, "role": "outer"}], "tags": {"landuse": "residential", "name": "Camella Homes Laoag", "place": "village", "place:PH": "subdivision", "previously": "way:527174111", "residential": "gated", "type": "multipolygon"}}]}