{"version": 0.6, "generator": "Overpass API 0.7.62.5 1bd436f1", "osm3s": {"timestamp_osm_base": "2025-05-24T18:00:30Z", "copyright": "The data included in this document is from www.openstreetmap.org. The data is made available under ODbL."}, "elements": [{"type": "node", "id": 198493501, "lat": 8.0522878, "lon": 123.6139434, "tags": {"admin_level": "6", "designation": "municipality", "ele": "100", "is_in:province": "Misamis Occidental", "name": "Bonifacio", "official_name": "Municipality of Bonifacio", "place": "town", "population": "32345", "population:date": "2015-08-01", "postal_code": "7215", "ref": "104203000", "source:population": "Philippine Statistics Authority", "start_date": "1942", "wikidata": "Q196076", "wikimedia_commons": "Category:Bonifacio, Misamis Occidental", "wikipedia": "en:Bonifacio, Misamis Occidental"}}, {"type": "node", "id": 198495227, "lat": 8.0054675, "lon": 123.4867943, "tags": {"admin_level": "6", "designation": "municipality", "name": "Ramon Magsaysay", "name:cbk": "Ramon Magsaysay", "name:ceb": "Ramon Magsaysay", "name:es": "Ram\u00f3n Magsaysay", "name:suc": "Ramon Magsaysay", "official_name:cbk": "Municipalidad de Ramon Magsaysay", "official_name:ceb": "Lungsod sa Ramon Magsaysay", "official_name:en": "Municipality of Ramon Magsaysay", "official_name:es": "Municipalidad de Ram\u00f3n Magsaysay", "official_name:suc": "Benwa Ramon Magsaysay", "place": "town", "population": "27280", "population:date": "2020-05-01", "postal_code": "7024", "wikidata": "Q132301", "wikimedia_commons": "Category:Ramon Magsaysay, Zamboanga del Sur", "wikipedia": "en:Ramon Magsaysay, Zamboanga del Sur"}}, {"type": "node", "id": 198500478, "lat": 8.0692761, "lon": 123.536314, "tags": {"admin_level": "6", "gns_classification": "ADM2", "gns_uni": "10235017", "is_in:province": "Zamboanga del Sur", "name": "Tambulig", "place": "town", "place:PH": "municipality", "population": "36160", "population:date": "2015-08-01", "postal_code": "7025", "source": "GNS", "source:population": "Philippine Statistics Authority", "wikidata": "Q132391", "wikimedia_commons": "Category:Tambulig", "wikipedia": "en:Tambulig"}}, {"type": "node", "id": 198506690, "lat": 8.2492223, "lon": 123.5673621, "tags": {"admin_level": "6", "gns_classification": "ADM2", "gns_uni": "10235024", "is_in:province": "Misamis Occidental", "name": "Don Victoriano Chiongbian", "place": "town", "place:PH": "municipality", "population": "10183", "population:date": "2015-08-01", "source": "GNS", "source:population": "Philippine Statistics Authority", "wikidata": "Q196145", "wikimedia_commons": "Category:Don Victoriano", "wikipedia": "en:Don Victoriano Chiongbian, Misamis Occidental"}}, {"type": "node", "id": 198522426, "lat": 8.0307675, "lon": 123.3171861, "tags": {"admin_level": "6", "designation": "municipality", "name": "Midsalip", "place": "town", "population": "33711", "population:date": "2020-05-01", "postal_code": "7021", "ref": "097318000", "source:population": "Philippine Statistics Authority", "start_date": "1964-09-09", "wikidata": "Q132262", "wikimedia_commons": "Category:Midsalip", "wikipedia": "en:Midsalip"}}, {"type": "node", "id": 198525710, "lat": 8.1544879, "lon": 123.3448435, "tags": {"admin_level": "6", "gns_classification": "ADM2", "gns_uni": "10249611", "is_in:province": "Zamboanga del Sur", "name": "Dumingag", "place": "town", "place:PH": "municipality", "population": "47485", "population:date": "2015-08-01", "source": "GNS", "source:population": "Philippine Statistics Authority", "wikidata": "Q132126", "wikimedia_commons": "Category:Dumingag", "wikipedia": "en:Dumingag"}}, {"type": "node", "id": 198526444, "lat": 8.0927689, "lon": 123.4849176, "tags": {"admin_level": "6", "admin_type:PH": "municipality", "gns_classification": "ADM2", "is_in:province": "Zamboanga del Sur", "name": "Molave", "place": "town", "population": "52006", "population:date": "2015-08-01", "ref": "097319000", "source": "GPS", "source:population": "Philippine Statistics Authority", "wikidata": "Q132271", "wikimedia_commons": "Category:Molave, Zamboanga del Sur", "wikipedia": "en:Molave, Zamboanga del Sur"}}, {"type": "node", "id": 2135987022, "lat": 8.1587409, "lon": 123.5194199, "tags": {"is_in": "Molave", "name": "Dontulan", "place": "village", "short_name": "Bgy. Dontulan"}}, {"type": "node", "id": 2142208347, "lat": 8.129548, "lon": 123.4378612, "tags": {"admin_level": "6", "gns_classification": "ADM2", "gns_uni": "10249610", "is_in:province": "Zamboanga del Sur", "name": "Mahayag", "place": "town", "place:PH": "municipality", "population": "46516", "population:date": "2015-08-01", "source": "GNS", "source:population": "Philippine Statistics Authority", "wikidata": "Q132230", "wikimedia_commons": "Category:Mahayag", "wikipedia": "en:Mahayag"}}, {"type": "node", "id": 2147382216, "lat": 8.0565775, "lon": 123.5548637, "tags": {"craft": "agricultural_engines", "name": "Pimentel", "place": "hamlet"}}, {"type": "node", "id": 2352397269, "lat": 8.2148124, "lon": 123.5436197, "tags": {"admin_level": "6", "designation": "municipality", "is_in:province": "Zamboanga del Sur", "name": "Josefina", "official_name": "Municipality of Josefina", "old_name": "Gumahan", "place": "town", "population": "12205", "population:date": "2020-05-01", "postal_code": "7027", "ref": "097337000", "start_date": "1977-11-11", "wikidata": "Q132155", "wikimedia_commons": "Category:Josefina, Zamboanga del Sur", "wikipedia": "en:Josefina, Zamboanga del Sur"}}, {"type": "node", "id": 2352403261, "lat": 8.1754141, "lon": 123.5266621, "tags": {"is_in": "Josefina", "name": "Nopulan", "place": "village", "short_name": "Bgy. Nopulan"}}, {"type": "node", "id": 2433061210, "lat": 8.2956667, "lon": 123.5082447, "tags": {"admin_level": "6", "admin_type:PH": "municipality", "gns_classification": "ADM2", "is_in:province": "Zamboanga del Norte", "name": "Sergio Osme\u00f1a Sr.", "place": "town", "population": "30220", "population:date": "2015-08-01", "ref": "097214000", "source:population": "Philippine Statistics Authority", "wikidata": "Q132591", "wikimedia_commons": "Category:Sergio Osme\u00f1a Sr., Zamboanga del Norte", "wikipedia": "en:Sergio Osme\u00f1a, Zamboanga del Norte"}}, {"type": "node", "id": 4635184277, "lat": 8.0412053, "lon": 123.3828885, "tags": {"admin_level": "6", "alt_name": "Don Mariano Marcos", "designation": "municipality", "name": "Sominot", "old_name": "Don Mariano Marcos", "place": "town", "population": "19061", "population:date": "2020-05-01", "postal_code": "7022", "ref": "097340000", "source:population": "Philippine Statistics Authority", "start_date": "1980-03-27", "wikidata": "Q132353", "wikimedia_commons": "Category:Sominot", "wikipedia": "en:Sominot"}}, {"type": "node", "id": 5757755003, "lat": 8.1775962, "lon": 123.2063062, "tags": {"is_in": "Siayan;Zamboanga del Sur;Philippines", "name": "Seriac", "place": "village"}}, {"type": "node", "id": 5824290435, "lat": 7.9888045, "lon": 123.4991061, "tags": {"admin_level": "10", "admin_type:PH": "barangay", "is_in:municipality": "Aurora", "name": "Monte Alegre", "old_ref": "097302037", "place": "village", "population": "1241", "population:2015": "1155", "population:date": "2020-05-01", "ref": "0907302037"}}, {"type": "node", "id": 5824290436, "lat": 7.9916466, "lon": 123.4829029, "tags": {"admin_level": "10", "admin_type:PH": "barangay", "is_in:municipality": "Ramon Magsaysay", "name": "Eastern Bobongan", "old_ref": "0973230091", "place": "village", "population": "933", "population:2015": "915", "population:date": "2020-05-01"}}, {"type": "node", "id": 6112289537, "lat": 7.977361, "lon": 123.6350181, "tags": {"admin_level": "10", "designation": "barangay", "is_in:town": "Aurora", "name": "Balas", "place": "village"}}, {"type": "node", "id": 6116429901, "lat": 8.0417177, "lon": 123.6344927, "tags": {"name": "Buracan", "place": "village"}}, {"type": "node", "id": 6116429903, "lat": 8.0612591, "lon": 123.6219989, "tags": {"name": "Pisa-an", "place": "village"}}, {"type": "node", "id": 6116430089, "lat": 8.0612894, "lon": 123.6094329, "tags": {"admin_level": "10", "designation": "barangay", "is_in:town": "Bonifacio", "name": "Poblacion", "place": "village", "postal_code": "7215"}}, {"type": "node", "id": 6116430096, "lat": 8.0629638, "lon": 123.5838288, "tags": {"name": "Rufino Lumapas", "place": "village"}}, {"type": "node", "id": 6116430097, "lat": 8.0494168, "lon": 123.6179267, "tags": {"admin_level": "10", "designation": "barangay", "is_in:town": "Bonifacio", "name": "Digson", "place": "village", "postal_code": "7215"}}, {"type": "node", "id": 6116430098, "lat": 8.0489234, "lon": 123.5859237, "tags": {"admin_level": "10", "designation": "barangay", "is_in:town": "Bonifacio", "name": "Tiaman", "place": "village", "postal_code": "7215"}}, {"type": "node", "id": 6116430099, "lat": 8.032289, "lon": 123.5813203, "tags": {"name": "Linconan", "place": "village"}}, {"type": "node", "id": 6116430104, "lat": 8.0344658, "lon": 123.5620072, "tags": {"admin_level": "10", "designation": "barangay", "is_in:town": "Bonifacio", "name": "Lower Usugan", "place": "village", "postal_code": "7215"}}, {"type": "node", "id": 6116430105, "lat": 8.0525384, "lon": 123.5654813, "tags": {"name": "Liloan", "place": "village"}}, {"type": "node", "id": 6116430106, "lat": 8.0599196, "lon": 123.5524742, "tags": {"name": "Fabian", "place": "village"}}, {"type": "node", "id": 6116430140, "lat": 8.0698769, "lon": 123.541042, "tags": {"name": "Calolot", "place": "village"}}, {"type": "node", "id": 6116430152, "lat": 8.0709315, "lon": 123.5376861, "tags": {"name": "Riverside", "place": "village"}}, {"type": "node", "id": 6116430171, "lat": 8.0626385, "lon": 123.5378462, "tags": {"name": "New Village", "place": "village"}}, {"type": "node", "id": 6116430172, "lat": 8.0568742, "lon": 123.5358289, "tags": {"name": "Tungawan", "place": "village"}}, {"type": "node", "id": 6116430173, "lat": 8.0975853, "lon": 123.5503938, "tags": {"name": "Upper Lodiong", "place": "village"}}, {"type": "node", "id": 6116430179, "lat": 8.0705969, "lon": 123.5013673, "tags": {"name": "Alang-Alang", "place": "village"}}, {"type": "node", "id": 6116430180, "lat": 8.0800509, "lon": 123.5209366, "tags": {"name": "Gabunon", "place": "village"}}, {"type": "node", "id": 6224462258, "lat": 7.9789723, "lon": 123.4355135, "tags": {"admin_level": "10", "is_in:town": "Tukuran", "name": "Laperian", "place": "village", "place:PH": "barangay"}}, {"type": "node", "id": 6224462265, "lat": 7.9863704, "lon": 123.4412322, "tags": {"name": "Upper Laperian", "place": "village"}}, {"type": "node", "id": 6224462271, "lat": 7.97437, "lon": 123.4658801, "tags": {"admin_level": "10", "admin_type:PH": "barangay", "is_in:municipality": "Ramon Magsaysay", "name": "Sapa Anding", "old_ref": "097323027", "place": "village", "population": "1258", "population:2015": "1312", "population:date": "2020-05-01", "ref": "0907323027"}}, {"type": "node", "id": 6224462440, "lat": 8.0236732, "lon": 123.4799056, "tags": {"admin_level": "10", "is_in:town": "Ramon Magsaysay", "name": "Paradise", "place": "village", "place:PH": "barangay"}}, {"type": "node", "id": 6224462471, "lat": 8.0417417, "lon": 123.4786836, "tags": {"admin_level": "10", "is_in:town": "Ramon Magsaysay", "name": "Esperanza", "place": "village", "place:PH": "barangay"}}, {"type": "node", "id": 6224462504, "lat": 8.0417353, "lon": 123.4840129, "tags": {"admin_level": "10", "is_in:town": "Ramon Magsaysay", "name": "Switch", "place": "village", "place:PH": "barangay"}}, {"type": "node", "id": 6224462591, "lat": 8.031162, "lon": 123.4888973, "tags": {"admin_level": "10", "is_in:town": "Ramon Magsaysay", "name": "Campo V", "place": "village", "place:PH": "barangay"}}, {"type": "node", "id": 6224462592, "lat": 8.0230712, "lon": 123.5002279, "tags": {"admin_level": "10", "admin_type:PH": "barangay", "alt_name": "Campo 4", "is_in:municipality": "Ramon Magsaysay", "name": "Campo IV", "official_name": "Barangay Campo IV", "old_ref": "097323005", "place": "village", "population": "1605", "population:2015": "1550", "population:date": "2020-05-01", "ref": "0907323005"}}, {"type": "node", "id": 6224462661, "lat": 8.0339005, "lon": 123.5116176, "tags": {"name": "Balugo", "place": "village"}}, {"type": "node", "id": 6224462662, "lat": 8.0119999, "lon": 123.5175765, "tags": {"name": "Pasingkalan", "place": "village"}}, {"type": "node", "id": 6224462663, "lat": 7.9938633, "lon": 123.541483, "tags": {"name": "Sapa Loboc", "place": "village"}}, {"type": "node", "id": 6224462703, "lat": 8.0059097, "lon": 123.5349898, "tags": {"name": "San Vicente", "place": "village"}}, {"type": "node", "id": 6224462721, "lat": 7.9833796, "lon": 123.5509526, "tags": {"name": "Campo Uno", "place": "village"}}, {"type": "node", "id": 6224462747, "lat": 7.969392, "lon": 123.5493083, "tags": {"name": "La Victoria", "place": "village"}}, {"type": "node", "id": 6224462898, "lat": 7.9843, "lon": 123.5657708, "tags": {"name": "Inasagan", "place": "village"}}, {"type": "node", "id": 6224462903, "lat": 7.9651679, "lon": 123.5623537, "tags": {"name": "Libertad", "place": "village"}}, {"type": "node", "id": 6224462904, "lat": 7.9742106, "lon": 123.5363477, "tags": {"admin_level": "10", "admin_type:PH": "barangay", "is_in:municipality": "Aurora", "name": "Commonwealth", "old_ref": "097302019", "place": "village", "population": "1036", "population:2015": "1006", "population:date": "2020-05-01"}}, {"type": "node", "id": 6224462929, "lat": 7.9776575, "lon": 123.5263643, "tags": {"admin_level": "10", "admin_type:PH": "barangay", "is_in:municipality": "Aurora", "name": "Kahayagan East", "old_ref": "097302024", "place": "village", "population": "1090", "population:2015": "1097", "population:date": "2020-05-01"}}, {"type": "node", "id": 6224462975, "lat": 7.9845617, "lon": 123.5134294, "tags": {"name": "Kahayagan West", "place": "village"}}, {"type": "node", "id": 6262990611, "lat": 8.2854078, "lon": 123.5066011, "tags": {"admin_level": "10", "admin_type:PH": "barangay", "name": "Poblacion Bajo", "old_ref": "097214024", "place": "village", "population": "1718", "population:2015": "1423", "population:date": "2020-05-01"}}, {"type": "node", "id": 6262990718, "lat": 8.2976048, "lon": 123.508037, "tags": {"admin_level": "10", "admin_type:PH": "barangay", "name": "Poblacion Alto", "old_ref": "097214023", "place": "village", "population": "2183", "population:2015": "1819", "population:date": "2020-05-01"}}, {"type": "node", "id": 6262990754, "lat": 8.2983012, "lon": 123.4815859, "tags": {"admin_level": "10", "admin_type:PH": "barangay", "is_in:municipality": "Sergio Osme\u00f1a Sr.", "name": "Biayon", "official_name": "Barangay Biayon", "old_ref": "097214004", "place": "village", "population": "1982", "population:2015": "1755", "population:date": "2020-05-01", "postal_code": "7108"}}, {"type": "node", "id": 6262990981, "lat": 8.3061294, "lon": 123.5045358, "tags": {"name": "Situbo", "place": "village"}}, {"type": "node", "id": 6262991055, "lat": 8.2701406, "lon": 123.5042844, "tags": {"name": "Venus", "place": "village"}}, {"type": "node", "id": 6262991122, "lat": 8.2402772, "lon": 123.4629947, "tags": {"name": "San Juan", "place": "village"}}, {"type": "node", "id": 6262991139, "lat": 8.2231874, "lon": 123.4924752, "tags": {"name": "Bag-ong Gutlang", "place": "village"}}, {"type": "node", "id": 6262991172, "lat": 8.2839492, "lon": 123.4742864, "tags": {"admin_level": "10", "admin_type:PH": "barangay", "name": "Liwanag", "place": "village", "source:name": "extrapolated from OSMaPaaralan, way/900645321"}}, {"type": "node", "id": 6262991414, "lat": 8.2765214, "lon": 123.4625759, "tags": {"admin_level": "10", "admin_type:PH": "barangay", "is_in:town": "Sergio Osme\u00f1a Sr", "name": "Danao", "place": "village"}}, {"type": "node", "id": 6262991420, "lat": 8.3483124, "lon": 123.4650532, "tags": {"name": "Sikitan", "place": "village"}}, {"type": "node", "id": 6262991483, "lat": 8.3287518, "lon": 123.4574569, "tags": {"name": "Wilben", "place": "village"}}, {"type": "node", "id": 6262991820, "lat": 8.2943983, "lon": 123.4312135, "tags": {"admin_level": "10", "admin_type:PH": "barangay", "is_in:municipality": "Sergio Osme\u00f1a Sr.", "name": "San Jose", "old_ref": "097214031", "place": "village", "population": "2522", "population:2015": "2195", "population:date": "2020-05-01", "postal_code": "7108"}}, {"type": "node", "id": 6285238483, "lat": 8.0984452, "lon": 123.3964956, "tags": {"admin_level": "10", "is_in:town": "Mahayag", "name": "Sicpao", "place": "village", "place:PH": "barangay"}}, {"type": "node", "id": 6285238484, "lat": 8.1055338, "lon": 123.4125362, "tags": {"admin_level": "10", "is_in:town": "Mahayag", "name": "San Jose", "place": "village", "place:PH": "barangay"}}, {"type": "node", "id": 6285812248, "lat": 8.0125508, "lon": 123.312569, "tags": {"admin_level": "10", "is_in:town": "Midsalip", "name": "Cumarom", "place": "village", "place:PH": "barangay"}}, {"type": "node", "id": 6285812469, "lat": 8.0224351, "lon": 123.3366099, "tags": {"admin_level": "10", "is_in:town": "Midsalip", "name": "Bibilop", "place": "village", "place:PH": "barangay"}}, {"type": "node", "id": 6505229385, "lat": 8.2981105, "lon": 123.6175607, "tags": {"admin_level": "10", "alt_name": "Centro", "designation": "barangay", "is_in:town": "Don Victoriano Chiongbian", "name": "Lake Duminagat", "place": "village", "postal_code": "7200", "ref": "104217003"}}, {"type": "node", "id": 6505229386, "lat": 8.3061621, "lon": 123.5996386, "tags": {"admin_level": "10", "designation": "barangay", "is_in:town": "Don Victoriano Chiongbian", "name": "Gandawan", "place": "village", "postal_code": "7200", "ref": "104217002"}}, {"type": "node", "id": 6505229454, "lat": 8.309056, "lon": 123.6046371, "tags": {"admin_level": "11", "is_in:town": "Don Victoriano Chiongbian", "is_in:village": "Gandawan", "name": "Pongol", "place": "hamlet", "place:PH": "sitio"}}, {"type": "node", "id": 7694085253, "lat": 8.0715785, "lon": 123.5326928, "tags": {"name": "Lower Lodiong", "place": "village"}}, {"type": "node", "id": 7694105806, "lat": 8.066655, "lon": 123.5352301, "tags": {"name": "Happy Valley", "place": "village"}}, {"type": "node", "id": 7697654768, "lat": 8.0746325, "lon": 123.4841394, "tags": {"name": "Rizal", "place": "village"}}, {"type": "node", "id": 7697707421, "lat": 8.0831198, "lon": 123.4706265, "tags": {"name": "Villasis", "place": "neighbourhood"}}, {"type": "node", "id": 7697714387, "lat": 8.0794339, "lon": 123.45824, "tags": {"name": "Miligan", "place": "village"}}, {"type": "node", "id": 7697720152, "lat": 8.2260166, "lon": 123.4928834, "tags": {"name": "Cape", "place": "neighbourhood", "source": "OSMaPaaralan-DepED data extrapolation"}}, {"type": "node", "id": 7697720153, "lat": 8.2240097, "lon": 123.4914994, "tags": {"name": "Simata", "place": "village", "source": "OSMaPaaralan-DepED data extrapolation"}}, {"type": "node", "id": 7697730250, "lat": 8.104608, "lon": 123.4567755, "tags": {"admin_level": "11", "is_in:town": "Mahayag", "is_in:village": "San Isidro", "name": "Antolihaw", "place": "neighbourhood", "source": "OSMaPaaralan/DepED data extrapolation"}}, {"type": "node", "id": 7697776898, "lat": 8.1757244, "lon": 123.4588408, "tags": {"admin_level": "11", "name": "Pilas", "place": "hamlet", "place:PH": "sitio", "source": "OSMaPaaralan/DepED data extrapolation"}}, {"type": "node", "id": 8044641940, "lat": 8.3955123, "lon": 123.3025424, "tags": {"admin_level": "10", "admin_type:PH": "barangay", "gns_classification": "ADM3", "is_in:municipality": "Katipunan", "name": "Sitog", "old_ref": "097203023", "place": "village", "population": "3187", "population:2015": "3191", "ref": "0907203023", "source:population": "Philippine Statistics Authority"}}, {"type": "node", "id": 8044641941, "lat": 8.3745541, "lon": 123.312533, "tags": {"admin_level": "11", "admin_type:PH": "sitio", "is_in:district": "Sitog", "is_in:town": "Katipunan", "name": "Seraboc", "place": "hamlet"}}, {"type": "node", "id": 8044641942, "lat": 8.3557103, "lon": 123.3005744, "tags": {"place": "village"}}, {"type": "node", "id": 8044641943, "lat": 8.3559744, "lon": 123.2887056, "tags": {"admin_level": "10", "admin_type:PH": "barangay", "gns_classification": "ADM3", "is_in:municipality": "Katipunan", "name": "Dabiak", "old_ref": "097203006", "place": "village", "population": "1492", "population:2015": "1660", "ref": "0907203006", "source:population": "Philippine Statistics Authority"}}, {"type": "node", "id": 8044641960, "lat": 8.334572, "lon": 123.2628727, "tags": {"admin_level": "10", "admin_type:PH": "barangay", "gns_classification": "ADM3", "is_in:municipality": "Katipunan", "name": "Carupay", "old_ref": "097203025", "place": "village", "population": "1268", "population:2015": "1509", "ref": "0907203025", "source:population": "Philippine Statistics Authority"}}, {"type": "node", "id": 8044641961, "lat": 8.2797105, "lon": 123.3132934, "tags": {"name": "Bagumbayan", "place": "village"}}, {"type": "node", "id": 8044641962, "lat": 8.2789567, "lon": 123.3291292, "tags": {"place": "hamlet"}}, {"type": "node", "id": 8044641963, "lat": 8.2665293, "lon": 123.3481622, "tags": {"place": "hamlet"}}, {"type": "node", "id": 8044641964, "lat": 8.2650694, "lon": 123.3571744, "tags": {"place": "hamlet"}}, {"type": "node", "id": 8044641965, "lat": 8.2708771, "lon": 123.3524108, "tags": {"place": "village"}}, {"type": "node", "id": 8044641966, "lat": 8.2486174, "lon": 123.3739757, "tags": {"name": "Kauswagan", "place": "village"}}, {"type": "node", "id": 8044641967, "lat": 8.3404051, "lon": 123.3213079, "tags": {"admin_level": "10", "admin_type:PH": "barangay", "gns_classification": "ADM3", "is_in:municipality": "Katipunan", "name": "Seroan", "old_ref": "097203020", "place": "village", "population": "969", "population:2015": "1260", "population:date": "2020-05-01", "ref": "0907203020", "source:population": "Philippine Statistics Authority"}}, {"type": "node", "id": 8044641968, "lat": 8.3080516, "lon": 123.3489829, "tags": {"place": "village"}}, {"type": "node", "id": 8044641969, "lat": 8.2868451, "lon": 123.3487254, "tags": {"name": "Marapong", "place": "village"}}, {"type": "node", "id": 8044641970, "lat": 8.2901097, "lon": 123.3169681, "tags": {"name": "Nazareth", "place": "village"}}, {"type": "node", "id": 8270841719, "lat": 8.0845883, "lon": 123.4944391, "tags": {"admin_level": "10", "admin_type:PH": "barangay", "is_in:town": "Molave", "name": "Blancia", "official_name": "Barangay Blancia", "place": "village", "population": "2843", "population:2015": "2728", "population:date": "2020-05-01", "postal_code": "7023", "ref": "097319006"}}, {"type": "node", "id": 8343426105, "lat": 8.3552008, "lon": 123.3368325, "tags": {"admin_level": "11", "admin_type:PH": "sitio", "is_in:municipality": "Katipunan", "is_in:village": "Seroan", "name": "Saluwagan", "place": "hamlet"}}, {"type": "node", "id": 8343426106, "lat": 8.3509681, "lon": 123.3488622, "tags": {"admin_level": "10", "admin_type:PH": "barangay", "alt_name": "Nueva Vista", "gns_classification": "ADM3", "is_in:municipality": "Sergio Osme\u00f1a, Sr.", "name": "Nuevavista", "not:name": "Seroan", "old_ref": "097214020", "place": "hamlet", "population": "390", "population:2015": "354", "ref": "0907214020", "source:population": "Philippine Statistics Authority"}}, {"type": "node", "id": 8343426107, "lat": 8.3708788, "lon": 123.3005798, "tags": {"admin_level": "11", "admin_type:PH": "sitio", "name": "New Dapitan", "place": "hamlet"}}, {"type": "node", "id": 8392622663, "lat": 8.2788454, "lon": 123.5670442, "tags": {"admin_level": "10", "admin_type:PH": "barangay", "ele": "970", "is_in:municipality": "Don Victoriano Chiongbian", "name": "Napangan", "old_ref": "104217008", "place": "village", "postal_code": "7216"}}, {"type": "node", "id": 8392635487, "lat": 8.2932841, "lon": 123.59308, "tags": {"admin_level": "10", "admin_type:PH": "barangay", "is_in:municipality": "Don Victoriano Chiongbian", "name": "Liboron", "old_ref": "104217006", "place": "village", "population": "170", "population:2015": "212", "population:date": "2020-05-01", "postal_code": "7200"}}, {"type": "node", "id": 8392671307, "lat": 8.402201, "lon": 123.5954578, "tags": {"admin_level": "10", "admin_type:PH": "barangay", "is_in:municipality": "Concepcion", "name": "Virayan", "old_ref": "104206019", "place": "village", "population": "435", "population:2015": "466", "population:date": "2020-05-01"}}, {"type": "node", "id": 8489793524, "lat": 7.9813485, "lon": 123.3632751, "tags": {"admin_level": "10", "is_in:town": "Sominot", "name": "Lumangoy", "place": "village", "place:PH": "barangay"}}, {"type": "node", "id": 8489793525, "lat": 7.9822278, "lon": 123.3986012, "tags": {"admin_level": "10", "alt_name": "Picturan", "is_in:town": "Sominot", "name": "Pictoran", "place": "village", "place:PH": "barangay"}}, {"type": "node", "id": 8489793526, "lat": 8.0071742, "lon": 123.3758157, "tags": {"admin_level": "10", "is_in:town": "Sominot", "name": "Santo Ni\u00f1o", "place": "village", "place:PH": "barangay"}}, {"type": "node", "id": 8489793527, "lat": 7.9654773, "lon": 123.3317953, "tags": {"admin_level": "10", "is_in:town": "Sominot", "name": "Datagan", "place": "village", "place:PH": "barangay"}}, {"type": "node", "id": 8489793528, "lat": 7.9626297, "lon": 123.3587489, "tags": {"admin_level": "10", "is_in:town": "Sominot", "name": "Sawa", "place": "village", "place:PH": "barangay"}}, {"type": "node", "id": 8489833847, "lat": 8.0321192, "lon": 123.3502006, "tags": {"admin_level": "10", "is_in:town": "Midsalip", "name": "Bacahan", "place": "village", "place:PH": "barangay"}}, {"type": "node", "id": 8489833848, "lat": 8.0256998, "lon": 123.3580595, "tags": {"admin_level": "10", "is_in:town": "Midsalip", "name": "Dumalinao", "place": "village", "place:PH": "barangay"}}, {"type": "node", "id": 8489833849, "lat": 8.0099099, "lon": 123.3548677, "tags": {"admin_level": "10", "is_in:town": "Midsalip", "name": "Buloron", "place": "village", "place:PH": "barangay"}}, {"type": "node", "id": 8489833850, "lat": 7.9932031, "lon": 123.347379, "tags": {"admin_level": "10", "alt_name": "Lumpunid", "is_in:town": "Midsalip", "name": "Lumponid", "place": "village", "place:PH": "barangay"}}, {"type": "node", "id": 8509177690, "lat": 8.2484835, "lon": 123.3963788, "tags": {"admin_level": "10", "admin_type:PH": "barangay", "is_in:municipality": "Sergio Osme\u00f1a Sr.", "name": "San Isidro", "old_ref": "097214030", "place": "village", "population": "1361", "population:2015": "1331", "population:date": "2020-05-01", "postal_code": "7108"}}, {"type": "node", "id": 8509333197, "lat": 8.2227568, "lon": 123.4139058, "tags": {"admin_level": "10", "designation": "barangay", "is_in:town": "Mahayag", "name": "Paraiso", "place": "village", "source:name": "extrapolated from OSMaPaaralan, way 890104431"}}, {"type": "node", "id": 8509333216, "lat": 8.2231204, "lon": 123.4125446, "tags": {"admin_level": "11", "admin_type:PH": "purok", "is_in:barangay": "Paraiso", "is_in:municipality": "Mahayag", "name": "Purok 1", "place": "neighbourhood"}}, {"type": "node", "id": 8692563543, "lat": 8.0324166, "lon": 123.389554, "tags": {"admin_level": "10", "is_in:town": "Sominot", "name": "San Miguel", "place": "village", "place:PH": "barangay"}}, {"type": "node", "id": 8692563544, "lat": 8.0241567, "lon": 123.4131682, "tags": {"admin_level": "10", "is_in:town": "Ramon Magsaysay", "name": "Sinaguing", "place": "village", "place:PH": "barangay"}}, {"type": "node", "id": 8692563545, "lat": 8.0385782, "lon": 123.3873063, "tags": {"admin_level": "11", "is_in:town": "Sominot", "name": "Tinago", "place": "neighbourhood"}}, {"type": "node", "id": 8692563546, "lat": 8.0375372, "lon": 123.3971661, "tags": {"admin_level": "10", "is_in:town": "Sominot", "name": "Eastern Poblacion", "place": "village", "place:PH": "barangay"}}, {"type": "node", "id": 8692563548, "lat": 8.0702879, "lon": 123.3826017, "tags": {"admin_level": "10", "is_in:town": "Sominot", "name": "Upper Sicpao", "place": "village", "place:PH": "barangay"}}, {"type": "node", "id": 8692563549, "lat": 8.0820576, "lon": 123.3769476, "tags": {"admin_level": "10", "is_in:town": "Sominot", "name": "Tungawan", "place": "village", "place:PH": "barangay"}}, {"type": "node", "id": 8692563551, "lat": 8.0488403, "lon": 123.2729021, "tags": {"admin_level": "10", "is_in:town": "Midsalip", "name": "Tuluan", "place": "village", "place:PH": "barangay"}}, {"type": "node", "id": 8692563552, "lat": 8.0830985, "lon": 123.2713652, "tags": {"admin_level": "10", "is_in:town": "Midsalip", "name": "Tulbong", "place": "village", "place:PH": "barangay"}}, {"type": "node", "id": 8692563553, "lat": 8.0238433, "lon": 123.267889, "tags": {"admin_level": "10", "is_in:town": "Midsalip", "name": "Sigapod", "place": "village", "place:PH": "barangay"}}, {"type": "node", "id": 8692563554, "lat": 8.0377815, "lon": 123.3062017, "tags": {"admin_level": "10", "is_in:town": "Midsalip", "name": "Timbaboy", "place": "village", "place:PH": "barangay"}}, {"type": "node", "id": 8692563555, "lat": 8.1487718, "lon": 123.2418957, "tags": {"admin_level": "10", "is_in:town": "Dumingag", "name": "Malagalad", "place": "village", "place:PH": "barangay"}}, {"type": "node", "id": 8692563556, "lat": 8.0942783, "lon": 123.20858, "tags": {"admin_level": "10", "is_in:town": "Midsalip", "name": "Pawan", "place": "village", "place:PH": "barangay"}}, {"type": "node", "id": 8692563557, "lat": 8.1996395, "lon": 123.2538772, "tags": {"admin_level": "10", "is_in:town": "Dumingag", "name": "Licabang", "place": "village", "place:PH": "barangay"}}, {"type": "node", "id": 8692563558, "lat": 8.0816141, "lon": 123.2326823, "tags": {"admin_level": "10", "is_in:town": "Midsalip", "name": "Licuro-an", "place": "village", "place:PH": "barangay"}}, {"type": "node", "id": 8692563559, "lat": 8.0191714, "lon": 123.2345009, "tags": {"admin_level": "10", "is_in:town": "Midsalip", "name": "Duelic", "place": "village", "place:PH": "barangay"}}, {"type": "node", "id": 8692563560, "lat": 8.0574184, "lon": 123.4008086, "tags": {"admin_level": "10", "is_in:town": "Sominot", "name": "Rizal", "place": "village", "place:PH": "barangay"}}, {"type": "node", "id": 8692563561, "lat": 8.0280715, "lon": 123.2017457, "tags": {"admin_level": "10", "is_in:town": "Midsalip", "name": "Dakayakan", "place": "village", "place:PH": "barangay"}}, {"type": "node", "id": 8692563562, "lat": 8.0878891, "lon": 123.2489848, "tags": {"admin_level": "10", "is_in:town": "Midsalip", "name": "New Katipunan", "place": "village", "place:PH": "barangay"}}, {"type": "node", "id": 8692563563, "lat": 8.0095009, "lon": 123.410545, "tags": {"admin_level": "10", "is_in:town": "Ramon Magsaysay", "name": "Dipalusan", "place": "village", "place:PH": "barangay"}}, {"type": "node", "id": 8692563565, "lat": 7.995583, "lon": 123.4043705, "tags": {"admin_level": "10", "is_in:town": "Sominot", "name": "Bag-ong Baroy", "place": "village", "place:PH": "barangay"}}, {"type": "node", "id": 8692563566, "lat": 8.0339915, "lon": 123.4543723, "tags": {"admin_level": "10", "is_in:town": "Ramon Magsaysay", "name": "Bambong Daku", "place": "village", "place:PH": "barangay"}}, {"type": "node", "id": 8692563567, "lat": 8.086094, "lon": 123.3064377, "tags": {"admin_level": "10", "is_in:town": "Midsalip", "name": "Kahayagan", "place": "village", "place:PH": "barangay"}}, {"type": "node", "id": 8692563570, "lat": 8.0192193, "lon": 123.4599754, "tags": {"admin_level": "10", "is_in:town": "Ramon Magsaysay", "name": "Bambong Diut", "place": "village", "place:PH": "barangay"}}, {"type": "node", "id": 8692563571, "lat": 8.0280078, "lon": 123.3749843, "tags": {"admin_level": "10", "is_in:town": "Sominot", "name": "Libertad", "place": "village", "place:PH": "barangay"}}, {"type": "node", "id": 8692563573, "lat": 8.0719556, "lon": 123.3001158, "tags": {"admin_level": "10", "admin_type:PH": "barangay", "is_in:municipality": "Midsalip", "name": "New Unidos", "old_ref": "097318019", "place": "village", "population": "481", "population:2015": "374", "population:date": "2020-05-01"}}, {"type": "node", "id": 8692563574, "lat": 8.1252879, "lon": 123.2976186, "tags": {"admin_level": "10", "alt_name": "Bagong Kauswagan", "is_in:town": "Dumingag", "name": "Bag-ong Kauswagan", "place": "village", "place:PH": "barangay"}}, {"type": "node", "id": 8692563575, "lat": 8.1115106, "lon": 123.4420824, "tags": {"admin_level": "10", "admin_type:PH": "barangay", "is_in:municipality": "Mahayag", "name": "Lourmah", "old_name": "Lower Mahayag", "place": "village", "postal_code": "7026"}}, {"type": "node", "id": 8692563576, "lat": 8.1801476, "lon": 123.2852322, "tags": {"admin_level": "10", "is_in:town": "Dumingag", "name": "Ditulan", "place": "village", "place:PH": "barangay"}}, {"type": "node", "id": 8692563577, "lat": 8.1113315, "lon": 123.2452083, "tags": {"admin_level": "10", "alt_name": "Bagong Silangan", "fixme": "confirm spelling", "is_in:town": "Dumingag", "name": "Bag-ong Silang", "place": "village", "place:PH": "barangay"}}, {"type": "node", "id": 8692563578, "lat": 8.0487806, "lon": 123.1966603, "tags": {"admin_level": "10", "admin_type:PH": "barangay", "is_in:town": "Midsalip", "name": "Pisompongan", "old_ref": "097318029", "place": "village", "place:PH": "barangay", "population": "1279", "ref": "0907318029", "source:population": "Philippine Statistics Authority"}}, {"type": "node", "id": 8692563579, "lat": 8.0219894, "lon": 123.3226919, "tags": {"admin_level": "10", "is_in:town": "Midsalip", "name": "Guma", "place": "village", "place:PH": "barangay"}}, {"type": "node", "id": 8692563580, "lat": 8.0877032, "lon": 123.3452627, "tags": {"admin_level": "10", "is_in:town": "Sominot", "name": "New Carmen", "place": "village", "place:PH": "barangay"}}, {"type": "node", "id": 8692563582, "lat": 8.1773732, "lon": 123.2632649, "tags": {"admin_level": "10", "is_in:town": "Dumingag", "name": "Guintananan", "place": "village", "place:PH": "barangay"}}, {"type": "node", "id": 8692563583, "lat": 7.9888735, "lon": 123.428733, "tags": {"admin_level": "10", "is_in:town": "Ramon Magsaysay", "name": "Santo Rosario", "place": "village", "place:PH": "barangay"}}, {"type": "node", "id": 8692563584, "lat": 8.0524814, "lon": 123.4491634, "tags": {"admin_level": "10", "admin_type:PH": "barangay", "is_in:municipality": "Ramon Magsaysay", "name": "Katipunan", "old_ref": "097323012", "place": "village", "population": "1596", "population:2015": "1543", "population:date": "2020-05-01"}}, {"type": "node", "id": 8692563585, "lat": 8.1065093, "lon": 123.2943249, "tags": {"admin_level": "10", "is_in:town": "Dumingag", "name": "San Vicente", "place": "village", "place:PH": "barangay"}}, {"type": "node", "id": 8692563586, "lat": 8.1148312, "lon": 123.3650118, "tags": {"admin_level": "10", "is_in:town": "Dumingag", "name": "Lower Timonan", "place": "village", "place:PH": "barangay"}}, {"type": "node", "id": 8692563587, "lat": 8.0595218, "lon": 123.247177, "tags": {"admin_level": "10", "is_in:town": "Midsalip", "name": "Guitalos", "place": "village", "place:PH": "barangay"}}, {"type": "node", "id": 8692563588, "lat": 8.1336732, "lon": 123.3344936, "tags": {"admin_level": "10", "is_in:town": "Dumingag", "name": "New Basak", "place": "village", "place:PH": "barangay"}}, {"type": "node", "id": 8692563589, "lat": 8.1412477, "lon": 123.4233088, "tags": {"admin_level": "10", "is_in:town": "Mahayag", "name": "Upper Salug Daku", "place": "village", "place:PH": "barangay"}}, {"type": "node", "id": 8692563590, "lat": 8.131904, "lon": 123.4284425, "tags": {"admin_level": "10", "is_in:town": "Mahayag", "name": "Lower Salug Daku", "place": "village", "place:PH": "barangay"}}, {"type": "node", "id": 8692563591, "lat": 8.0327645, "lon": 123.2511896, "tags": {"admin_level": "10", "is_in:town": "Midsalip", "name": "Matalang", "place": "village", "place:PH": "barangay"}}, {"type": "node", "id": 8692563592, "lat": 8.1029165, "lon": 123.3393672, "tags": {"admin_level": "10", "is_in:town": "Dumingag", "name": "Marangan", "place": "village", "place:PH": "barangay"}}, {"type": "node", "id": 8692563593, "lat": 8.1463543, "lon": 123.2174045, "tags": {"admin_level": "10", "is_in:town": "Dumingag", "name": "Danlugan", "place": "village", "place:PH": "barangay"}}, {"type": "node", "id": 8692563594, "lat": 7.9862306, "lon": 123.2878742, "tags": {"admin_level": "10", "alt_name": "Cabaloran", "is_in:town": "Midsalip", "name": "Cabaluran", "place": "village", "place:PH": "barangay"}}, {"type": "node", "id": 8692563595, "lat": 8.1407466, "lon": 123.3542347, "tags": {"admin_level": "10", "is_in:town": "Dumingag", "name": "Libertad", "place": "village", "place:PH": "barangay"}}, {"type": "node", "id": 8692563596, "lat": 8.1251618, "lon": 123.4861108, "tags": {"admin_level": "10", "admin_type:PH": "purok", "is_in:town": "Molave", "name": "Parasan", "place": "village"}}, {"type": "node", "id": 8692563597, "lat": 8.0159232, "lon": 123.4470445, "tags": {"admin_level": "10", "is_in:town": "Ramon Magsaysay", "name": "San Fernando", "place": "village", "place:PH": "barangay"}}, {"type": "node", "id": 8692563598, "lat": 8.117695, "lon": 123.3281636, "tags": {"admin_level": "10", "is_in:town": "Dumingag", "name": "Manlabay", "place": "village", "place:PH": "barangay"}}, {"type": "node", "id": 8692563599, "lat": 8.0455737, "lon": 123.3347189, "tags": {"admin_level": "10", "is_in:town": "Sominot", "name": "Bulanay", "place": "village", "place:PH": "barangay"}}, {"type": "node", "id": 8692563600, "lat": 8.120353, "lon": 123.3878535, "tags": {"admin_level": "10", "is_in:town": "Mahayag", "name": "Pugwan", "place": "village", "place:PH": "barangay"}}, {"type": "node", "id": 8692563601, "lat": 8.0509809, "lon": 123.2984716, "tags": {"admin_level": "10", "is_in:town": "Midsalip", "name": "Canipay Norte", "place": "village", "place:PH": "barangay"}}, {"type": "node", "id": 8692563602, "lat": 8.0911607, "lon": 123.3995855, "tags": {"admin_level": "11", "is_in:town": "Mahayag", "is_in:village": "Sicpao", "name": "Daniel C. Mantos", "place": "hamlet"}}, {"type": "node", "id": 8692563603, "lat": 8.0771394, "lon": 123.4122294, "tags": {"admin_level": "10", "is_in:town": "Mahayag", "name": "Kabuhi", "place": "village", "place:PH": "barangay"}}, {"type": "node", "id": 8692563604, "lat": 8.1181424, "lon": 123.4210244, "tags": {"admin_level": "10", "is_in:town": "Mahayag", "name": "Bag-ong Balamban", "place": "village", "place:PH": "barangay"}}, {"type": "node", "id": 8692563605, "lat": 8.0198461, "lon": 123.4219363, "tags": {"admin_level": "10", "is_in:town": "Ramon Magsaysay", "name": "Kauswagan", "place": "village", "place:PH": "barangay"}}, {"type": "node", "id": 8692563606, "lat": 8.0085288, "lon": 123.4841636, "tags": {"admin_level": "11", "admin_type:PH": "purok", "is_in:barangay": "Poblacion", "is_in:municipality": "Ramon Magsaysay", "name": "Purok 2", "place": "neighbourhood"}}, {"type": "node", "id": 8692563607, "lat": 8.0416803, "lon": 123.3929417, "tags": {"admin_level": "11", "is_in:town": "Sominot", "name": "Do\u00f1a Luz", "place": "neighbourhood"}}, {"type": "node", "id": 8692563609, "lat": 8.0141304, "lon": 123.2899663, "tags": {"admin_level": "10", "is_in:town": "Midsalip", "name": "Guinabot", "place": "village", "place:PH": "barangay"}}, {"type": "node", "id": 8692563610, "lat": 8.1534541, "lon": 123.3299661, "tags": {"admin_level": "10", "is_in:town": "Dumingag", "name": "Lower Landing", "place": "village", "place:PH": "barangay"}}, {"type": "node", "id": 8692563611, "lat": 8.034775, "lon": 123.2944375, "tags": {"admin_level": "10", "is_in:town": "Midsalip", "name": "Canipay Sur", "place": "village", "place:PH": "barangay"}}, {"type": "node", "id": 8692563612, "lat": 8.0888026, "lon": 123.2979405, "tags": {"admin_level": "10", "is_in:town": "Dumingag", "name": "San Juan", "place": "village", "place:PH": "barangay"}}, {"type": "node", "id": 8692563613, "lat": 8.1402448, "lon": 123.3662617, "tags": {"admin_level": "10", "is_in:town": "Dumingag", "name": "Maralag", "place": "village", "place:PH": "barangay"}}, {"type": "node", "id": 8692563615, "lat": 8.1358505, "lon": 123.240788, "tags": {"admin_level": "10", "is_in:town": "Dumingag", "name": "Macasing", "place": "village", "place:PH": "barangay"}}, {"type": "node", "id": 8692563616, "lat": 7.9943293, "lon": 123.462773, "tags": {"admin_level": "10", "admin_type:PH": "barangay", "is_in:municipality": "Ramon Magsaysay", "name": "Bobongan", "official_name": "Barangay Bobongan", "old_ref": "097323004", "place": "village", "population": "1302", "population:2015": "1284", "population:date": "2020-05-01"}}, {"type": "node", "id": 8692564017, "lat": 8.0473478, "lon": 123.4186935, "tags": {"admin_level": "10", "is_in:town": "Ramon Magsaysay", "name": "Mabini", "place": "village", "place:PH": "barangay"}}, {"type": "node", "id": 8692564018, "lat": 8.0706916, "lon": 123.2716226, "tags": {"admin_level": "10", "is_in:town": "Midsalip", "name": "Golictop", "place": "village", "place:PH": "barangay"}}, {"type": "node", "id": 8692564019, "lat": 8.0245232, "lon": 123.392424, "tags": {"admin_level": "11", "is_in:town": "Sominot", "name": "Irene", "place": "hamlet"}}, {"type": "node", "id": 8692564021, "lat": 8.1236097, "lon": 123.2215673, "tags": {"admin_level": "10", "alt_name": "Datu Totocan", "is_in:town": "Dumingag", "name": "Datu Tutukan", "place": "village", "place:PH": "barangay"}}, {"type": "node", "id": 8692564022, "lat": 8.0826617, "lon": 123.398809, "tags": {"admin_level": "10", "is_in:town": "Sominot", "name": "Lantawan", "place": "village", "place:PH": "barangay"}}, {"type": "node", "id": 8692564024, "lat": 8.0850477, "lon": 123.4036893, "tags": {"admin_level": "10", "is_in:town": "Sominot", "name": "New Oroquieta", "place": "village", "place:PH": "barangay"}}, {"type": "node", "id": 8692564025, "lat": 8.0720406, "lon": 123.3162814, "tags": {"admin_level": "10", "admin_type:PH": "barangay", "is_in:municipality": "Midsalip", "name": "Palili", "old_ref": "097318020", "place": "village", "population": "1254", "population:2015": "1105", "population:date": "2020-05-01", "ref": "0907318020"}}, {"type": "node", "id": 8692564026, "lat": 8.1137027, "lon": 123.2289621, "tags": {"admin_level": "10", "is_in:town": "Dumingag", "name": "Dulian", "place": "village", "place:PH": "barangay"}}, {"type": "node", "id": 8692564027, "lat": 8.0882715, "lon": 123.4400439, "tags": {"admin_level": "10", "is_in:town": "Mahayag", "name": "Upper Santo Ni\u00f1o", "place": "village", "place:PH": "barangay"}}, {"type": "node", "id": 8692564028, "lat": 8.1490254, "lon": 123.2908702, "tags": {"admin_level": "10", "is_in:town": "Dumingag", "name": "La Fortuna", "place": "village", "place:PH": "barangay"}}, {"type": "node", "id": 8692564029, "lat": 8.0958025, "lon": 123.2897222, "tags": {"admin_level": "10", "alt_name": "Calumanggi", "is_in:town": "Dumingag", "name": "Calumangi", "place": "village", "place:PH": "barangay"}}, {"type": "node", "id": 8692564030, "lat": 8.0453612, "lon": 123.3610636, "tags": {"admin_level": "10", "is_in:town": "Sominot", "name": "Barubuhan", "place": "village", "place:PH": "barangay"}}, {"type": "node", "id": 8692564031, "lat": 8.2130885, "lon": 123.2333851, "tags": {"admin_level": "10", "is_in:town": "Dumingag", "name": "Dulop", "place": "village", "place:PH": "barangay"}}, {"type": "node", "id": 8692564032, "lat": 8.1321411, "lon": 123.2832098, "tags": {"admin_level": "10", "is_in:town": "Dumingag", "name": "Bag-ong Valencia", "place": "village", "place:PH": "barangay"}}, {"type": "node", "id": 8692564033, "lat": 8.1364983, "lon": 123.3129448, "tags": {"admin_level": "10", "is_in:town": "Dumingag", "name": "Bucayan", "place": "village", "place:PH": "barangay"}}, {"type": "node", "id": 8692564034, "lat": 8.1689835, "lon": 123.2302576, "tags": {"admin_level": "10", "is_in:town": "Dumingag", "name": "Canibongan", "place": "village", "place:PH": "barangay"}}, {"type": "node", "id": 8692564036, "lat": 8.0001728, "lon": 123.4417713, "tags": {"admin_level": "10", "is_in:town": "Ramon Magsaysay", "name": "Gapasan", "place": "village", "place:PH": "barangay"}}, {"type": "node", "id": 8692564037, "lat": 8.0612532, "lon": 123.4302378, "tags": {"admin_level": "10", "admin_type:PH": "barangay", "name": "Magsaysay", "old_ref": "097323016", "place": "village", "population": "976", "population:2015": "954", "population:date": "2020-05-01"}}, {"type": "node", "id": 8692564038, "lat": 8.076996, "lon": 123.2848298, "tags": {"admin_level": "10", "is_in:town": "Midsalip", "name": "Ecuan", "place": "village", "place:PH": "barangay"}}, {"type": "node", "id": 8692564039, "lat": 8.1018092, "lon": 123.2626533, "tags": {"admin_level": "10", "is_in:town": "Dumingag", "name": "Gumpingan", "place": "village", "place:PH": "barangay"}}, {"type": "node", "id": 8889650835, "lat": 8.0074871, "lon": 123.2759095, "tags": {"admin_level": "11", "name": "Sapa Butong", "place": "hamlet"}}, {"type": "node", "id": 8889669123, "lat": 8.1990058, "lon": 123.2300108, "tags": {"admin_level": "11", "alt_name": "Mate", "name": "Mati", "place": "village"}}, {"type": "node", "id": 8927910230, "lat": 8.3439729, "lon": 123.2743178, "tags": {"designation": "sitio", "is_in:quarter": "Dabiak", "is_in:town": "Katipunan", "name": "Banbanan", "place": "hamlet"}}, {"type": "node", "id": 8928018805, "lat": 8.2594174, "lon": 123.4437955, "tags": {"designation": "barangay", "is_in:town": "Sergio Osme\u00f1a Sr.", "name": "Dampalan", "place": "village", "ref": "097214006"}}, {"type": "node", "id": 8968855989, "lat": 8.0053668, "lon": 123.5308374, "tags": {"name": "Kauswagan", "place": "village"}}, {"type": "node", "id": 8968855990, "lat": 7.9979322, "lon": 123.5612535, "tags": {"name": "Sagrada Familla", "place": "village"}}, {"type": "node", "id": 8968855991, "lat": 8.1076215, "lon": 123.5453752, "tags": {"name": "Tuluan", "place": "village"}}, {"type": "node", "id": 8968855992, "lat": 8.100372, "lon": 123.5722557, "tags": {"name": "Upper Usugan", "place": "village"}}, {"type": "node", "id": 8968855993, "lat": 8.0891063, "lon": 123.5699136, "tags": {"admin_level": "10", "admin_type:PH": "barangay", "is_in:municipality": "Bonifacio", "name": "Tangab", "old_ref": "104203028", "place": "village", "population": "455", "population:2015": "419", "population:date": "2020-05-01"}}, {"type": "node", "id": 8968855994, "lat": 8.108955, "lon": 123.5749513, "tags": {"name": "Sibuyon", "place": "village"}}, {"type": "node", "id": 8968855995, "lat": 8.1136019, "lon": 123.5693864, "tags": {"name": "Lodiong", "place": "village"}}, {"type": "node", "id": 8968855996, "lat": 8.134997, "lon": 123.5686383, "tags": {"name": "Bag-ong Anonang", "place": "village"}}, {"type": "node", "id": 8968855997, "lat": 8.1424666, "lon": 123.5889657, "tags": {"name": "Kanao Kanao", "place": "village"}}, {"type": "node", "id": 8968855998, "lat": 8.1236637, "lon": 123.5901203, "tags": {"admin_level": "10", "admin_type:PH": "barangay", "name": "Dullan", "old_ref": "104203011", "place": "village", "population": "724", "population:2015": "642", "population:date": "2020-05-01"}}, {"type": "node", "id": 8968855999, "lat": 8.1077418, "lon": 123.5995847, "tags": {"name": "Mapurog", "place": "village"}}, {"type": "node", "id": 8973697494, "lat": 8.0857556, "lon": 123.5998869, "tags": {"name": "Tusik", "place": "village"}}, {"type": "node", "id": 8973697495, "lat": 8.0995217, "lon": 123.6123753, "tags": {"name": "Buenavista", "place": "village"}}, {"type": "node", "id": 8973697496, "lat": 8.0944683, "lon": 123.6294127, "tags": {"admin_level": "10", "admin_type:PH": "barangay", "is_in:municipality": "Bonifacio", "name": "Montol", "old_ref": "104203020", "place": "village", "population": "753", "population:2015": "678", "population:date": "2020-05-01"}}, {"type": "node", "id": 8973697497, "lat": 8.0806144, "lon": 123.6157227, "tags": {"name": "Remedios", "place": "village"}}, {"type": "node", "id": 8973697498, "lat": 8.0711179, "lon": 123.6252928, "tags": {"name": "Dimalco", "place": "village"}}, {"type": "node", "id": 8973697499, "lat": 8.0667839, "lon": 123.5684085, "tags": {"name": "Calolot", "place": "village"}}, {"type": "node", "id": 8973697500, "lat": 8.0905017, "lon": 123.6417488, "tags": {"admin_level": "10", "admin_type:PH": "barangay", "name": "Simasay", "old_ref": "104215043", "place": "village", "population": "917", "population:2015": "842", "population:date": "2020-05-01"}}, {"type": "node", "id": 8973697501, "lat": 8.1115115, "lon": 123.636666, "tags": {"name": "Matugnao", "place": "village"}}, {"type": "node", "id": 8973728446, "lat": 8.0514798, "lon": 123.6103155, "tags": {"admin_level": "10", "designation": "barangay", "is_in:town": "Bonifacio", "name": "Demetrio Fernan", "place": "village", "postal_code": "7215"}}, {"type": "node", "id": 8973728447, "lat": 8.0467346, "lon": 123.5933435, "tags": {"admin_level": "10", "designation": "barangay", "is_in:town": "Bonifacio", "name": "Bolinsong", "place": "village", "postal_code": "7215"}}, {"type": "node", "id": 8984817964, "lat": 8.0905882, "lon": 123.5584193, "tags": {"admin_level": "10", "admin_type:PH": "barangay", "is_in:municipality": "Tambulig", "name": "Limamawan", "old_ref": "097328016", "place": "village", "population": "773", "population:2015": "710", "population:date": "2020-05-01"}}, {"type": "node", "id": 8984817965, "lat": 8.1081813, "lon": 123.5289719, "tags": {"name": "Libato", "place": "village"}}, {"type": "node", "id": 8984817966, "lat": 8.1239859, "lon": 123.5506871, "tags": {"name": "Bag-ong Tabogon", "place": "village"}}, {"type": "node", "id": 8984817967, "lat": 8.1565938, "lon": 123.5346129, "tags": {"name": "Maya-Maya", "place": "village"}}, {"type": "node", "id": 8984817968, "lat": 8.140673, "lon": 123.5249021, "tags": {"name": "Bag-ong Kauswagan", "place": "village"}}, {"type": "node", "id": 8984817969, "lat": 8.1371382, "lon": 123.5395865, "tags": {"name": "Upper Liason", "place": "village"}}, {"type": "node", "id": 8984817970, "lat": 8.0876086, "lon": 123.5050308, "tags": {"name": "Sudlon", "place": "village"}}, {"type": "node", "id": 8984817974, "lat": 8.1076414, "lon": 123.4919417, "tags": {"admin_level": "10", "admin_type:PH": "barangay", "is_in:municipality": "Molave", "name": "Bogo Capalaran", "official_name": "Barangay Bogo Capalaran", "old_ref": "097319007", "place": "village", "population": "2609", "population:2015": "2236", "population:date": "2020-05-01"}}, {"type": "node", "id": 8984817975, "lat": 8.099314, "lon": 123.4740031, "tags": {"admin_level": "10", "designation": "barangay", "is_in:town": "Molave", "name": "Culo", "place": "village", "postal_code": "7023"}}, {"type": "node", "id": 8984817976, "lat": 8.1024155, "lon": 123.5090086, "tags": {"admin_level": "10", "admin_type:PH": "barangay", "is_in:town": "Molave", "name": "Dalaon", "old_ref": "097319008", "place": "village", "population": "2018", "ref": "0907319008", "source:name": "extrapolated from OSMaPaaralan, way/890142113", "source:population": "Philippine Statistics Authority"}}, {"type": "node", "id": 8984817977, "lat": 8.1067492, "lon": 123.4773075, "tags": {"name": "Mabuhay", "place": "village"}}, {"type": "node", "id": 8984817978, "lat": 8.1044337, "lon": 123.4544551, "tags": {"name": "San Isidro", "place": "village"}}, {"type": "node", "id": 8984817979, "lat": 8.1332429, "lon": 123.4803772, "tags": {"name": "Diwan", "place": "village"}}, {"type": "node", "id": 8984817980, "lat": 8.1346555, "lon": 123.4633935, "tags": {"name": "Tuboran", "place": "village"}}, {"type": "node", "id": 8984817981, "lat": 8.1576926, "lon": 123.4221764, "tags": {"name": "Tulan", "place": "village"}}, {"type": "node", "id": 8984817982, "lat": 8.1504814, "lon": 123.41325, "tags": {"name": "Kaangayan", "place": "village"}}, {"type": "node", "id": 8984817983, "lat": 8.1562058, "lon": 123.390065, "tags": {"name": "Boniao", "place": "village"}}, {"type": "node", "id": 8984817984, "lat": 8.1579475, "lon": 123.3759566, "tags": {"name": "Manguiles", "place": "village"}}, {"type": "node", "id": 8984817985, "lat": 8.1592538, "lon": 123.3684679, "tags": {"name": "Guitran", "place": "village"}}, {"type": "node", "id": 8984817986, "lat": 8.150577, "lon": 123.3595522, "tags": {"name": "Caridad", "place": "village"}}, {"type": "node", "id": 8984817987, "lat": 8.1198933, "lon": 123.2667692, "tags": {"name": "Senote", "place": "village"}}, {"type": "node", "id": 8984817988, "lat": 8.0424108, "lon": 123.3795078, "tags": {"name": "Poblacion", "place": "village"}}, {"type": "node", "id": 8984817989, "lat": 8.1038953, "lon": 123.4318223, "tags": {"name": "Tumapic", "place": "village"}}, {"type": "node", "id": 8984817990, "lat": 8.0644349, "lon": 123.488415, "tags": {"name": "Dipolo", "place": "village"}}, {"type": "node", "id": 8984817991, "lat": 8.0511341, "lon": 123.5163539, "tags": {"name": "Upper Tiparak", "place": "village"}}, {"type": "node", "id": 8984817992, "lat": 8.0458137, "lon": 123.5236745, "tags": {"name": "Lower Tiparak", "place": "village"}}, {"type": "node", "id": 8984817993, "lat": 8.0350649, "lon": 123.5579524, "tags": {"admin_level": "10", "alt_name": "Lower Usogan", "designation": "barangay", "is_in:town": "Tambulig", "name": "Lower Usugan", "place": "village", "postal_code": "7025"}}, {"type": "node", "id": 8984817994, "lat": 8.030776, "lon": 123.5398882, "tags": {"name": "Kapalaran", "place": "village"}}, {"type": "node", "id": 8984817995, "lat": 8.0123697, "lon": 123.6272588, "tags": {"name": "Sumalig", "place": "village"}}, {"type": "node", "id": 8984817997, "lat": 8.0026949, "lon": 123.6032768, "tags": {"name": "Angeles", "name:es": "\u00c1ngeles", "place": "village"}}, {"type": "node", "id": 8984817998, "lat": 7.9725544, "lon": 123.4914723, "tags": {"admin_level": "10", "admin_type:PH": "barangay", "is_in:municipality": "Aurora", "name": "Montela", "old_ref": "097302038", "place": "village", "population": "898", "population:2015": "734", "population:date": "2020-05-01"}}, {"type": "node", "id": 8984818003, "lat": 7.9611099, "lon": 123.4765845, "tags": {"is_in:town": "Ramon Magsaysay", "name": "Lower Sambulawan", "place": "village", "source:name": "extrapolated from way:894450896"}}, {"type": "node", "id": 9098352759, "lat": 8.3849189, "lon": 123.3555785, "tags": {"admin_level": "11", "alt_name": "Sitio Virginia", "designation": "sitio", "is_in:city": "Dipolog", "is_in:village": "Diwan", "name": "Virginia", "place": "hamlet", "postal_code": "7100"}}, {"type": "node", "id": 9098590249, "lat": 8.3899447, "lon": 123.4255761, "tags": {"admin_level": "10", "designation": "barangay", "is_in:town": "Polanco", "name": "Macleodes", "place": "village", "postal_code": "7106"}}, {"type": "node", "id": 9098590264, "lat": 8.4010237, "lon": 123.3942925, "tags": {"fixme": "name", "place": "neighbourhood"}}, {"type": "node", "id": 9098590265, "lat": 8.3894156, "lon": 123.4065574, "tags": {"admin_level": "10", "admin_type:PH": "barangay", "is_in:municipality": "Polanco", "name": "Milad", "old_ref": "097210017", "place": "village", "population": "1129", "population:2015": "851", "population:date": "2020-05-01", "postal_code": "7106"}}, {"type": "node", "id": 9112711737, "lat": 8.3946949, "lon": 123.5029192, "tags": {"admin_level": "10", "admin_type:PH": "barangay", "is_in:town": "Mutia", "name": "Tinglan", "place": "village", "source:name": "extrapolated from OSMaPaaralan, way/900207534"}}, {"type": "node", "id": 9155672717, "lat": 8.3058222, "lon": 123.5813503, "tags": {"admin_level": "10", "admin_type:PH": "barangay", "is_in:municipality": "Don Victoriano Chiongbian", "name": "Nueva Vista", "old_name": "Mansawan", "old_ref": "104217009", "place": "village", "population": "1002", "population:2015": "1465", "population:date": "2020-05-01", "postal_code": "7200"}}, {"type": "node", "id": 9155672718, "lat": 8.2505981, "lon": 123.5677183, "tags": {"admin_level": "10", "designation": "barangay", "is_in:town": "Don Victoriano Chiongbian", "name": "Lalud", "place": "village", "postal_code": "7200", "ref": "104217004"}}, {"type": "node", "id": 9155672719, "lat": 8.2388541, "lon": 123.5707534, "tags": {"admin_level": "10", "designation": "barangay", "is_in:town": "Don Victoriano Chiongbian", "name": "Tuno", "place": "village", "postal_code": "7200", "ref": "104217011"}}, {"type": "node", "id": 9155672720, "lat": 8.224574, "lon": 123.5609254, "tags": {"admin_level": "10", "admin_type:PH": "barangay", "is_in:municipality": "Don Victoriano Chiongbian", "name": "Lampasan", "old_ref": "104217005", "place": "village", "population": "1117", "population:2015": "1085", "population:date": "2020-05-01", "postal_code": "7200"}}, {"type": "node", "id": 9155672721, "lat": 8.2085661, "lon": 123.5499142, "tags": {"admin_level": "10", "admin_type:PH": "barangay", "is_in:municipality": "Don Victoriano Chiongbian", "name": "Bagong Clarin", "official_name": "Barangay Bagong Clarin", "old_ref": "104217001", "place": "village", "population": "744", "population:2015": "694", "population:date": "2020-05-01", "postal_code": "7200"}}, {"type": "node", "id": 9155672722, "lat": 8.1743657, "lon": 123.5622612, "tags": {"admin_level": "10", "admin_type:PH": "barangay", "is_in:town": "Don Victoriano Chiongbian", "name": "Petianan", "old_ref": "104217010", "place": "village", "population": "864", "population:2015": "1117", "population:date": "2020-05-01", "postal_code": "7200", "ref": "1004217010", "source:population": "Philippine Statistics Authority"}}, {"type": "node", "id": 9155672723, "lat": 8.1537659, "lon": 123.563719, "tags": {"admin_level": "10", "designation": "barangay", "is_in:town": "Don Victoriano Chiongbian", "name": "Maramara", "place": "village", "postal_code": "7200", "ref": "104217007"}}, {"type": "node", "id": 9177080309, "lat": 8.2091449, "lon": 123.2108653, "tags": {"admin_level": "10", "designation": "barangay", "is_in:town": "Siayan", "name": "Mangilay", "place": "village"}}, {"type": "node", "id": 9248714679, "lat": 8.2804706, "lon": 123.5275836, "tags": {"admin_level": "10", "designation": "barangay", "is_in:town": "Sergio Osmena Sr.", "name": "Tinindugan", "place": "village", "postal_code": "7108"}}, {"type": "node", "id": 9248714707, "lat": 8.2899804, "lon": 123.5355416, "tags": {"admin_level": "10", "designation": "barangay", "is_in:town": "Sergio Osmena Sr.", "name": "Buenavista", "place": "village", "postal_code": "7108"}}, {"type": "node", "id": 9248714720, "lat": 8.2863259, "lon": 123.5521209, "tags": {"admin_level": "10", "designation": "barangay", "is_in:town": "Sergio Osmena Sr.", "name": "Don Eleno", "place": "village", "postal_code": "7108"}}, {"type": "node", "id": 9248714721, "lat": 8.2762745, "lon": 123.5430509, "tags": {"admin_level": "10", "admin_type:PH": "barangay", "is_in:municipality": "Sergio Osme\u00f1a Sr.", "name": "Bagong Baguio", "official_name": "Barangay Bagong Baguio", "old_ref": "097214002", "place": "village", "population": "861", "population:2015": "925", "population:date": "2020-05-01", "postal_code": "7108"}}, {"type": "node", "id": 9248787709, "lat": 8.2090407, "lon": 123.5408344, "tags": {"admin_level": "10", "designation": "barangay", "is_in:town": "Josefina", "name": "Leonardo", "place": "village", "postal_code": "7027", "ref": "097337005"}}, {"type": "node", "id": 9248787710, "lat": 8.226554, "lon": 123.5337591, "tags": {"admin_level": "10", "designation": "barangay", "is_in:town": "Josefina", "name": "Mansanas", "place": "village", "postal_code": "7027", "ref": "097337008"}}, {"type": "node", "id": 9248787711, "lat": 8.2172123, "lon": 123.5482023, "tags": {"admin_level": "10", "admin_type:PH": "barangay", "designation": "barangay", "is_in:town": "Josefina", "name": "Upper Bagong Tudela", "old_ref": "097337004", "place": "village", "population": "1725", "postal_code": "7027", "ref": "0907337004", "source:population": "Philippine Statistics Authority"}}, {"type": "node", "id": 9248787712, "lat": 8.2153752, "lon": 123.54289, "tags": {"admin_level": "10", "designation": "barangay", "is_in:town": "Josefina", "name": "Gumahan", "place": "village", "postal_code": "7027", "ref": "097337014"}}, {"type": "node", "id": 9306614917, "lat": 8.1234134, "lon": 123.6193997, "tags": {"admin_level": "11", "admin_type:PH": "sitio", "is_in:town": "Bonifacio", "name": "Carangan", "place": "hamlet"}}, {"type": "node", "id": 9339489701, "lat": 7.9612924, "lon": 123.5213867, "tags": {"admin_level": "10", "admin_type:PH": "barangay", "name": "Bagong Mandaue", "official_name": "Barangay Bagong Mandaue", "old_ref": "097302005", "place": "village", "population": "458", "population:2015": "414", "population:date": "2020-05-01"}}, {"type": "node", "id": 9339653243, "lat": 7.9622048, "lon": 123.5314182, "tags": {"admin_level": "10", "admin_type:PH": "barangay", "is_in:municipality": "Aurora", "name": "Panaghiusa", "old_ref": "097302041", "place": "village", "population": "533", "population:2015": "473", "population:date": "2020-05-01"}}, {"type": "node", "id": 9342454760, "lat": 8.1493493, "lon": 123.5103352, "tags": {"admin_level": "10", "admin_type:PH": "barangay", "is_in:municipality": "Molave", "name": "Dontulan", "old_ref": "097319010", "place": "village", "population": "645", "population:2015": "581", "population:date": "2020-05-01"}}, {"type": "node", "id": 9342454761, "lat": 8.1432292, "lon": 123.5006994, "tags": {"fixme": "name", "place": "neighbourhood"}}, {"type": "node", "id": 9342454793, "lat": 8.1457397, "lon": 123.5072789, "tags": {"admin_level": "11", "admin_type:PH": "purok", "is_in:barangay": "Dontulan", "is_in:municipality": "Molave", "name": "Mapailubon", "place": "neighbourhood"}}, {"type": "node", "id": 9342460219, "lat": 8.1784166, "lon": 123.5502827, "tags": {"fixme": "name", "place": "neighbourhood"}}, {"type": "node", "id": 9342460235, "lat": 8.1694056, "lon": 123.5438079, "tags": {"admin_level": "11", "admin_type:PH": "purok", "is_in:barangay": "Bogo Calabat", "is_in:municipality": "Josefina", "name": "Purok 2", "place": "neighbourhood"}}, {"type": "node", "id": 9342460236, "lat": 8.1699167, "lon": 123.5447258, "tags": {"admin_level": "10", "admin_type:PH": "barangay", "is_in:municipality": "Josefina", "name": "Bogo Calabat", "official_name": "Barangay Bogo Calabat", "old_ref": "097337001", "place": "village", "population": "1230", "population:2015": "1170", "population:date": "2020-05-01"}}, {"type": "node", "id": 9342488425, "lat": 8.102712, "lon": 123.5107899, "tags": {"admin_level": "11", "admin_type:PH": "purok", "is_in:barangay": "Dalaon", "is_in:municipality": "Molave", "name": "Centro", "place": "neighbourhood"}}, {"type": "node", "id": 9342488492, "lat": 8.1211217, "lon": 123.4870684, "tags": {"admin_level": "11", "admin_type:PH": "purok", "alt_name": "Imelda 2", "is_in:barangay": "Parasan", "is_in:municipality": "Molave", "name": "Imelda \u2161", "place": "neighbourhood"}}, {"type": "node", "id": 9342491750, "lat": 8.1246241, "lon": 123.4837076, "tags": {"admin_level": "11", "admin_type:PH": "purok", "is_in:barangay": "Parasan", "is_in:municipality": "Molave", "name": "Maliwanag 1", "place": "neighbourhood"}}, {"type": "node", "id": 9342651267, "lat": 8.0354775, "lon": 123.4396899, "tags": {"fixme": "name", "place": "neighbourhood"}}, {"type": "node", "id": 9342664847, "lat": 8.0402514, "lon": 123.4361172, "tags": {"admin_level": "10", "admin_type:PH": "barangay", "name": "Bagong Opon", "place": "village"}}, {"type": "node", "id": 9342689667, "lat": 8.0550774, "lon": 123.4414098, "tags": {"fixme": "name", "place": "neighbourhood"}}, {"type": "node", "id": 9342689676, "lat": 8.0606956, "lon": 123.429004, "tags": {"admin_level": "11", "admin_type:PH": "purok", "is_in:barangay": "Magsaysay", "is_in:municipality": "Ramon Magsaysay", "name": "Purok 2", "place": "neighbourhood"}}, {"type": "node", "id": 9342699620, "lat": 8.0225737, "lon": 123.4313643, "tags": {"admin_level": "10", "admin_type:PH": "barangay", "is_in:municipality": "Ramon Magsaysay", "name": "Malating", "old_ref": "097323017", "place": "village", "population": "704", "population:2015": "694", "population:date": "2020-05-01"}}, {"type": "node", "id": 9342699621, "lat": 8.0230173, "lon": 123.4309915, "tags": {"admin_level": "11", "admin_type:PH": "purok", "is_in:barangay": "Malating", "is_in:municipality": "Ramon Magsaysay", "name": "Purok 2", "place": "neighbourhood"}}, {"type": "node", "id": 9351730258, "lat": 8.3912767, "lon": 123.2754743, "tags": {"admin_level": "10", "admin_type:PH": "barangay", "is_in:municipality": "Katipunan", "name": "Bulawan", "old_ref": "097203004", "place": "village", "population": "1601", "population:2015": "1672", "population:date": "2020-05-01"}}, {"type": "node", "id": 9351844569, "lat": 8.2400818, "lon": 123.4444199, "tags": {"admin_level": "10", "admin_type:PH": "barangay", "is_in:municipality": "Sergio Osme\u00f1a Sr.", "name": "New Tangub", "old_ref": "097214019", "place": "village", "population": "601", "population:2015": "559", "population:date": "2020-05-01", "postal_code": "7108"}}, {"type": "node", "id": 9351844570, "lat": 8.2399292, "lon": 123.4449457, "tags": {"name": "Gubat", "place": "neighbourhood"}}, {"type": "node", "id": 9351859627, "lat": 8.2650448, "lon": 123.4819742, "tags": {"admin_level": "10", "admin_type:PH": "barangay", "is_in:municipality": "Sergio Osme\u00f1a Sr.", "name": "San Juan", "old_ref": "097214032", "place": "village", "population": "938", "population:2015": "794", "population:date": "2020-05-01", "postal_code": "7108"}}, {"type": "node", "id": 9351859672, "lat": 8.2603778, "lon": 123.473487, "tags": {"fixme": "name", "place": "neighbourhood"}}, {"type": "node", "id": 9351877326, "lat": 8.2939609, "lon": 123.4324345, "tags": {"admin_level": "11", "admin_type:PH": "purok", "is_in:barangay": "San Jose", "is_in:municipality": "Sergio Osmena Sr.", "name": "Purok 1", "place": "neighbourhood"}}, {"type": "node", "id": 9352014376, "lat": 8.3739939, "lon": 123.327102, "tags": {"admin_level": "11", "admin_type:PH": "sitio", "alt_name": "Salaogan;Salawagan", "is_in:district": "Seres", "is_in:town": "Katipunan", "name": "Saluwagan", "place": "hamlet", "source:name": "extrapolated from OSMaPaaralan, way/1013657350"}}, {"type": "node", "id": 9352020192, "lat": 8.3815648, "lon": 123.2290024, "tags": {"admin_level": "11", "admin_type:PH": "sitio", "is_in:district": "Balok", "is_in:town": "Katipunan", "name": "Macayas", "place": "hamlet"}}, {"type": "node", "id": 9352041231, "lat": 8.3281227, "lon": 123.3275433, "tags": {"admin_level": "10", "admin_type:PH": "barangay", "gns_classification": "ADM3", "is_in:municipality": "Sergio Osme\u00f1a, Sr.", "name": "New Rizal", "old_ref": "097214018", "place": "hamlet", "population": "397", "population:2015": "410", "ref": "0907214018", "source:population": "Philippine Statistics Authority"}}, {"type": "node", "id": 9352075755, "lat": 8.3933927, "lon": 123.3282367, "tags": {"fixme": "name", "place": "hamlet"}}, {"type": "node", "id": 9354586177, "lat": 8.3756413, "lon": 123.4576964, "tags": {"admin_level": "10", "admin_type:PH": "barangay", "is_in:municipality": "Pinan", "name": "Santa Fe", "old_ref": "097209015", "place": "village", "population": "315", "population:2015": "368", "population:date": "2020-05-01"}}, {"type": "node", "id": 9354586222, "lat": 8.3865517, "lon": 123.4662346, "tags": {"admin_level": "10", "admin_type:PH": "barangay", "is_in:municipality": "Mutia", "name": "Head Tipan", "old_ref": "097208005", "place": "village", "population": "370", "population:2015": "455", "population:date": "2020-05-01"}}, {"type": "node", "id": 9354700770, "lat": 8.3892333, "lon": 123.3832071, "tags": {"admin_level": "10", "admin_type:PH": "barangay", "is_in:municipality": "Polanco", "name": "Maligaya", "old_ref": "097210016", "place": "village", "population": "411", "population:2015": "333", "population:date": "2020-05-01"}}, {"type": "node", "id": 9465406399, "lat": 8.095136, "lon": 123.6294937, "tags": {"name": "Lower Montol", "place": "neighbourhood", "source:name": "extrapolated from OSMaPaaralan, way/914453496"}}, {"type": "node", "id": 9465463518, "lat": 8.1070536, "lon": 123.6347951, "tags": {"admin_level": "11", "admin_type:PH": "sitio", "name": "Upper Montol", "place": "hamlet"}}, {"type": "node", "id": 9473571336, "lat": 8.4009074, "lon": 123.614637, "tags": {"admin_level": "10", "admin_type:PH": "barangay", "is_in:municipality": "Concepcion", "name": "Small Potangan", "old_ref": "104206013", "place": "village", "population": "618", "population:2015": "630", "population:date": "2020-05-01"}}, {"type": "node", "id": 9473625631, "lat": 8.3835696, "lon": 123.5621119, "tags": {"admin_level": "10", "admin_type:PH": "barangay", "is_in:municipality": "Concepcion", "name": "Soso-on", "place": "village", "postal_code": "7213"}}, {"type": "node", "id": 9480278007, "lat": 8.1746412, "lon": 123.5622051, "tags": {"is_in:village": "Petianan", "name": "Poblacion", "place": "neighbourhood", "source:name": "extrapolated from OSMaPaaralan, way/969857680"}}, {"type": "node", "id": 9480282827, "lat": 8.223889, "lon": 123.5622105, "tags": {"admin_level": "11", "admin_type:PH": "purok", "is_in:barangay": "Lampasan", "is_in:municipality": "Don Victoriano Chiongbian", "name": "Purok 5", "place": "neighbourhood"}}, {"type": "node", "id": 9480306186, "lat": 8.3071253, "lon": 123.5809967, "tags": {"admin_level": "11", "admin_type:PH": "purok", "is_in:barangay": "Nueva Vista", "is_in:municipality": "Don Victoriano Chiongbian", "name": "Purok 5", "place": "neighbourhood"}}, {"type": "node", "id": 9494622183, "lat": 8.3237381, "lon": 123.6358036, "tags": {"name": "Sebucal", "place": "hamlet"}}, {"type": "node", "id": 9494692436, "lat": 8.1009568, "lon": 123.646047, "tags": {"admin_level": "11", "admin_type:PH": "sitio", "is_in:city": "Tangub", "is_in:village": "Simasay", "name": "Kampit", "place": "neighbourhood"}}, {"type": "node", "id": 9765627827, "lat": 7.9732363, "lon": 123.4658012, "tags": {"admin_level": "11", "admin_type:PH": "purok", "is_in:barangay": "Sapa Anding", "is_in:municipality": "Ramon Magsaysay", "name": "Purok 2", "place": "neighbourhood"}}, {"type": "node", "id": 9765658215, "lat": 8.0719716, "lon": 123.3162989, "tags": {"admin_level": "11", "admin_type:PH": "purok", "is_in:barangay": "Palili", "is_in:municipality": "Midsalip", "name": "Purok 1", "place": "neighbourhood"}}, {"type": "node", "id": 9765719894, "lat": 7.983763, "lon": 123.4690869, "tags": {"admin_level": "11", "admin_type:PH": "purok", "is_in:barangay": "Sapa Anding", "is_in:municipality": "Ramon Magsaysay", "name": "Purok 1", "place": "neighbourhood"}}, {"type": "node", "id": 9765743324, "lat": 8.0728267, "lon": 123.3167911, "tags": {"admin_level": "11", "admin_type:PH": "purok", "is_in:barangay": "Palili", "is_in:municipality": "Midsalip", "name": "Purok 2", "place": "neighbourhood"}}, {"type": "node", "id": 9765743331, "lat": 8.0683174, "lon": 123.3018833, "tags": {"admin_level": "11", "admin_type:PH": "purok", "is_in:barangay": "New Unidos", "is_in:municipality": "Midsalip", "name": "Purok 1", "place": "neighbourhood"}}, {"type": "node", "id": 11924750091, "lat": 8.2566756, "lon": 123.5671012, "tags": {"alt_name": "Sitio Piduan", "ele": "860", "is_in:barangay": "Napangan", "is_in:municipality": "Don Victoriano Chiongbian", "name": "Piduan", "place": "hamlet", "postal_code": "7216"}}, {"type": "node", "id": 12138943491, "lat": 8.2852923, "lon": 123.2171631, "tags": {"place": "hamlet"}}, {"type": "node", "id": 12138962934, "lat": 8.0482507, "lon": 123.1968386, "tags": {"admin_level": "11", "admin_type:PH": "purok", "is_in:barangay": "Pisompongan", "is_in:municipality": "Midsalip", "name": "Purok 1", "place": "neighbourhood"}}, {"type": "node", "id": 12138970726, "lat": 8.2395204, "lon": 123.2213527, "tags": {"name": "Bagong Jerusalem", "place": "neighbourhood"}}, {"type": "node", "id": 12138970727, "lat": 8.2388442, "lon": 123.2171296, "tags": {"admin_level": "10", "admin_type:PH": "barangay", "is_in:town": "Siayan", "name": "Mangilay", "old_ref": "097215014", "place": "village", "population": "2234", "ref": "0907215014", "source:population": "Philippine Statistics Authority"}}, {"type": "node", "id": 12139010673, "lat": 8.273897, "lon": 123.2197051, "tags": {"admin_level": "11", "admin_type:PH": "sitio", "is_in:town": "Siayan", "is_in:village": "Mangilay", "name": "Selese", "place": "hamlet"}}, {"type": "node", "id": 12139118623, "lat": 8.2618616, "lon": 123.5516392, "tags": {"admin_level": "10", "admin_type:PH": "barangay", "is_in:town": "Josefina", "name": "Dawa", "old_ref": "097337002", "place": "village", "population": "1020", "ref": "0907337002", "source:population": "Philippine Statistics Authority"}}, {"type": "node", "id": 12139133639, "lat": 8.2493958, "lon": 123.5468247, "tags": {"admin_level": "10", "admin_type:PH": "barangay", "is_in:town": "Josefina", "name": "Tagaytay Hill", "old_ref": "097337013", "place": "hamlet", "population": "245", "ref": "0907337013", "source:population": "Philippine Statistics Authority"}}, {"type": "node", "id": 12139133677, "lat": 8.2450166, "lon": 123.5503618, "tags": {"admin_level": "10", "admin_type:PH": "purok", "is_in:town": "Josefina", "is_in:village": "Moradji", "name": "Madasigon", "place": "neighbourhood", "source:name": "w899092262"}}, {"type": "node", "id": 12139194534, "lat": 8.3984106, "lon": 123.5474644, "tags": {"admin_level": "10", "admin_type:PH": "barangay", "is_in:town": "Mutia", "name": "G. Bergado", "old_name": "New Casul", "old_ref": "097208006", "place": "hamlet", "population": "316", "ref": "0907208006", "source:population": "Philippine Statistics Authority"}}, {"type": "node", "id": 12222603019, "lat": 8.3978016, "lon": 123.5686424, "tags": {"admin_level": "10", "admin_type:PH": "barangay", "is_in:municipality": "Concepcion", "name": "Upper Dapitan", "place": "village", "postal_code": "7213"}}, {"type": "node", "id": 12443439955, "lat": 8.3785556, "lon": 123.3399627, "tags": {"admin_type:PH": "sitio", "is_in:municipality": "Katipunan", "is_in:village": "Seres", "name": "Guisokan", "place": "hamlet"}}, {"type": "node", "id": 12443538131, "lat": 8.3808337, "lon": 123.2737242, "tags": {"admin_level": "10", "admin_type:PH": "barangay", "gns_classification": "ADM3", "is_in:municipality": "Katipunan", "name": "Bulawan", "old_ref": "097203004", "place": "village", "population": "1601", "population:2015": "1672", "ref": "0907203004", "source:population": "Philippine Statistics Authority"}}, {"type": "node", "id": 12443549390, "lat": 8.2325031, "lon": 123.2505351, "tags": {"admin_level": "10", "admin_type:PH": "barangay", "gns_classification": "ADM3", "is_in:municipality": "Dumingag", "name": "Salvador", "old_ref": "097308033", "place": "village", "population": "1559", "population:2015": "1523", "ref": "0907308033", "source:population": "Philippine Statistics Authority"}}]}