{"version": 0.6, "generator": "Overpass API 0.7.62.5 1bd436f1", "osm3s": {"timestamp_osm_base": "2025-05-24T17:53:13Z", "copyright": "The data included in this document is from www.openstreetmap.org. The data is made available under ODbL."}, "elements": [{"type": "node", "id": 198490607, "lat": 16.5096214, "lon": 121.527583, "tags": {"admin_level": "6", "admin_type:PH": "municipality", "capital": "4", "name": "Cabarroguis", "name:ja": "\u30ab\u30d0\u30ed\u30ae\u30b9", "place": "town", "population": "33533", "population:date": "2020-05-01", "ref": "025702000", "source:population": "Philippine Statistics Authority", "website": "https://www.cabarroguis.gov.ph/", "wikidata": "Q53070", "wikimedia_commons": "Category:Cabarroguis", "wikipedia": "en:Cabarroguis"}}, {"type": "node", "id": 198494061, "lat": 16.7815027, "lon": 121.5351148, "tags": {"admin_level": "6", "name": "Ramon", "place": "town", "place:PH": "municipality", "population": "52707", "population:date": "2015-08-01", "ref": "023124000", "source:population": "Philippine Statistics Authority", "wikidata": "Q50152", "wikimedia_commons": "Category:Ramon, Isabela", "wikipedia": "en:Ramon, Isabela"}}, {"type": "node", "id": 198496275, "lat": 16.4907744, "lon": 121.585819, "tags": {"admin_level": "6", "designation": "municipality", "name": "Aglipay", "place": "town", "population": "30714", "population:date": "2020-05-01", "ref": "025701000", "source:population": "Philippine Statistics Authority", "website": "http://www.aglipay-quirino.gov.ph/", "wikidata": "Q53069", "wikimedia_commons": "Category:Aglipay, Quirino", "wikipedia": "en:Aglipay, Quirino"}}, {"type": "node", "id": 198497039, "lat": 16.5935291, "lon": 121.5024247, "tags": {"admin_level": "6", "designation": "municipality", "name": "Diffun", "place": "town", "population": "56102", "population:date": "2020-05-01", "ref": "025703000", "source:population": "Philippine Statistics Authority", "website": "http://www.diffun-quirino.gov.ph/", "wikidata": "Q53071", "wikimedia_commons": "Category:Diffun", "wikipedia": "en:Diffun"}}, {"type": "node", "id": 198502532, "lat": 16.7568394, "lon": 121.7480912, "tags": {"admin_level": "6", "admin_type:PH": "municipality", "gns_classification": "ADM2", "gns_uni": "-3323800", "name": "Angadanan", "place": "town", "population": "43061", "population:date": "2015-08-01", "source": "GNS", "source:population": "Philippine Statistics Authority", "wikidata": "Q49357", "wikimedia_commons": "Category:Angadanan", "wikipedia": "en:Angadanan"}}, {"type": "node", "id": 198504010, "lat": 16.6739986, "lon": 121.4662357, "tags": {"admin_level": "6", "name": "Cordon", "place": "town", "place:PH": "municipality", "population": "42926", "population:date": "2015-08-01", "ref": "023109000", "source:population": "Philippine Statistics Authority", "wikidata": "Q49363", "wikimedia_commons": "Category:Cordon, Isabela", "wikipedia": "en:Cordon, Isabela"}}, {"type": "node", "id": 198505004, "lat": 16.6606225, "lon": 121.3693297, "tags": {"admin_level": "6", "admin_type:PH": "municipality", "name": "Diadi", "place": "town", "population": "19236", "population:date": "2020-05-01", "ref": "025006000", "source:population": "Philippine Statistics Authority", "website": "http://www.diadi-nvizcaya.gov.ph/", "wikidata": "Q51481", "wikimedia_commons": "Category:Diadi", "wikipedia": "en:Diadi"}}, {"type": "node", "id": 198508807, "lat": 16.5066966, "lon": 121.7474086, "tags": {"admin_level": "6", "name": "San Agustin", "place": "town", "place:PH": "municipality", "population": "22880", "population:date": "2015-08-01", "ref": "023127000", "source:population": "Philippine Statistics Authority", "wikidata": "Q50158", "wikimedia_commons": "Category:San Agustin, Isabela", "wikipedia": "en:San Agustin, Isabela"}}, {"type": "node", "id": 198509448, "lat": 16.7341724, "lon": 121.6345148, "tags": {"admin_level": "6", "name": "San Isidro", "place": "town", "place:PH": "municipality", "population": "24861", "population:date": "2015-08-01", "ref": "023129000", "source:population": "Philippine Statistics Authority", "wikidata": "Q50163", "wikimedia_commons": "Category:San Isidro, Isabela", "wikipedia": "en:San Isidro, Isabela"}}, {"type": "node", "id": 198512823, "lat": 16.5400855, "lon": 121.5635618, "tags": {"admin_level": "6", "admin_type:PH": "municipality", "name": "Saguday", "place": "town", "population": "17137", "population:date": "2020-05-01", "ref": "025705000", "source:population": "Philippine Statistics Authority", "website": "http://www.saguday-quirino.gov.ph/", "wikidata": "Q53074", "wikimedia_commons": "Category:Saguday", "wikipedia": "en:Saguday"}}, {"type": "node", "id": 198513614, "lat": 16.7789338, "lon": 121.6992173, "tags": {"admin_level": "6", "gns_classification": "ADM2", "gns_uni": "-3322934", "is_in:province": "Isabela", "name": "Alicia", "place": "town", "place:PH": "municipality", "population": "71504", "population:date": "2015-08-01", "source:population": "Philippine Statistics Authority", "wikidata": "Q49354", "wikimedia_commons": "Category:Alicia, Isabela", "wikipedia": "en:Alicia, Isabela"}}, {"type": "node", "id": 198515194, "lat": 16.561296, "lon": 121.7022613, "tags": {"admin_level": "6", "admin_type:PH": "municipality", "name": "Jones", "place": "town", "population": "45666", "population:date": "2015-08-01", "ref": "023115000", "source:population": "Philippine Statistics Authority", "wikidata": "Q49372", "wikimedia_commons": "Category:Jones, Isabela", "wikipedia": "en:Jones, Isabela"}}, {"type": "node", "id": 198523800, "lat": 16.6915963, "lon": 121.5478637, "tags": {"admin_level": "6", "name": "Santiago", "name:ar": "\u0633\u0627\u0646\u062a\u064a\u0627\u063a\u0648", "name:de": "Santiago", "name:es": "Santiago", "name:fa": "\u0633\u0627\u0646\u062a\u06cc\u0627\u06af\u0648", "name:ja": "\u30b5\u30f3\u30c6\u30a3\u30a2\u30b4", "name:pa": "\u0a38\u0a3e\u0a02\u0a24\u0a40\u0a06\u0a17\u0a4b", "name:ur": "\u0633\u0627\u0646\u062a\u06cc\u0627\u06af\u0648", "place": "city", "population": "134830", "population:date": "2015-08-01", "ref": "023135000", "source:population": "Philippine Statistics Authority", "wikidata": "Q50180", "wikimedia_commons": "Category:Santiago, Isabela", "wikipedia": "en:Santiago, Isabela", "wikipedia:es": "Santiago (Isabela)"}}, {"type": "node", "id": 198525617, "lat": 16.70536, "lon": 121.6749455, "tags": {"admin_level": "6", "admin_type:PH": "municipality", "name": "Echague", "place": "town", "population": "79094", "population:date": "2015-08-01", "postal_code": "3309", "ref": "023112000", "source:population": "Philippine Statistics Authority", "wikidata": "Q49369", "wikimedia_commons": "Category:Echague", "wikipedia": "en:Echague"}}, {"type": "node", "id": 1280272268, "lat": 16.8222516, "lon": 121.5242659, "tags": {"name": "Oscariz", "place": "village"}}, {"type": "node", "id": 1280272276, "lat": 16.8589278, "lon": 121.4993049, "tags": {"is_in:town": "Alfonso Lista", "name": "Namillangan", "place": "village"}}, {"type": "node", "id": 1298362279, "lat": 16.8439971, "lon": 121.4493948, "tags": {"is_in:town": "Alfonso Lista", "name": "Santo Domingo", "place": "village"}}, {"type": "node", "id": 1794817562, "lat": 16.6834269, "lon": 121.5589086}, {"type": "node", "id": 1794817565, "lat": 16.6840519, "lon": 121.5570164}, {"type": "node", "id": 1794817578, "lat": 16.685562, "lon": 121.5570078}, {"type": "node", "id": 1794817590, "lat": 16.6860923, "lon": 121.5574083}, {"type": "node", "id": 1794817592, "lat": 16.6870507, "lon": 121.5580281}, {"type": "node", "id": 1794817608, "lat": 16.6879088, "lon": 121.5587746}, {"type": "node", "id": 2165018948, "lat": 16.6869892, "lon": 121.6710291, "tags": {"admin_level": "10", "designation": "barangay", "name": "Dammang West", "place": "village"}}, {"type": "node", "id": 2165018954, "lat": 16.6403861, "lon": 121.6746352, "tags": {"admin_level": "10", "admin_type:PH": "barangay", "is_in:town": "Echague", "name": "Rumang-ay", "place": "village"}}, {"type": "node", "id": 2165074560, "lat": 16.6371921, "lon": 121.6640136, "tags": {"admin_level": "10", "admin_type:PH": "barangay", "is_in:state": "Cagayan", "is_in:town": "Echague", "name": "San Juan", "place": "village"}}, {"type": "node", "id": 2168939011, "lat": 16.5157475, "lon": 121.5649545, "tags": {"admin_level": "10", "admin_type:PH": "barangay", "is_in:town": "Saguday", "name": "Gamis", "place": "village"}}, {"type": "node", "id": 2168939017, "lat": 16.5268979, "lon": 121.5813795, "tags": {"admin_level": "10", "admin_type:PH": "barangay", "is_in:town": "Saguday", "name": "Dibul", "place": "village"}}, {"type": "node", "id": 2368264764, "lat": 16.6928112, "lon": 121.6000732}, {"type": "node", "id": 2370796904, "lat": 16.6953814, "lon": 121.6003549}, {"type": "node", "id": 2370796905, "lat": 16.6953067, "lon": 121.5998821}, {"type": "node", "id": 2370796906, "lat": 16.6948653, "lon": 121.6003915}, {"type": "node", "id": 2411875780, "lat": 16.6745649, "lon": 121.532473}, {"type": "node", "id": 2411876252, "lat": 16.6746022, "lon": 121.5303446}, {"type": "node", "id": 2414212622, "lat": 16.8138357, "lon": 121.7190529, "tags": {"name": "Midtown Subdivision", "place": "neighbourhood"}}, {"type": "node", "id": 2502528990, "lat": 16.6928557, "lon": 121.6005468}, {"type": "node", "id": 2502553401, "lat": 16.6935981, "lon": 121.6004739}, {"type": "node", "id": 2502553402, "lat": 16.6948645, "lon": 121.6003522}, {"type": "node", "id": 2837212729, "lat": 16.6671991, "lon": 121.4600565, "tags": {"alt_name": "Caperperiwan", "is_in:town": "Cordon", "name": "Capirpiriwan", "place": "village"}}, {"type": "node", "id": 2837212730, "lat": 16.6584263, "lon": 121.4461518, "tags": {"is_in:town": "Cordon", "name": "Cawacan", "place": "village"}}, {"type": "node", "id": 2837212731, "lat": 16.8135094, "lon": 121.7237476, "tags": {"admin_level": "10", "admin_type:PH": "barangay", "is_in:town": "Alicia", "name": "Paddad", "place": "village"}}, {"type": "node", "id": 2899120405, "lat": 16.6910371, "lon": 121.5593189, "tags": {"name": "Baptista Village", "place": "neighbourhood", "place:PH": "village"}}, {"type": "node", "id": 2899120416, "lat": 16.6970495, "lon": 121.5432437, "tags": {"name": "Villa Agustin", "place": "neighbourhood", "place:PH": "village"}}, {"type": "node", "id": 3532037373, "lat": 16.5876584, "lon": 121.4329698, "tags": {"fixme": "name", "place": "neighbourhood"}}, {"type": "node", "id": 3532909192, "lat": 16.5513334, "lon": 121.4963052, "tags": {"name": "Ricarte Norte", "place": "village"}}, {"type": "node", "id": 3533100511, "lat": 16.517576, "lon": 121.4572505, "tags": {"name": "Aklan Village", "place": "neighbourhood", "place:PH": "village"}}, {"type": "node", "id": 3533100514, "lat": 16.4910488, "lon": 121.410749, "tags": {"admin_level": "10", "name": "Baguio Village", "place": "village", "place:PH": "barangay"}}, {"type": "node", "id": 3533100515, "lat": 16.5802439, "lon": 121.5195613, "tags": {"name": "Balagbag", "place": "village"}}, {"type": "node", "id": 3533100516, "lat": 16.5330789, "lon": 121.4138603, "tags": {"name": "Campamento", "place": "village"}}, {"type": "node", "id": 3533100517, "lat": 16.5132497, "lon": 121.4769668, "tags": {"name": "Do\u00f1a Imelda", "place": "village"}}, {"type": "node", "id": 3533100518, "lat": 16.5446607, "lon": 121.4599784, "tags": {"admin_level": "10", "admin_type:PH": "barangay", "name": "Dumanisi", "place": "village"}}, {"type": "node", "id": 3533100519, "lat": 16.6051188, "lon": 121.4785498, "tags": {"admin_level": "10", "admin_type:PH": "barangay", "is_in:town": "Diffun", "is_in:village": "Gabriela Silang", "name": "Gabriela SIlang", "place": "village", "population": "2108", "population:2015": "2150", "ref": "025703013", "short_name": "Gabriela", "source:name": "extrapolated from OSMaPaaralan, way/1031095247"}}, {"type": "node", "id": 3533100520, "lat": 16.5733518, "lon": 121.4122778, "tags": {"name": "Gregorio Pimentel", "place": "village"}}, {"type": "node", "id": 3533100521, "lat": 16.5785142, "lon": 121.4925697, "tags": {"is_in:town": "Diffun", "name": "Liwayway", "place": "village"}}, {"type": "node", "id": 3533100522, "lat": 16.5776986, "lon": 121.5327341, "tags": {"admin_level": "10", "admin_type:PH": "barangay", "name": "Luttuad", "place": "village"}}, {"type": "node", "id": 3533100523, "lat": 16.5229695, "lon": 121.4469476, "tags": {"name": "Magsaysay", "place": "village"}}, {"type": "node", "id": 3533100524, "lat": 16.5022952, "lon": 121.4618461, "tags": {"name": "Rafael Palma", "place": "village"}}, {"type": "node", "id": 3533100525, "lat": 16.5265777, "lon": 121.4808982, "tags": {"name": "Ricarte Sur", "place": "village"}}, {"type": "node", "id": 3533100528, "lat": 16.5332116, "lon": 121.4642599, "tags": {"name": "San Pascual", "place": "village"}}, {"type": "node", "id": 3533100529, "lat": 16.4961143, "lon": 121.5087003, "tags": {"admin_level": "10", "name": "Villamor", "place": "village", "place:PH": "barangay"}}, {"type": "node", "id": 3533100530, "lat": 16.5064252, "lon": 121.5214934, "tags": {"admin_level": "10", "admin_type:PH": "barangay", "name": "Zamora", "place": "village"}}, {"type": "node", "id": 3791057440, "lat": 16.7634237, "lon": 121.6977311, "tags": {"admin_level": "10", "admin_type:PH": "barangay", "is_in:province": "Isabela", "is_in:town": "Alicia", "name": "Apanay", "place": "village"}}, {"type": "node", "id": 3791074757, "lat": 16.7711984, "lon": 121.7044374, "tags": {"admin_level": "10", "admin_type:PH": "barangay", "is_in:province": "Isabela", "is_in:town": "Alicia", "name": "Santa Cruz", "place": "village"}}, {"type": "node", "id": 4315543135, "lat": 16.6757223, "lon": 121.5282771}, {"type": "node", "id": 4315543136, "lat": 16.6758926, "lon": 121.5313697}, {"type": "node", "id": 4315543137, "lat": 16.6760127, "lon": 121.5283442}, {"type": "node", "id": 4315543138, "lat": 16.6761232, "lon": 121.5310425}, {"type": "node", "id": 4315543140, "lat": 16.6772126, "lon": 121.5289986}, {"type": "node", "id": 4393616758, "lat": 16.8250667, "lon": 121.7922303, "tags": {"admin_level": "10", "admin_type:PH": "barangay", "is_in:town": "Angadanan", "name": "Viga", "place": "village"}}, {"type": "node", "id": 4543895696, "lat": 16.8114935, "lon": 121.5634024, "tags": {"admin_level": "10", "admin_type:PH": "barangay", "is_in:town": "Ramon", "name": "Purok ni Bulan", "place": "village"}}, {"type": "node", "id": 4924290694, "lat": 16.8267524, "lon": 121.4811023, "tags": {"admin_level": "10", "admin_type:PH": "barangay", "name": "General Emilio Aguinaldo", "place": "village"}}, {"type": "node", "id": 5243548697, "lat": 16.4247229, "lon": 121.3526125, "tags": {"name": "Tadji", "place": "village"}}, {"type": "node", "id": 5272937002, "lat": 16.5436788, "lon": 121.7350379, "tags": {"name": "Daligan", "place": "village"}}, {"type": "node", "id": 5272937003, "lat": 16.5329437, "lon": 121.7592622, "tags": {"admin_level": "10", "admin_type:PH": "barangay", "name": "Usol", "place": "village"}}, {"type": "node", "id": 5272937004, "lat": 16.5217641, "lon": 121.7660806, "tags": {"admin_level": "10", "admin_type:PH": "barangay", "name": "Dibuluan", "place": "village"}}, {"type": "node", "id": 5272951293, "lat": 16.5207483, "lon": 121.7861523, "tags": {"name": "Papan Weste", "place": "village"}}, {"type": "node", "id": 6148266344, "lat": 16.4798351, "lon": 121.3764381, "tags": {"admin_level": "10", "name": "Don Mariano Perez", "place": "village", "place:PH": "barangay"}}, {"type": "node", "id": 6191733941, "lat": 16.6227249, "lon": 121.6121989, "tags": {"admin_level": "10", "designation": "barangay", "name": "Santa Maria", "place": "village"}}, {"type": "node", "id": 7568163863, "lat": 16.7515755, "lon": 121.5209502, "tags": {"is_in:town": "San Ramon", "name": "San Antonio", "place": "village"}}, {"type": "node", "id": 7568187234, "lat": 16.7615329, "lon": 121.5411901, "tags": {"is_in:town": "San Ramon", "name": "Raniag", "place": "village"}}, {"type": "node", "id": 7568335378, "lat": 16.7889958, "lon": 121.5334117, "tags": {"admin_level": "10", "admin_type:PH": "barangay", "is_in:town": "Ramon", "name": "Bugallon Norte", "old_ref": "023124004", "place": "neighbourhood", "place:PH": "barangay", "population": "5760", "population:date": "2020-05-01", "ref": "0203124004"}}, {"type": "node", "id": 7568392631, "lat": 16.7843453, "lon": 121.5130967, "tags": {"admin_level": "10", "admin_type:PH": "barangay", "is_in:town": "Ramon", "name": "San Miguel", "place": "village"}}, {"type": "node", "id": 7568406390, "lat": 16.8454448, "lon": 121.5875468, "tags": {"is_in:town": "San Mateo", "name": "Villa Cruz", "place": "village"}}, {"type": "node", "id": 7568961225, "lat": 16.7136367, "lon": 121.6787365, "tags": {"is_in:town": "Echague", "name": "San Fabian", "place": "village"}}, {"type": "node", "id": 7569004420, "lat": 16.7125295, "lon": 121.6993171, "tags": {"name": "Purok 2", "place": "neighbourhood"}}, {"type": "node", "id": 7571769277, "lat": 16.7163366, "lon": 121.662249, "tags": {"is_in:town": "Echague", "name": "Angoluan", "place": "village"}}, {"type": "node", "id": 7571831129, "lat": 16.7311326, "lon": 121.6761965, "tags": {"is_in:town": "Echague", "name": "Malibago", "place": "village"}}, {"type": "node", "id": 7571831130, "lat": 16.7306549, "lon": 121.6690296, "tags": {"name": "Purok 6", "place": "neighbourhood"}}, {"type": "node", "id": 7821561051, "lat": 16.5308763, "lon": 121.5200436, "tags": {"admin_level": "10", "admin_type:PH": "barangay", "name": "San Marcos", "place": "village"}}, {"type": "node", "id": 7821561052, "lat": 16.5055961, "lon": 121.5612666, "tags": {"admin_level": "10", "admin_type:PH": "barangay", "name": "Banuar", "place": "village"}}, {"type": "node", "id": 7821561053, "lat": 16.4893687, "lon": 121.5286208, "tags": {"name": "Santo Domingo", "place": "village", "population": "888", "ref": "025702017", "source": "PSA, 2020 Census"}}, {"type": "node", "id": 7821561054, "lat": 16.4761778, "lon": 121.5256784, "tags": {"name": "Del Pilar", "place": "village"}}, {"type": "node", "id": 7821561055, "lat": 16.4680113, "lon": 121.5219811, "tags": {"name": "Villape\u00f1a", "place": "village"}}, {"type": "node", "id": 7821561056, "lat": 16.4653257, "lon": 121.5120856, "tags": {"name": "Burgos", "place": "village"}}, {"type": "node", "id": 7821561057, "lat": 16.4653318, "lon": 121.4843596, "tags": {"name": "Gomez", "place": "village"}}, {"type": "node", "id": 7821561058, "lat": 16.4602537, "lon": 121.4627928, "tags": {"admin_level": "10", "admin_type:PH": "barangay", "name": "Calaocan", "place": "village", "population": "748", "ref": "025702003", "source:population": "PSA Census 2020"}}, {"type": "node", "id": 7821561059, "lat": 16.497739, "lon": 121.4798986, "tags": {"admin_level": "10", "admin_type:PH": "barangay", "name": "Villarose", "place": "village", "population": "800", "ref": "0257020212", "source:population": "PSA Census 2020"}}, {"type": "node", "id": 7821561060, "lat": 16.4420255, "lon": 121.5472477, "tags": {"admin_level": "10", "admin_type:PH": "barangay", "name": "Eden", "place": "village"}}, {"type": "node", "id": 7821561061, "lat": 16.4282941, "lon": 121.5138981, "tags": {"admin_level": "10", "admin_type:PH": "barangay", "name": "Dibibi", "place": "village", "population": "2594", "ref": "025702005", "source:population": "PSA Census 2020"}}, {"type": "node", "id": 7876786365, "lat": 16.8621816, "lon": 121.6487092, "tags": {"name": "Mataas na Kahoy", "place": "village"}}, {"type": "node", "id": 7876786379, "lat": 16.8619249, "lon": 121.66565, "tags": {"name": "Amistad", "place": "village"}}, {"type": "node", "id": 8196349548, "lat": 16.5962972, "lon": 121.6644913, "tags": {"admin_level": "10", "designation": "barangay", "name": "Pangal Sur", "place": "village"}}, {"type": "node", "id": 8196349549, "lat": 16.5853518, "lon": 121.6418695, "tags": {"admin_level": "10", "designation": "barangay", "name": "Villa Fermin", "place": "village"}}, {"type": "node", "id": 8196349550, "lat": 16.6120689, "lon": 121.627745, "tags": {"admin_level": "10", "admin_type:PH": "barangay", "name": "San Manuel", "place": "village"}}, {"type": "node", "id": 8196349655, "lat": 16.5581373, "lon": 121.4890963, "tags": {"place": "hamlet"}}, {"type": "node", "id": 8196349656, "lat": 16.5316698, "lon": 121.5014076, "tags": {"admin_level": "10", "name": "Ricarte Sur", "place": "village", "place:PH": "barangay"}}, {"type": "node", "id": 8196349657, "lat": 16.498328, "lon": 121.4821823, "tags": {"name": "Barangay Villarose", "place": "hamlet"}}, {"type": "node", "id": 8196349658, "lat": 16.4438955, "lon": 121.514765, "tags": {"place": "village"}}, {"type": "node", "id": 8196349660, "lat": 16.6026564, "lon": 121.4659005, "tags": {"admin_level": "11", "admin_type:PH": "purok", "is_in:town": "Diffun", "is_in:village": "Gabriela Silang", "name": "Purok 2", "place": "neighbourhood", "source:name": "extrapolated from OSMaPaaralan, way/1031095247"}}, {"type": "node", "id": 8196349662, "lat": 16.6261483, "lon": 121.5353912, "tags": {"admin_level": "10", "admin_type:PH": "barangay", "name": "Gulac", "place": "village"}}, {"type": "node", "id": 8196349664, "lat": 16.6385845, "lon": 121.5083036, "tags": {"admin_level": "10", "admin_type:PH": "barangay", "is_in:province": "Quirino", "is_in:town": "Diffun", "name": "San Isidro", "place": "village", "population": "2030", "ref": "025703028", "source:population": "PSA Census 2020", "source:ref": "PSA"}}, {"type": "node", "id": 8196349665, "lat": 16.638253, "lon": 121.4766025, "tags": {"admin_level": "10", "admin_type:PH": "barangay", "is_in:town": "Diffun", "name": "Guribang", "place": "village"}}, {"type": "node", "id": 8196349666, "lat": 16.6414653, "lon": 121.455794, "tags": {"admin_level": "11", "admin_type:PH": "sitio", "is_in:town": "Diffun", "is_in:village": "Guribang", "name": "Der-an", "place": "hamlet"}}, {"type": "node", "id": 8196349667, "lat": 16.6148448, "lon": 121.5703887, "tags": {"name": "Bannawag Norte", "place": "village"}}, {"type": "node", "id": 8196349668, "lat": 16.6109534, "lon": 121.4908826, "tags": {"admin_level": "10", "name": "Maria Clara", "place": "village", "place:PH": "barangay"}}, {"type": "node", "id": 8196349669, "lat": 16.6159757, "lon": 121.5855807, "tags": {"admin_level": "10", "name": "Luna", "place": "village", "place:PH": "barangay"}}, {"type": "node", "id": 8196349670, "lat": 16.613791, "lon": 121.5462756, "tags": {"admin_level": "10", "name": "Villa Pascua", "place": "village", "place:PH": "barangay"}}, {"type": "node", "id": 8196349674, "lat": 16.5798917, "lon": 121.6139531, "tags": {"admin_level": "10", "admin_type:PH": "barangay", "name": "Santa Maria", "place": "village"}}, {"type": "node", "id": 8196349675, "lat": 16.6098585, "lon": 121.5119541, "tags": {"admin_level": "10", "name": "Isidro Paredes", "place": "village", "place:PH": "barangay"}}, {"type": "node", "id": 8196349676, "lat": 16.5646521, "lon": 121.5117288, "tags": {"admin_level": "10", "name": "Cajel", "place": "village", "place:PH": "barangay"}}, {"type": "node", "id": 8196349677, "lat": 16.5472155, "lon": 121.5179354, "tags": {"place": "village"}}, {"type": "node", "id": 8196349678, "lat": 16.551103, "lon": 121.5444571, "tags": {"admin_level": "10", "designation": "barangay", "name": "Cardenas", "place": "village"}}, {"type": "node", "id": 8196349679, "lat": 16.5567541, "lon": 121.5656304, "tags": {"place": "village"}}, {"type": "node", "id": 8196349697, "lat": 16.5674903, "lon": 121.5902263, "tags": {"admin_level": "10", "admin_type:PH": "barangay", "name": "Salvacion", "place": "village"}}, {"type": "node", "id": 8196349698, "lat": 16.5565999, "lon": 121.6068667, "tags": {"admin_level": "10", "name": "Santo Tomas", "place": "village", "place:PH": "barangay"}}, {"type": "node", "id": 8196349699, "lat": 16.5457834, "lon": 121.659717, "tags": {"admin_level": "10", "name": "Pongpongan", "place": "village", "place:PH": "barangay"}}, {"type": "node", "id": 8196350440, "lat": 16.4543537, "lon": 121.6461235, "tags": {"admin_level": "10", "admin_type:PH": "barangay", "is_in:town": "San Francisco", "name": "San Francisco", "old_ref": "025701012", "place": "village", "population": "1920", "population:2015": "1836", "ref": "0205701012", "source:population": "Philippine Statistics Authority"}}, {"type": "node", "id": 8196350441, "lat": 16.4249712, "lon": 121.6226649, "tags": {"admin_level": "11", "designation": "purok", "is_in:village": "Victoria", "name": "Purok 6", "place": "hamlet"}}, {"type": "node", "id": 8196350442, "lat": 16.480327, "lon": 121.6650629, "tags": {"admin_level": "10", "admin_type:PH": "barangay", "is_in:town": "Aglipay", "name": "Ramos", "old_ref": "025701009", "place": "village", "population": "841", "population:2015": "768", "ref": "0205701009", "source:population": "Philippine Statistics Authority"}}, {"type": "node", "id": 8196350443, "lat": 16.5274155, "lon": 121.6419191, "tags": {"admin_level": "10", "admin_type:PH": "barangay", "is_in:province": "Isabela", "is_in:town": "Jones", "name": "Linamanan", "old_ref": "023115021", "place": "village", "population": "873", "ref": "0203115021", "source:population": "Philippine Statistics Authority"}}, {"type": "node", "id": 8196350444, "lat": 16.5382215, "lon": 121.621753, "tags": {"admin_level": "10", "admin_type:PH": "barangay", "name": "Rang\u2011ayan", "place": "village"}}, {"type": "node", "id": 8196350445, "lat": 16.539538, "lon": 121.5999412, "tags": {"admin_level": "10", "admin_type:PH": "barangay", "name": "Tres Reyes", "place": "village"}}, {"type": "node", "id": 8196350493, "lat": 16.5077035, "lon": 121.6378677, "tags": {"admin_level": "10", "admin_type:PH": "barangay", "name": "Villa Pagaduan", "place": "village"}}, {"type": "node", "id": 8196350537, "lat": 16.5229477, "lon": 121.6090178, "tags": {"admin_level": "10", "admin_type:PH": "barangay", "name": "Dagupan", "place": "village"}}, {"type": "node", "id": 8196350539, "lat": 16.4733535, "lon": 121.6454744, "tags": {"admin_level": "10", "admin_type:PH": "barangay", "name": "San Antonio", "place": "village"}}, {"type": "node", "id": 8196350540, "lat": 16.4642583, "lon": 121.6263342, "tags": {"admin_level": "10", "admin_type:PH": "barangay", "name": "Palacian", "place": "village"}}, {"type": "node", "id": 8196350541, "lat": 16.4793001, "lon": 121.6008961, "tags": {"admin_level": "10", "admin_type:PH": "barangay", "name": "Pinaripad Norte", "place": "village"}}, {"type": "node", "id": 8196350542, "lat": 16.4679777, "lon": 121.6135132, "tags": {"admin_level": "10", "admin_type:PH": "barangay", "name": "Pinaripad Sur", "place": "village"}}, {"type": "node", "id": 8196350543, "lat": 16.4952152, "lon": 121.6193068, "tags": {"admin_level": "10", "admin_type:PH": "barangay", "name": "Villa Ventura", "place": "village"}}, {"type": "node", "id": 8196350544, "lat": 16.4864091, "lon": 121.5737414, "tags": {"place": "hamlet"}}, {"type": "node", "id": 8196350545, "lat": 16.4707762, "lon": 121.5589678, "tags": {"place": "hamlet"}}, {"type": "node", "id": 8196350546, "lat": 16.4874854, "lon": 121.5580814, "tags": {"admin_level": "10", "admin_type:PH": "barangay", "name": "Dumabel", "place": "village", "population": "1310", "ref": "025701002", "source": "PSA, 2020 Census"}}, {"type": "node", "id": 8196350547, "lat": 16.5373267, "lon": 121.5356648, "tags": {"admin_level": "10", "designation": "barangay", "name": "Balagbag", "place": "village", "postal_code": "3401"}}, {"type": "node", "id": 8196351130, "lat": 16.4498944, "lon": 121.6547495, "tags": {"place": "village"}}, {"type": "node", "id": 8196351131, "lat": 16.4451251, "lon": 121.6744584, "tags": {"admin_level": "10", "name": "San Ramon", "place": "village", "place:PH": "barangay"}}, {"type": "node", "id": 8196351132, "lat": 16.4502166, "lon": 121.7323243, "tags": {"admin_level": "10", "admin_type:PH": "barangay", "is_in:town": "San Agustin", "name": "Dappig", "old_ref": "023127005", "place": "village", "population": "527", "ref": "0203127005", "source:population": "Philippine Statistics Authority"}}, {"type": "node", "id": 8196351584, "lat": 16.4479555, "lon": 121.7142992, "tags": {"admin_level": "10", "admin_type:PH": "barangay", "is_in:town": "San Agustin", "name": "Calaocan", "old_ref": "023127002", "place": "village", "population": "501", "ref": "0203127002", "source:population": "Philippine Statistics Authority"}}, {"type": "node", "id": 8196351585, "lat": 16.4338606, "lon": 121.7385954, "tags": {"admin_level": "10", "admin_type:PH": "barangay", "is_in:town": "San Agustin", "name": "Laoag", "old_ref": "023127006", "place": "village", "population": "1010", "ref": "0203127006", "source:population": "Philippine Statistics Authority"}}, {"type": "node", "id": 8196352799, "lat": 16.4392958, "lon": 121.6356683, "tags": {"admin_level": "10", "admin_type:PH": "barangay", "name": "Victoria", "place": "village"}}, {"type": "node", "id": 8196352875, "lat": 16.4391723, "lon": 121.5980422, "tags": {"admin_level": "10", "admin_type:PH": "barangay", "name": "Diodol", "place": "village"}}, {"type": "node", "id": 8196352876, "lat": 16.4557903, "lon": 121.5661454, "tags": {"admin_level": "10", "admin_type:PH": "barangay", "name": "Cabugao", "place": "village"}}, {"type": "node", "id": 8196353723, "lat": 16.5786218, "lon": 121.4505744, "tags": {"place": "hamlet"}}, {"type": "node", "id": 8196353724, "lat": 16.596382, "lon": 121.4457947, "tags": {"admin_level": "11", "admin_type:PH": "sitio", "is_in": "Gabriela Silang;Diffun", "name": "Upper Gabriela", "place": "hamlet"}}, {"type": "node", "id": 8196353725, "lat": 16.5593405, "lon": 121.4266813, "tags": {"place": "village"}}, {"type": "node", "id": 8196353951, "lat": 16.4514636, "lon": 121.4183611, "tags": {"place": "hamlet"}}, {"type": "node", "id": 8196354480, "lat": 16.4697654, "lon": 121.4365786, "tags": {"admin_level": "10", "admin_type:PH": "barangay", "name": "Ifugao Village", "place": "village", "population": "1514", "ref": "025703016"}}, {"type": "node", "id": 8196354481, "lat": 16.483649, "lon": 121.4425856, "tags": {"alt_name": "Makate", "name": "Macate", "place": "village", "population": "694", "ref": "025703022"}}, {"type": "node", "id": 8196354527, "lat": 16.504849, "lon": 121.4334512, "tags": {"place": "village"}}, {"type": "node", "id": 8196354528, "lat": 16.5127696, "lon": 121.4198416, "tags": {"place": "hamlet"}}, {"type": "node", "id": 8196354716, "lat": 16.5127497, "lon": 121.4052162, "tags": {"admin_level": "10", "admin_type:PH": "sitio", "name": "Cupianan", "place": "hamlet"}}, {"type": "node", "id": 8220481907, "lat": 16.4490815, "lon": 121.4549464, "tags": {"place": "hamlet"}}, {"type": "node", "id": 8220554429, "lat": 16.4444614, "lon": 121.4406609, "tags": {"place": "hamlet"}}, {"type": "node", "id": 8235617516, "lat": 16.6543245, "lon": 121.4178193, "tags": {"admin_level": "10", "name": "Caquilingan", "place": "village", "place:PH": "barangay"}}, {"type": "node", "id": 8235740217, "lat": 16.628117, "lon": 121.3991243, "tags": {"admin_level": "10", "designation": "barangay", "name": "Villa Aurora", "place": "village"}}, {"type": "node", "id": 8235740218, "lat": 16.6770598, "lon": 121.3590252, "tags": {"place": "hamlet"}}, {"type": "node", "id": 8235740264, "lat": 16.6795213, "lon": 121.3802469, "tags": {"place": "hamlet"}}, {"type": "node", "id": 8235740581, "lat": 16.690266, "lon": 121.3344026, "tags": {"place": "hamlet"}}, {"type": "node", "id": 8235740583, "lat": 16.7048894, "lon": 121.3985985, "tags": {"place": "hamlet"}}, {"type": "node", "id": 8235740584, "lat": 16.7182324, "lon": 121.4068598, "tags": {"admin_level": "10", "admin_type:PH": "barangay", "name": "Villa Miemban", "place": "village"}}, {"type": "node", "id": 8235740585, "lat": 16.6776559, "lon": 121.4105236, "tags": {"admin_level": "10", "name": "Anonang", "place": "village", "place:PH": "barangay"}}, {"type": "node", "id": 8235740586, "lat": 16.6504494, "lon": 121.3970268, "tags": {"admin_level": "10", "designation": "barangay", "name": "San Luis", "place": "village"}}, {"type": "node", "id": 8235740587, "lat": 16.6116153, "lon": 121.3347888, "tags": {"admin_level": "10", "designation": "barangay", "name": "Nagsabaran", "place": "village"}}, {"type": "node", "id": 8235740588, "lat": 16.6435675, "lon": 121.3442409, "tags": {"place": "hamlet"}}, {"type": "node", "id": 8235740589, "lat": 16.6311753, "lon": 121.3573944, "tags": {"admin_level": "10", "designation": "barangay", "name": "Balete", "place": "village"}}, {"type": "node", "id": 8235740590, "lat": 16.6264105, "lon": 121.3706446, "tags": {"admin_level": "10", "designation": "barangay", "name": "Duruarog", "place": "village"}}, {"type": "node", "id": 8235740591, "lat": 16.6015306, "lon": 121.36123, "tags": {"admin_level": "10", "designation": "barangay", "name": "Lurad", "place": "village"}}, {"type": "node", "id": 8235740616, "lat": 16.7059067, "lon": 121.3542402, "tags": {"admin_level": "10", "designation": "barangay", "name": "Escoting", "place": "village"}}, {"type": "node", "id": 8235740617, "lat": 16.7131229, "lon": 121.371865, "tags": {"admin_level": "10", "admin_type:PH": "barangay", "is_in:town": "Diadi", "name": "San Pablo", "old_ref": "025006017", "place": "village", "population": "825", "ref": "0205006017", "source:population": "Philippine Statistics Authority"}}, {"type": "node", "id": 8235740618, "lat": 16.7240533, "lon": 121.3668801, "tags": {"admin_level": "10", "admin_type:PH": "barangay", "is_in:town": "Diadi", "name": "Arwas", "old_ref": "025006001", "place": "village", "population": "932", "ref": "0205006001", "source:population": "Philippine Statistics Authority"}}, {"type": "node", "id": 8235740619, "lat": 16.7401292, "lon": 121.3648926, "tags": {"admin_level": "10", "admin_type:PH": "barangay", "is_in:town": "Diadi", "name": "Butao", "old_ref": "025006012", "place": "village", "population": "1186", "ref": "020500601", "source:population": "Philippine Statistics Authority"}}, {"type": "node", "id": 8235740620, "lat": 16.751799, "lon": 121.358639, "tags": {"place": "hamlet"}}, {"type": "node", "id": 8235740621, "lat": 16.7567764, "lon": 121.3821673, "tags": {"place": "hamlet"}}, {"type": "node", "id": 8235740622, "lat": 16.7672177, "lon": 121.3886164, "tags": {"admin_level": "10", "admin_type:PH": "barangay", "name": "Taliktik", "place": "village"}}, {"type": "node", "id": 8235741020, "lat": 16.5906112, "lon": 121.3337749, "tags": {"place": "village"}}, {"type": "node", "id": 8235741107, "lat": 16.5862361, "lon": 121.3865715, "tags": {"admin_level": "11", "admin_type:PH": "sitio", "is_in:town": "Diffun", "is_in:village": "Don Faustino Pagaduan", "name": "Turayok", "place": "hamlet"}}, {"type": "node", "id": 8235741239, "lat": 16.5807066, "lon": 121.3674876, "tags": {"place": "hamlet"}}, {"type": "node", "id": 8235741291, "lat": 16.5767735, "lon": 121.3637245, "tags": {"admin_level": "11", "designation": "sitio", "name": "Pallagao", "place": "hamlet"}}, {"type": "node", "id": 8235741292, "lat": 16.5799868, "lon": 121.350528, "tags": {"place": "hamlet"}}, {"type": "node", "id": 8235741293, "lat": 16.5660172, "lon": 121.3892564, "tags": {"place": "hamlet"}}, {"type": "node", "id": 8235741844, "lat": 16.5594511, "lon": 121.3609618, "tags": {"place": "hamlet"}}, {"type": "node", "id": 8235741845, "lat": 16.5643256, "lon": 121.3602403, "tags": {"place": "hamlet"}}, {"type": "node", "id": 8235741932, "lat": 16.5686318, "lon": 121.3553667, "tags": {"admin_level": "10", "designation": "barangay", "name": "Ampakleng", "place": "village"}}, {"type": "node", "id": 8235741933, "lat": 16.5763776, "lon": 121.3980755, "tags": {"place": "hamlet"}}, {"type": "node", "id": 8235742288, "lat": 16.5574843, "lon": 121.4274591, "tags": {"place": "village"}}, {"type": "node", "id": 8235743318, "lat": 16.5522651, "lon": 121.388095, "tags": {"admin_level": "11", "admin_type:PH": "sitio", "is_in:village": "Campamento", "name": "Guinagat", "place": "hamlet"}}, {"type": "node", "id": 8235743331, "lat": 16.542248, "lon": 121.3998163, "tags": {"place": "hamlet"}}, {"type": "node", "id": 8235743332, "lat": 16.5213148, "lon": 121.3962758, "tags": {"place": "hamlet"}}, {"type": "node", "id": 8235743549, "lat": 16.538224, "lon": 121.3497984, "tags": {"place": "hamlet"}}, {"type": "node", "id": 8235743839, "lat": 16.5483005, "lon": 121.3463223, "tags": {"place": "village"}}, {"type": "node", "id": 8235743840, "lat": 16.5557154, "lon": 121.3403034, "tags": {"place": "hamlet"}}, {"type": "node", "id": 8235743841, "lat": 16.5517638, "lon": 121.3359582, "tags": {"place": "hamlet"}}, {"type": "node", "id": 8235744528, "lat": 16.5316493, "lon": 121.359323, "tags": {"admin_level": "10", "admin_type:PH": "barangay", "name": "Dagupan", "place": "village"}}, {"type": "node", "id": 8235748135, "lat": 16.4328385, "lon": 121.3393485, "tags": {"place": "hamlet"}}, {"type": "node", "id": 8261037679, "lat": 16.7800593, "lon": 121.3559005, "tags": {"place": "hamlet"}}, {"type": "node", "id": 8261037682, "lat": 16.7524, "lon": 121.3359475, "tags": {"place": "hamlet"}}, {"type": "node", "id": 8662570382, "lat": 16.8550507, "lon": 121.3920674, "tags": {"admin_level": "10", "is_in:town": "Aguinaldo", "name": "Halag", "place": "village", "place:PH": "barangay"}}, {"type": "node", "id": 9196739590, "lat": 16.7985416, "lon": 121.6993225, "tags": {"name": "Linglingay", "place": "village"}}, {"type": "node", "id": 9196739591, "lat": 16.7557029, "lon": 121.6953984, "tags": {"name": "Victoria", "place": "village"}}, {"type": "node", "id": 9196739592, "lat": 16.7922569, "lon": 121.6758317, "tags": {"name": "Callao", "place": "village"}}, {"type": "node", "id": 9196739593, "lat": 16.7861095, "lon": 121.6836771, "tags": {"name": "Aurora", "place": "village"}}, {"type": "node", "id": 9196739594, "lat": 16.7986777, "lon": 121.6521209, "tags": {"name": "San Pablo", "place": "village"}}, {"type": "node", "id": 9196739595, "lat": 16.8092655, "lon": 121.6689867, "tags": {"name": "Salvacion", "place": "village"}}, {"type": "node", "id": 9196739596, "lat": 16.8357973, "lon": 121.6769153, "tags": {"admin_level": "10", "admin_type:PH": "barangay", "name": "Rizal", "place": "village"}}, {"type": "node", "id": 9196739597, "lat": 16.8193508, "lon": 121.636827, "tags": {"admin_level": "10", "admin_type:PH": "barangay", "is_in:town": "Alicia", "name": "San Pedro", "place": "village"}}, {"type": "node", "id": 9201385063, "lat": 16.794399, "lon": 121.7172235, "tags": {"name": "San Fernando", "place": "village", "population": "1674"}}, {"type": "node", "id": 9201385065, "lat": 16.8555104, "lon": 121.7542668, "tags": {"name": "Alinam", "place": "village"}}, {"type": "node", "id": 9201385067, "lat": 16.8651961, "lon": 121.7253035, "tags": {"name": "Naganacan", "place": "village"}}, {"type": "node", "id": 9351109325, "lat": 16.7129405, "lon": 121.7814919, "tags": {"admin_level": "10", "admin_type:PH": "barangay", "name": "San Vicente", "place": "village"}}, {"type": "node", "id": 9351118435, "lat": 16.7697357, "lon": 121.7871058, "tags": {"admin_level": "10", "admin_type:PH": "barangay", "name": "Lourdes", "place": "village"}}, {"type": "node", "id": 9351118436, "lat": 16.7715283, "lon": 121.7740166, "tags": {"admin_level": "10", "admin_type:PH": "barangay", "is_in:town": "Angadanan", "name": "Santo Ni\u00f1o", "place": "village"}}, {"type": "node", "id": 9351126225, "lat": 16.7716053, "lon": 121.7184922, "tags": {"admin_level": "10", "admin_type:PH": "barangay", "name": "Lomboy", "place": "village"}}, {"type": "node", "id": 9357084214, "lat": 16.6805541, "lon": 121.7195892, "tags": {"admin_level": "10", "admin_type:PH": "barangay", "is_in:town": "Echague", "name": "Babaran", "place": "village"}}, {"type": "node", "id": 9357113693, "lat": 16.6250483, "lon": 121.7489219, "tags": {"admin_level": "10", "designation": "barangay", "name": "Nilumisu", "place": "village"}}, {"type": "node", "id": 9357114670, "lat": 16.7060095, "lon": 121.4515454, "tags": {"admin_level": "10", "admin_type:PH": "barangay", "name": "Wigan", "place": "village"}}, {"type": "node", "id": 9357121490, "lat": 16.7376929, "lon": 121.6918445, "tags": {"admin_level": "10", "admin_type:PH": "barangay", "name": "Castillo", "place": "village"}}, {"type": "node", "id": 9357122540, "lat": 16.6429815, "lon": 121.603471, "tags": {"admin_level": "10", "designation": "barangay", "name": "Arabiat", "place": "village"}}, {"type": "node", "id": 9357124386, "lat": 16.6987596, "lon": 121.7002237, "tags": {"admin_level": "10", "designation": "barangay", "name": "Salay", "place": "village"}}, {"type": "node", "id": 9357127272, "lat": 16.6787967, "lon": 121.625559, "tags": {"admin_level": "10", "admin_type:PH": "barangay", "name": "Santa Monica", "place": "village"}}, {"type": "node", "id": 9357133111, "lat": 16.6902146, "lon": 121.6741526, "tags": {"admin_level": "10", "designation": "barangay", "name": "Dammang East", "place": "village"}}, {"type": "node", "id": 9357138016, "lat": 16.6899243, "lon": 121.689114, "tags": {"admin_level": "10", "designation": "barangay", "name": "Busilelao", "place": "village"}}, {"type": "node", "id": 9357138051, "lat": 16.6277109, "lon": 121.6919839, "tags": {"admin_level": "10", "designation": "barangay", "name": "Bacradal", "place": "village"}}, {"type": "node", "id": 9357138174, "lat": 16.6861861, "lon": 121.7757976, "tags": {"admin_level": "10", "admin_type:PH": "barangay", "name": "Narra", "place": "village"}}, {"type": "node", "id": 9357138519, "lat": 16.6796086, "lon": 121.6656446, "tags": {"admin_level": "10", "designation": "barangay", "name": "Malitao", "place": "village"}}, {"type": "node", "id": 9357138594, "lat": 16.7042523, "lon": 121.6475826, "tags": {"admin_level": "10", "designation": "barangay", "name": "Buneg", "place": "village"}}, {"type": "node", "id": 9357143614, "lat": 16.7035869, "lon": 121.7683196, "tags": {"admin_level": "10", "admin_type:PH": "barangay", "name": "Aromin", "place": "village"}}, {"type": "node", "id": 9357145346, "lat": 16.6477845, "lon": 121.7471945, "tags": {"admin_level": "10", "designation": "barangay", "name": "Caniguing", "place": "village"}}, {"type": "node", "id": 9357151338, "lat": 16.6614476, "lon": 121.637181, "tags": {"admin_level": "10", "admin_type:PH": "barangay", "name": "Libertad", "place": "village"}}, {"type": "node", "id": 9357151646, "lat": 16.6936522, "lon": 121.7421895, "tags": {"admin_level": "10", "designation": "barangay", "name": "Pag-asa", "place": "village"}}, {"type": "node", "id": 9357152973, "lat": 16.6108095, "lon": 121.6775376, "tags": {"admin_level": "10", "designation": "barangay", "name": "Pangal Norte", "place": "village"}}, {"type": "node", "id": 9357153927, "lat": 16.7507151, "lon": 121.6790745, "tags": {"admin_level": "10", "admin_type:PH": "barangay", "name": "Gumbuan", "place": "village"}}, {"type": "node", "id": 9357155581, "lat": 16.6290293, "lon": 121.7746308, "tags": {"admin_level": "10", "designation": "barangay", "name": "San Carlos", "place": "village"}}, {"type": "node", "id": 9357155721, "lat": 16.7040134, "lon": 121.7064652, "tags": {"admin_level": "10", "designation": "barangay", "name": "Dugayong", "place": "village"}}, {"type": "node", "id": 9357158295, "lat": 16.6951166, "lon": 121.6511875, "tags": {"admin_level": "10", "admin_type:PH": "barangay", "name": "Maligaya", "place": "village"}}, {"type": "node", "id": 9357159038, "lat": 16.5809329, "lon": 121.6581291, "tags": {"admin_level": "10", "designation": "barangay", "name": "Villa Victoria", "place": "village"}}, {"type": "node", "id": 9357159059, "lat": 16.6892691, "lon": 121.7067575, "tags": {"admin_level": "10", "designation": "barangay", "name": "Santa Cruz", "place": "village"}}, {"type": "node", "id": 9357159699, "lat": 16.6705232, "lon": 121.7700791, "tags": {"admin_level": "10", "admin_type:PH": "barangay", "is_in:town": "Echague", "name": "Salvacion", "place": "village"}}, {"type": "node", "id": 9357159849, "lat": 16.6148808, "lon": 121.7137045, "tags": {"admin_level": "10", "designation": "barangay", "name": "San Felipe", "place": "village"}}, {"type": "node", "id": 9357161745, "lat": 16.6349891, "lon": 121.7131734, "tags": {"admin_level": "10", "designation": "barangay", "name": "San Salvador", "place": "village"}}, {"type": "node", "id": 9357163338, "lat": 16.6334446, "lon": 121.6395092, "tags": {"admin_level": "10", "admin_type:PH": "barangay", "name": "San Antonio Minit", "place": "village"}}, {"type": "node", "id": 9366393716, "lat": 16.4922716, "lon": 121.5290986, "tags": {"admin_level": "12", "admin_type:PH": "purok", "name": "Purok 1", "place": "neighbourhood"}}, {"type": "node", "id": 9367603311, "lat": 16.5732541, "lon": 121.7211315, "tags": {"admin_level": "10", "admin_type:PH": "barangay", "designation": "barangay", "name": "Diarao", "place": "village", "population": "1694", "population:2015": "1690", "ref": "023115011", "source:population": "Philippine Statistics Authority"}}, {"type": "node", "id": 9375855754, "lat": 16.8016293, "lon": 121.5858328, "tags": {"admin_level": "10", "admin_type:PH": "barangay", "name": "Bantug", "place": "village"}}, {"type": "node", "id": 9375862783, "lat": 16.7434413, "lon": 121.4965528, "tags": {"admin_level": "10", "designation": "barangay", "name": "Villa Carmen", "place": "village"}}, {"type": "node", "id": 9381564744, "lat": 16.4538662, "lon": 121.771388, "tags": {"admin_level": "10", "designation": "barangay", "name": "Dabubu Peque\u00f1o", "place": "village"}}, {"type": "node", "id": 9381566215, "lat": 16.4395157, "lon": 121.7556072, "tags": {"admin_level": "10", "admin_type:PH": "barangay", "is_in:town": "San Agustin", "name": "Sinaoangan Sur", "old_ref": "023127021", "place": "village", "population": "573", "ref": "0203127022", "source:population": "Philippine Statistics Authority"}}, {"type": "node", "id": 9381566216, "lat": 16.4494777, "lon": 121.7531356, "tags": {"admin_level": "10", "admin_type:PH": "barangay", "name": "Sinaoangan Norte", "place": "village"}}, {"type": "node", "id": 9381568164, "lat": 16.4354317, "lon": 121.7774552, "tags": {"admin_level": "10", "admin_type:PH": "barangay", "name": "Salay", "place": "village"}}, {"type": "node", "id": 9381615909, "lat": 16.4896291, "lon": 121.7614746, "tags": {"admin_level": "10", "designation": "barangay", "name": "Quimalabasa Norte", "place": "village"}}, {"type": "node", "id": 9381620971, "lat": 16.4691352, "lon": 121.7592966, "tags": {"admin_level": "10", "designation": "barangay", "name": "Virgonesa", "place": "village"}}, {"type": "node", "id": 9381620998, "lat": 16.467026, "lon": 121.7840776, "tags": {"admin_level": "10", "designation": "barangay", "name": "Santo Ni\u00f1o", "place": "village"}}, {"type": "node", "id": 9381624431, "lat": 16.5272548, "lon": 121.73583, "tags": {"admin_level": "10", "designation": "barangay", "name": "Nemmatan", "place": "village"}}, {"type": "node", "id": 9381626648, "lat": 16.4786057, "lon": 121.7826319, "tags": {"admin_level": "10", "designation": "barangay", "name": "San Antonio", "place": "village"}}, {"type": "node", "id": 9381634477, "lat": 16.4699428, "lon": 121.7404139, "tags": {"admin_level": "10", "designation": "barangay", "name": "Santos", "place": "village"}}, {"type": "node", "id": 9381637648, "lat": 16.4455933, "lon": 121.780175, "tags": {"admin_level": "10", "designation": "barangay", "name": "Dabubu Grande", "place": "village"}}, {"type": "node", "id": 9381638499, "lat": 16.5043038, "lon": 121.7382199, "tags": {"admin_level": "11", "name": "Zone 7", "place": "hamlet"}}, {"type": "node", "id": 9381638500, "lat": 16.5089173, "lon": 121.7463684, "tags": {"amenity": "school", "designation": "barangay", "name": "Masaya Centro", "place": "village"}}, {"type": "node", "id": 9381638501, "lat": 16.4994432, "lon": 121.7474949, "tags": {"admin_level": "10", "designation": "barangay", "name": "Masaya Sur", "place": "village"}}, {"type": "node", "id": 9381638502, "lat": 16.5146263, "lon": 121.7481279, "tags": {"admin_level": "10", "designation": "barangay", "name": "Masaya Norte", "place": "village"}}, {"type": "node", "id": 9381638850, "lat": 16.4784308, "lon": 121.7631966, "tags": {"admin_level": "10", "designation": "barangay", "name": "Quimalabasa Sur", "place": "village"}}, {"type": "node", "id": 9381639401, "lat": 16.4781761, "lon": 121.7876127, "tags": {"admin_level": "10", "designation": "barangay", "name": "Mapalad", "place": "village"}}, {"type": "node", "id": 9381669208, "lat": 16.7337552, "lon": 121.6247544, "tags": {"admin_level": "10", "designation": "barangay", "name": "Rizal West", "place": "village"}}, {"type": "node", "id": 9381684174, "lat": 16.7172819, "lon": 121.6346115, "tags": {"admin_level": "10", "designation": "barangay", "name": "Victoria", "place": "village"}}, {"type": "node", "id": 9381707164, "lat": 16.6962984, "lon": 121.625787, "tags": {"admin_level": "10", "admin_type:PH": "barangay", "name": "Quezon", "place": "village"}}, {"type": "node", "id": 9381715826, "lat": 16.7402666, "lon": 121.6552806, "tags": {"admin_level": "10", "admin_type:PH": "barangay", "name": "Patanad", "place": "village"}}, {"type": "node", "id": 9381722551, "lat": 16.7357664, "lon": 121.5942013, "tags": {"admin_level": "11", "designation": "sitio", "name": "Capayacan", "place": "hamlet"}}, {"type": "node", "id": 9381727953, "lat": 16.7552303, "lon": 121.5950704, "tags": {"admin_level": "10", "admin_type:PH": "barangay", "name": "Cebu", "place": "village"}}, {"type": "node", "id": 9407613671, "lat": 16.662, "lon": 121.470809, "tags": {"admin_level": "10", "designation": "barangay", "name": "Sagat", "place": "village"}}, {"type": "node", "id": 9407613672, "lat": 16.6677276, "lon": 121.4691245, "tags": {"admin_level": "10", "designation": "barangay", "name": "Turod Sur", "place": "village"}}, {"type": "node", "id": 9407647948, "lat": 16.6800454, "lon": 121.4697361, "tags": {"admin_level": "10", "designation": "barangay", "name": "Turod Norte", "place": "village"}}, {"type": "node", "id": 9407647949, "lat": 16.6768183, "lon": 121.4730191, "tags": {"admin_level": "10", "designation": "barangay", "name": "Taringsing", "place": "village"}}, {"type": "node", "id": 9407806673, "lat": 16.7310453, "lon": 121.4460361, "tags": {"admin_level": "10", "admin_type:PH": "barangay", "name": "Camarao", "place": "village"}}, {"type": "node", "id": 9407876883, "lat": 16.7489069, "lon": 121.4554775, "tags": {"admin_level": "10", "admin_type:PH": "barangay", "name": "Rizaluna", "place": "village"}}, {"type": "node", "id": 9407997644, "lat": 16.7759916, "lon": 121.4733303, "tags": {"admin_level": "10", "admin_type:PH": "barangay", "name": "Planas", "place": "village"}}, {"type": "node", "id": 9410652364, "lat": 16.5429731, "lon": 121.7094773, "tags": {"admin_level": "10", "designation": "barangay", "name": "San Jose", "place": "village"}}, {"type": "node", "id": 9410652366, "lat": 16.5496169, "lon": 121.7175829, "tags": {"admin_level": "10", "designation": "barangay", "name": "Disimpit", "place": "village"}}, {"type": "node", "id": 9410653501, "lat": 16.5222791, "lon": 121.7230976, "tags": {"admin_level": "10", "designation": "barangay", "name": "Fugu", "place": "village"}}, {"type": "node", "id": 9410684811, "lat": 16.5823904, "lon": 121.6818452, "tags": {"admin_level": "10", "admin_type:PH": "barangay", "name": "Payac", "place": "village"}}, {"type": "node", "id": 9410708777, "lat": 16.568894, "lon": 121.6546208, "tags": {"admin_level": "10", "designation": "barangay", "name": "Malannit", "place": "village"}}, {"type": "node", "id": 9413297708, "lat": 16.5652074, "lon": 121.7396629, "tags": {"admin_level": "10", "designation": "barangay", "name": "Bantay", "place": "village"}}, {"type": "node", "id": 9413364121, "lat": 16.5695162, "lon": 121.7096436, "tags": {"admin_level": "10", "admin_type:PH": "barangay", "name": "San Vicente", "place": "village"}}, {"type": "node", "id": 9413398186, "lat": 16.5498843, "lon": 121.6736698, "tags": {"admin_level": "10", "designation": "barangay", "name": "Lacab", "place": "village"}}, {"type": "node", "id": 9415820135, "lat": 16.7160694, "lon": 121.7092144, "tags": {"admin_level": "10", "designation": "barangay", "name": "Carulay", "place": "village"}}, {"type": "node", "id": 9415857947, "lat": 16.7085322, "lon": 121.7211422, "tags": {"admin_level": "10", "designation": "barangay", "name": "Annafunan", "place": "village"}}, {"type": "node", "id": 9418060213, "lat": 16.6580094, "lon": 121.3733643, "tags": {"admin_level": "10", "admin_type:PH": "barangay", "name": "Bugnay", "place": "village"}}, {"type": "node", "id": 9418068994, "lat": 16.6313809, "lon": 121.4313805, "tags": {"admin_level": "10", "designation": "barangay", "name": "Villa Florentino", "place": "village"}}, {"type": "node", "id": 9418494922, "lat": 16.6750248, "lon": 121.6016149, "tags": {"admin_level": "10", "designation": "barangay", "name": "Nagasican", "place": "village"}}, {"type": "node", "id": 9418587116, "lat": 16.6668385, "lon": 121.5777647, "tags": {"admin_level": "10", "designation": "barangay", "name": "Nabbuan", "place": "village"}}, {"type": "node", "id": 9420739899, "lat": 16.7808015, "lon": 121.5719712, "tags": {"admin_level": "10", "admin_type:PH": "barangay", "name": "San Sebastian", "place": "village"}}, {"type": "node", "id": 9420739900, "lat": 16.7733567, "lon": 121.5771532, "tags": {"admin_level": "10", "designation": "barangay", "name": "Pabil", "place": "village"}}, {"type": "node", "id": 9420855819, "lat": 16.8077404, "lon": 121.5313142, "tags": {"admin_level": "10", "designation": "barangay", "name": "Burgos", "place": "village"}}, {"type": "node", "id": 9420940697, "lat": 16.8214536, "lon": 121.5497088, "tags": {"admin_level": "10", "designation": "barangay", "name": "Villa Beltran", "place": "village"}}, {"type": "node", "id": 9420947774, "lat": 16.8360848, "lon": 121.5380305, "tags": {"admin_level": "10", "designation": "barangay", "name": "Sinamar Sur", "place": "village"}}, {"type": "node", "id": 9421894123, "lat": 16.4832737, "lon": 121.4421036, "tags": {"admin_level": "12", "name": "Purok 1", "place": "neighbourhood"}}, {"type": "node", "id": 9421900694, "lat": 16.6385144, "lon": 121.4850089, "tags": {"admin_level": "10", "admin_type:PH": "barangay", "name": "San Antonio", "place": "village", "population": "1365", "ref": "025703027", "source:population": "PSA Census 2020", "source:ref": "PSA"}}, {"type": "node", "id": 9431486644, "lat": 16.8467643, "lon": 121.7471087, "tags": {"admin_level": "10", "admin_type:PH": "barangay", "name": "M. H. del Pilar", "place": "village"}}, {"type": "node", "id": 9439605085, "lat": 16.8489874, "lon": 121.6538966, "tags": {"admin_level": "10", "designation": "barangay", "name": "Santo Domingo", "place": "village"}}, {"type": "node", "id": 9439671664, "lat": 16.8590295, "lon": 121.6829717, "tags": {"admin_level": "10", "designation": "barangay", "name": "San Juan", "place": "village"}}, {"type": "node", "id": 9439691102, "lat": 16.8661218, "lon": 121.6129929, "tags": {"admin_level": "10", "admin_type:PH": "barangay", "name": "Salinungan West", "place": "village"}}, {"type": "node", "id": 9466631387, "lat": 16.7215012, "lon": 121.5008805, "tags": {"admin_level": "10", "admin_type:PH": "barangay", "designation": "barangay", "is_in:city": "Santiago", "name": "Cabulay", "place": "village"}}, {"type": "node", "id": 9466666341, "lat": 16.7206214, "lon": 121.4828575, "tags": {"admin_level": "10", "admin_type:PH": "barangay", "name": "San Juan", "place": "village"}}, {"type": "node", "id": 9466742380, "lat": 16.6884264, "lon": 121.5033173, "tags": {"admin_level": "10", "admin_type:PH": "barangay", "name": "Malapat", "place": "village"}}, {"type": "node", "id": 9469123235, "lat": 16.6281658, "lon": 121.483646, "tags": {"admin_level": "10", "admin_type:PH": "barangay", "name": "Diego Silang", "place": "village"}}, {"type": "node", "id": 9469193029, "lat": 16.7242707, "lon": 121.4671284, "tags": {"admin_level": "10", "admin_type:PH": "barangay", "name": "Villa Marzo", "place": "village"}}, {"type": "node", "id": 9469225265, "lat": 16.7320023, "lon": 121.4819303, "tags": {"admin_level": "10", "admin_type:PH": "barangay", "is_in:town": "Cordon", "name": "Aguinaldo", "place": "village"}}, {"type": "node", "id": 9469250958, "lat": 16.6862724, "lon": 121.4566503, "tags": {"admin_level": "10", "designation": "barangay", "name": "Quirino", "place": "village"}}, {"type": "node", "id": 9481365687, "lat": 16.5065617, "lon": 121.6698289, "tags": {"admin_level": "10", "designation": "barangay", "name": "San Roque", "place": "village"}}, {"type": "node", "id": 9481365688, "lat": 16.4995692, "lon": 121.6679352, "tags": {"admin_level": "10", "designation": "barangay", "name": "Barangcuag", "place": "village"}}, {"type": "node", "id": 9481391810, "lat": 16.5163749, "lon": 121.6833258, "tags": {"admin_level": "10", "designation": "barangay", "name": "San Antonio", "place": "village"}}, {"type": "node", "id": 9481476353, "lat": 16.5302093, "lon": 121.6592288, "tags": {"admin_level": "10", "admin_type:PH": "barangay", "is_in:province": "Isabela", "is_in:town": "Jones", "name": "Divinan", "place": "village"}}, {"type": "node", "id": 9481521349, "lat": 16.5674492, "lon": 121.6834009, "tags": {"admin_level": "10", "designation": "barangay", "name": "Dipangit", "place": "village"}}, {"type": "node", "id": 9481526502, "lat": 16.5860304, "lon": 121.7065376, "tags": {"admin_level": "10", "designation": "barangay", "name": "San Isidro", "place": "village"}}, {"type": "node", "id": 9481582189, "lat": 16.5977109, "lon": 121.7674076, "tags": {"admin_level": "10", "admin_type:PH": "barangay", "name": "San Sebastian", "place": "village"}}, {"type": "node", "id": 9481680514, "lat": 16.5726628, "lon": 121.786344, "tags": {"admin_level": "10", "designation": "barangay", "name": "Namnama", "place": "village"}}, {"type": "node", "id": 9487072847, "lat": 16.8645509, "lon": 121.5747687, "tags": {"admin_level": "10", "designation": "barangay", "name": "San Manuel", "place": "village"}}, {"type": "node", "id": 9487144511, "lat": 16.8398253, "lon": 121.5728268, "tags": {"admin_level": "10", "designation": "barangay", "name": "Villa Fuerte", "place": "village"}}, {"type": "node", "id": 9487158412, "lat": 16.8267039, "lon": 121.541394, "tags": {"admin_level": "10", "designation": "barangay", "name": "San Marcos", "place": "village"}}, {"type": "node", "id": 9487211733, "lat": 16.8283059, "lon": 121.5170717, "tags": {"admin_level": "10", "designation": "barangay", "name": "Ambatali", "place": "village"}}, {"type": "node", "id": 9487223403, "lat": 16.8033548, "lon": 121.5764344, "tags": {"admin_level": "10", "admin_type:PH": "barangay", "name": "Nagbacalan", "place": "village"}}, {"type": "node", "id": 9487309810, "lat": 16.7986867, "lon": 121.6177136, "tags": {"admin_level": "10", "designation": "barangay", "name": "Bagong Sikat", "place": "village"}}, {"type": "node", "id": 9487363989, "lat": 16.7861647, "lon": 121.6024652, "tags": {"admin_level": "10", "designation": "barangay", "name": "Bonifacio", "place": "village"}}, {"type": "node", "id": 9487363990, "lat": 16.7682128, "lon": 121.61571, "tags": {"admin_level": "10", "designation": "barangay", "name": "Gud", "place": "village"}}, {"type": "node", "id": 9487368142, "lat": 16.8036064, "lon": 121.6068131, "tags": {"admin_level": "10", "designation": "barangay", "name": "Bantug Petines", "place": "village"}}, {"type": "node", "id": 9487416743, "lat": 16.7816258, "lon": 121.5888423, "tags": {"admin_level": "10", "admin_type:PH": "barangay", "name": "Inanama", "place": "village"}}, {"type": "node", "id": 9487443138, "lat": 16.761348, "lon": 121.5608534, "tags": {"admin_level": "10", "designation": "barangay", "name": "Villa Marcos", "place": "village"}}, {"type": "node", "id": 9487455069, "lat": 16.8070163, "lon": 121.6277853, "tags": {"admin_level": "10", "designation": "barangay", "name": "Bagnos", "place": "village"}}, {"type": "node", "id": 9492892525, "lat": 16.8452651, "lon": 121.5452886, "tags": {"admin_level": "10", "admin_type:PH": "barangay", "name": "Sinamar Norte", "place": "village"}}, {"type": "node", "id": 9492910869, "lat": 16.8573969, "lon": 121.5628838, "tags": {"admin_level": "10", "admin_type:PH": "barangay", "name": "Villa Magat", "place": "village"}}, {"type": "node", "id": 9492916962, "lat": 16.851693, "lon": 121.6047317, "tags": {"admin_level": "10", "admin_type:PH": "barangay", "name": "Victoria", "place": "village"}}, {"type": "node", "id": 9532711244, "lat": 16.8245704, "lon": 121.7254311, "tags": {"admin_level": "10", "admin_type:PH": "barangay", "name": "Zamora", "place": "village"}}, {"type": "node", "id": 9532711245, "lat": 16.8264318, "lon": 121.7293954, "tags": {"admin_level": "10", "admin_type:PH": "barangay", "name": "Burgos", "place": "village"}}, {"type": "node", "id": 9532748962, "lat": 16.8184471, "lon": 121.7281347, "tags": {"admin_level": "10", "designation": "barangay", "name": "Mabini", "place": "village"}}, {"type": "node", "id": 9532875955, "lat": 16.8349116, "lon": 121.7399311, "tags": {"admin_level": "10", "admin_type:PH": "barangay", "name": "Rizaluna", "place": "village"}}, {"type": "node", "id": 9532891279, "lat": 16.7935999, "lon": 121.7451158, "tags": {"admin_level": "10", "admin_type:PH": "barangay", "name": "San Ambrocio", "place": "village"}}, {"type": "node", "id": 9532891287, "lat": 16.7864587, "lon": 121.73778, "tags": {"admin_level": "10", "designation": "barangay", "name": "Dalakip", "place": "village"}}, {"type": "node", "id": 9532971151, "lat": 16.8348859, "lon": 121.7948198, "tags": {"admin_level": "10", "designation": "barangay", "name": "Villa Domingo", "place": "village"}}, {"type": "node", "id": 9533092569, "lat": 16.767165, "lon": 121.7643714, "tags": {"admin_level": "10", "admin_type:PH": "barangay", "is_in:town": "Angadanan", "name": "Salay", "place": "village"}}, {"type": "node", "id": 9533119115, "lat": 16.7608754, "lon": 121.7696285, "tags": {"admin_level": "10", "designation": "barangay", "name": "Bunnay", "place": "village"}}, {"type": "node", "id": 9535394447, "lat": 16.7700285, "lon": 121.4390945, "tags": {"admin_level": "10", "admin_type:PH": "barangay", "name": "Dallao", "place": "village"}}, {"type": "node", "id": 9535439906, "lat": 16.6499971, "lon": 121.4798534, "tags": {"admin_level": "10", "designation": "barangay", "name": "Gayong", "place": "village"}}, {"type": "node", "id": 9739921260, "lat": 16.7572747, "lon": 121.4930552, "tags": {"admin_level": "10", "admin_type:PH": "barangay", "is_in:town": "Ramon", "name": "Pagrang-ayan", "place": "village"}}, {"type": "node", "id": 9739940187, "lat": 16.8070317, "lon": 121.7224324, "tags": {"name": "La Fortuna Homes", "place": "neighbourhood"}}, {"type": "node", "id": 9813531362, "lat": 16.7183917, "lon": 121.5018207, "tags": {"admin_level": "12", "admin_type:PH": "purok", "is_in": "Cabulay;Santiago", "name": "Purok 3", "place": "neighbourhood", "source:name": "extrapolated from way:773670601"}}, {"type": "node", "id": 9813531363, "lat": 16.7203285, "lon": 121.5022163, "tags": {"admin_level": "12", "admin_type:PH": "purok", "is_in": "Cabulay;Santiago", "name": "Purok 4", "place": "neighbourhood", "source:name": "extrapolated from way:846833953"}}, {"type": "node", "id": 10243010705, "lat": 16.43849, "lon": 121.6367231, "tags": {"admin_level": "11", "designation": "purok", "is_in:village": "Victoria", "name": "Purok 2", "place": "hamlet"}}, {"type": "node", "id": 10872525876, "lat": 16.7867001, "lon": 121.7595434, "tags": {"admin_level": "10", "admin_type:PH": "barangay", "is_in:town": "Angadanan", "name": "Consular", "place": "village"}}, {"type": "node", "id": 10872558511, "lat": 16.7879686, "lon": 121.7654926, "tags": {"admin_level": "10", "admin_type:PH": "barangay", "is_in:town": "Angadanan", "name": "Esperanza", "place": "village"}}, {"type": "node", "id": 10872558568, "lat": 16.7939203, "lon": 121.7642668, "tags": {"admin_level": "10", "admin_type:PH": "barangay", "is_in:town": "Angadanan", "name": "Fugaru", "place": "village"}}, {"type": "node", "id": 10872726032, "lat": 16.7600998, "lon": 121.7205548, "tags": {"admin_level": "10", "admin_type:PH": "barangay", "name": "Minanga Proper", "place": "village"}}, {"type": "node", "id": 10872726033, "lat": 16.770031, "lon": 121.7130768, "tags": {"admin_level": "10", "designation": "barangay", "name": "Baniket", "place": "village"}}, {"type": "node", "id": 10917506858, "lat": 16.7977777, "lon": 121.7609207, "tags": {"admin_level": "10", "admin_type:PH": "barangay", "is_in:town": "Angadanan", "name": "Ingud Sur", "place": "village"}}, {"type": "node", "id": 10917506859, "lat": 16.8098099, "lon": 121.762459, "tags": {"admin_level": "10", "admin_type:PH": "barangay", "is_in:town": "Angadanan", "name": "Ingud Norte", "place": "village"}}, {"type": "node", "id": 10917506860, "lat": 16.8167962, "lon": 121.7667291, "tags": {"admin_level": "10", "admin_type:PH": "barangay", "is_in:town": "Angadanan", "name": "Ramona", "place": "village"}}, {"type": "node", "id": 11163137299, "lat": 16.695311, "lon": 121.5999096, "tags": {"access": "private", "barrier": "gate"}}, {"type": "node", "id": 11163230893, "lat": 16.7281119, "lon": 121.7633629, "tags": {"admin_level": "10", "admin_type:PH": "barangay", "is_in:town": "Angadanan", "name": "Macalauat", "place": "village"}}, {"type": "node", "id": 11163393322, "lat": 16.6827226, "lon": 121.5597671, "tags": {"name": "Santiago Heights Subdivision", "place": "neighbourhood"}}, {"type": "node", "id": 11163499444, "lat": 16.6910316, "lon": 121.5278435, "tags": {"admin_level": "11", "name": "Villa Ceferina Subdivision", "place": "neighbourhood"}}, {"type": "node", "id": 11163499445, "lat": 16.6896006, "lon": 121.5324998, "tags": {"name": "Glorietta Silverland Subdivision", "place": "neighbourhood"}}, {"type": "node", "id": 11163513300, "lat": 16.7932225, "lon": 121.5332293, "tags": {"name": "BLISS Housing", "place": "neighbourhood"}}, {"type": "node", "id": 11233598605, "lat": 16.8242553, "lon": 121.6556278, "tags": {"place": "village"}}, {"type": "node", "id": 11233598606, "lat": 16.8240576, "lon": 121.6544391, "tags": {"place": "village"}}, {"type": "node", "id": 11233598607, "lat": 16.8249769, "lon": 121.6553664, "tags": {"place": "village"}}, {"type": "node", "id": 11233598608, "lat": 16.825807, "lon": 121.6555293, "tags": {"place": "village"}}, {"type": "node", "id": 11233598609, "lat": 16.8259216, "lon": 121.6552301, "tags": {"place": "village"}}, {"type": "node", "id": 11233598610, "lat": 16.8245303, "lon": 121.6571083, "tags": {"place": "village"}}, {"type": "node", "id": 11233598611, "lat": 16.8244465, "lon": 121.6578819, "tags": {"place": "village"}}, {"type": "node", "id": 11233598612, "lat": 16.8245265, "lon": 121.6563108, "tags": {"place": "village"}}, {"type": "node", "id": 11233624795, "lat": 16.8186316, "lon": 121.6566532}, {"type": "node", "id": 11233624796, "lat": 16.8188939, "lon": 121.6570726}, {"type": "node", "id": 11233624797, "lat": 16.8185133, "lon": 121.6573324}, {"type": "node", "id": 11233624798, "lat": 16.818251, "lon": 121.656913}, {"type": "node", "id": 11233640034, "lat": 16.6957988, "lon": 121.5468882, "tags": {"place": "village"}}, {"type": "node", "id": 11233640035, "lat": 16.6955896, "lon": 121.5456926}, {"type": "node", "id": 11233640036, "lat": 16.6955442, "lon": 121.5463648}, {"type": "node", "id": 11233644637, "lat": 16.6950442, "lon": 121.5463411}, {"type": "node", "id": 11233644638, "lat": 16.6950215, "lon": 121.5454712}, {"type": "node", "id": 11233644643, "lat": 16.6949666, "lon": 121.5472056}, {"type": "node", "id": 11233644644, "lat": 16.6942596, "lon": 121.5475263}, {"type": "node", "id": 11233644645, "lat": 16.6942777, "lon": 121.546143}, {"type": "node", "id": 11233644980, "lat": 16.8275765, "lon": 121.5212555, "tags": {"place": "village"}}, {"type": "node", "id": 11233644981, "lat": 16.8280213, "lon": 121.5227916, "tags": {"place": "village"}}, {"type": "node", "id": 11233644982, "lat": 16.8261185, "lon": 121.521178, "tags": {"place": "village"}}, {"type": "node", "id": 11233644983, "lat": 16.8265386, "lon": 121.5239921, "tags": {"place": "village"}}, {"type": "node", "id": 11233644984, "lat": 16.8263779, "lon": 121.5221591, "tags": {"place": "village"}}, {"type": "node", "id": 11594670053, "lat": 16.6948648, "lon": 121.5474424}, {"type": "node", "id": 11594670055, "lat": 16.6949021, "lon": 121.5460933}, {"type": "node", "id": 11630715450, "lat": 16.6879476, "lon": 121.5586389}, {"type": "node", "id": 12104034279, "lat": 16.6525052, "lon": 121.6665995, "tags": {"admin_level": "10", "admin_type:PH": "barangay", "name": "Garit Sur", "place": "village"}}, {"type": "node", "id": 12104034284, "lat": 16.6580248, "lon": 121.6583088, "tags": {"admin_level": "10", "admin_type:PH": "barangay", "name": "Garit Norte", "place": "village"}}, {"type": "node", "id": 12104078610, "lat": 16.8469132, "lon": 121.706661, "tags": {"admin_level": "10", "admin_type:PH": "barangay", "name": "San Francisco", "place": "village"}}, {"type": "node", "id": 12112385926, "lat": 16.804043, "lon": 121.7808187, "tags": {"admin_level": "10", "admin_type:PH": "barangay", "name": "Malannao", "place": "village"}}, {"type": "node", "id": 12112385927, "lat": 16.8022096, "lon": 121.7859256, "tags": {"admin_level": "10", "admin_type:PH": "barangay", "name": "Malasin", "place": "village"}}, {"type": "node", "id": 12112385928, "lat": 16.7781564, "lon": 121.7550024, "tags": {"admin_level": "10", "admin_type:PH": "barangay", "name": "Cumu", "place": "village"}}, {"type": "node", "id": 12112399945, "lat": 16.7361671, "lon": 121.6402173, "tags": {"admin_level": "10", "admin_type:PH": "barangay", "name": "Gomez", "place": "village"}}, {"type": "node", "id": 12112399946, "lat": 16.7359, "lon": 121.6484892, "tags": {"admin_level": "10", "admin_type:PH": "barangay", "name": "Camarag", "place": "village"}}, {"type": "node", "id": 12112403843, "lat": 16.6992991, "lon": 121.6136742, "tags": {"admin_level": "10", "admin_type:PH": "barangay", "is_in:town": "San Isidro", "name": "Ramos East", "place": "village"}}, {"type": "node", "id": 12112403844, "lat": 16.6997873, "lon": 121.6092861, "tags": {"admin_level": "10", "admin_type:PH": "barangay", "is_in:town": "San Isidro", "name": "Ramos West", "place": "village"}}, {"type": "node", "id": 12112409894, "lat": 16.8297706, "lon": 121.7977998, "tags": {"admin_level": "10", "admin_type:PH": "barangay", "name": "Canangan", "place": "village"}}, {"type": "node", "id": 12185736178, "lat": 16.679326, "lon": 121.4086622, "tags": {"admin_level": "10", "admin_type:PH": "barangay", "is_in:town": "Cordon", "name": "Anonang", "old_ref": "023109025", "place": "village", "population": "1882", "ref": "0203109025", "source:population": "Philippine Statistics Authority"}}, {"type": "node", "id": 12310653505, "lat": 16.6745893, "lon": 121.534722}, {"type": "node", "id": 12310653507, "lat": 16.679087, "lon": 121.5342164}, {"type": "node", "id": 12310653508, "lat": 16.6785655, "lon": 121.5348279}, {"type": "node", "id": 12310653509, "lat": 16.6777278, "lon": 121.5357319}, {"type": "node", "id": 12310653510, "lat": 16.6778345, "lon": 121.5361221}, {"type": "node", "id": 12310653511, "lat": 16.677327, "lon": 121.5379098}, {"type": "node", "id": 12310653512, "lat": 16.6735448, "lon": 121.5338328}, {"type": "node", "id": 12310653513, "lat": 16.6731337, "lon": 121.5317917}, {"type": "node", "id": 12310653514, "lat": 16.6749722, "lon": 121.5307336}, {"type": "node", "id": 12310653515, "lat": 16.6752548, "lon": 121.5308207}, {"type": "node", "id": 12311771251, "lat": 16.505569, "lon": 121.3719535, "tags": {"admin_level": "11", "admin_type:PH": "sitio", "is_in:town": "Diffun", "is_in:village": "Don Mariano Perez Sr.", "name": "Eden", "place": "hamlet"}}, {"type": "node", "id": 12607641858, "lat": 16.7017603, "lon": 121.6644323, "tags": {"admin_level": "10", "admin_type:PH": "barangay", "is_in:town": "Echague", "name": "Soyung", "place": "village"}}, {"type": "node", "id": 12607657019, "lat": 16.6965502, "lon": 121.6416281, "tags": {"admin_level": "10", "admin_type:PH": "barangay", "name": "Ipil", "place": "village"}}, {"type": "node", "id": 12623649099, "lat": 16.7643117, "lon": 121.6879231, "tags": {"admin_level": "10", "admin_type:PH": "barangay", "is_in:town": "Alicia", "name": "Santa Maria", "place": "village"}}, {"type": "node", "id": 12623747163, "lat": 16.7652414, "lon": 121.731509, "tags": {"admin_level": "10", "admin_type:PH": "barangay", "is_in:town": "Angadanan", "name": "Calabayan-Minanga", "place": "village"}}, {"type": "node", "id": 12623789394, "lat": 16.7268892, "lon": 121.7266488, "tags": {"admin_level": "10", "admin_type:PH": "barangay", "is_in:town": "Angadanan", "name": "Calaccab", "place": "village"}}, {"type": "node", "id": 12623789399, "lat": 16.7353478, "lon": 121.7165261, "tags": {"admin_level": "10", "admin_type:PH": "barangay", "is_in:town": "Angadanan", "name": "Dalenat", "place": "village"}}, {"type": "node", "id": 12623789400, "lat": 16.7426913, "lon": 121.7128408, "tags": {"admin_level": "10", "admin_type:PH": "barangay", "is_in:town": "Angadanan", "name": "Allangigan", "place": "village"}}, {"type": "node", "id": 12623833220, "lat": 16.7272719, "lon": 121.7051241, "tags": {"admin_level": "10", "admin_type:PH": "barangay", "is_in:town": "Echague", "name": "Sinabbaran", "place": "village"}}, {"type": "node", "id": 12623833221, "lat": 16.7376775, "lon": 121.7014038, "tags": {"admin_level": "10", "admin_type:PH": "barangay", "is_in:town": "Angadanan", "name": "Sinabbaran", "place": "village"}}, {"type": "node", "id": 12625976986, "lat": 16.7175116, "lon": 121.7612067, "tags": {"admin_level": "10", "admin_type:PH": "barangay", "is_in:town": "Angadanan", "name": "San Isidro", "place": "village"}}, {"type": "node", "id": 12626037703, "lat": 16.7489609, "lon": 121.7272389, "tags": {"admin_level": "10", "admin_type:PH": "barangay", "is_in:town": "Angadanan", "name": "Aniog", "place": "village"}}, {"type": "node", "id": 12626037734, "lat": 16.7363532, "lon": 121.7433885, "tags": {"admin_level": "10", "admin_type:PH": "barangay", "is_in:town": "Angadanan", "name": "Bantug", "place": "village"}}, {"type": "node", "id": 12626037735, "lat": 16.7368659, "lon": 121.7385247, "tags": {"admin_level": "10", "admin_type:PH": "barangay", "is_in:town": "Angadanan", "name": "Loria", "place": "village"}}, {"type": "node", "id": 12626132922, "lat": 16.5817735, "lon": 121.7017364, "tags": {"admin_level": "10", "admin_type:PH": "barangay", "is_in:town": "Jones", "name": "San Isidro", "place": "village"}}, {"type": "node", "id": 12626132929, "lat": 16.5946752, "lon": 121.6799033, "tags": {"admin_level": "10", "admin_type:PH": "barangay", "is_in:town": "Jones", "name": "Dalibubon", "place": "village"}}, {"type": "node", "id": 12652993702, "lat": 16.6393452, "lon": 121.5083921, "tags": {"admin_level": "10", "admin_type:PH": "barangay", "is_in:city": "Santiago", "is_in:province": "Isabela", "name": "San Isidro", "place": "village"}}, {"type": "node", "id": 12713024877, "lat": 16.4875304, "lon": 121.5905642, "tags": {"admin_level": "10", "admin_type:PH": "barangay", "name": "San Leonardo", "old_name": "Cabarroguis", "place": "village"}}, {"type": "node", "id": 12713024878, "lat": 16.4931371, "lon": 121.5847492, "tags": {"admin_level": "10", "admin_type:PH": "barangay", "name": "Ligaya", "place": "village"}}, {"type": "node", "id": 12713871916, "lat": 16.5193733, "lon": 121.5281707, "tags": {"admin_level": "11", "admin_type:PH": "purok", "name": "Purok 1", "place": "hamlet"}}, {"type": "node", "id": 12769991651, "lat": 16.7803547, "lon": 121.5349245, "tags": {"admin_level": "10", "admin_type:PH": "barangay", "is_in:town": "Ramon", "name": "Bugallon Proper", "old_ref": "023124022", "place": "neighbourhood", "place:PH": "barangay", "population": "7335", "population:date": "2020-05-01", "ref": "0203124022"}}, {"type": "node", "id": 12780092708, "lat": 16.7725606, "lon": 121.5368074, "tags": {"admin_level": "11", "admin_type:PH": "purok", "is_in:neighbourhood": "Bugallon Proper", "is_in:town": "Ramon", "name": "Purok 7", "place": "hamlet", "place:PH": "purok"}}, {"type": "way", "id": 168193521, "nodes": [1794817562, 1794817608, 11630715450, 1794817592, 1794817590, 1794817578, 1794817565, 1794817562], "tags": {"landuse": "residential", "name": "Camella Field Subdivision", "place": "neighbourhood", "residential": "detached"}}, {"type": "way", "id": 228400036, "nodes": [2370796905, 11163137299, 2370796904, 2370796906, 2502553402, 2502553401, 2502528990, 2368264764, 2370796905], "tags": {"landuse": "residential", "name": "Sefton Village", "place": "neighbourhood", "place:PH": "village"}}, {"type": "way", "id": 432546937, "nodes": [4315543135, 4315543137, 4315543140, 4315543138, 4315543136, 12310653515, 2411876252, 4315543135], "tags": {"landuse": "residential", "name": "Silverland Homes", "name:es": "Casas Silverland", "place": "neighbourhood", "residential": "detached"}}, {"type": "way", "id": 1212503770, "nodes": [11233624795, 11233624796, 11233624797, 11233624798, 11233624795], "tags": {"place": "village"}}, {"type": "way", "id": 1212505811, "nodes": [11233640035, 11233640036, 11233644637, 11233644638, 11233640035], "tags": {"place": "village"}}, {"type": "way", "id": 1212505813, "nodes": [11594670055, 11233644643, 11594670053, 11233644644, 11233644645, 11594670055], "tags": {"place": "village"}}, {"type": "way", "id": 1330518367, "nodes": [12310653514, 12310653513, 2411875780, 12310653512, 12310653505, 12310653511, 12310653510, 12310653509, 12310653508, 12310653507, 12310653514], "tags": {"landuse": "residential", "name": "Valley Homes", "place": "neighbourhood", "residential": "detached"}}]}