{"version": 0.6, "generator": "Overpass API 0.7.62.5 1bd436f1", "osm3s": {"timestamp_osm_base": "2025-05-24T17:48:14Z", "copyright": "The data included in this document is from www.openstreetmap.org. The data is made available under ODbL."}, "elements": [{"type": "node", "id": 3294492055, "lat": 11.927186, "lon": 119.8775325, "tags": {"admin_level": "10", "designation": "barangay", "is_in:town": "Culion", "name": "Galoc", "place": "village", "source:name": "extrapolated from OSMaPaaralan, way/819745018"}}, {"type": "node", "id": 3294492289, "lat": 11.9393825, "lon": 119.9396916, "tags": {"name": "Danat", "place": "village"}}, {"type": "node", "id": 3294492290, "lat": 11.9317513, "lon": 119.9409039, "tags": {"name": "Cabuyao", "place": "village"}}, {"type": "node", "id": 3294492291, "lat": 11.919218, "lon": 119.9314877, "tags": {"admin_level": "10", "alt_name": "Loac", "designation": "barangay", "is_in:town": "Culion", "name": "Luac", "place": "hamlet", "source:name": "extrapolated from OSMaPaaralan, way/819744975"}}, {"type": "node", "id": 3294577018, "lat": 11.8427357, "lon": 119.9172085, "tags": {"admin_level": "11", "is_in:town": "Culion", "name": "Bonongan", "place": "hamlet", "postal_code": "5315"}}, {"type": "node", "id": 3294577019, "lat": 11.8632686, "lon": 119.8993531, "tags": {"admin_level": "11", "is_in:town": "Culion", "name": "Kabel Kabel", "place": "hamlet", "postal_code": "5315"}}, {"type": "node", "id": 3294577020, "lat": 11.8796397, "lon": 119.8856845, "tags": {"admin_level": "11", "is_in:town": "Culion", "name": "Damipac", "place": "hamlet", "postal_code": "5315"}}, {"type": "node", "id": 3294577038, "lat": 11.9494531, "lon": 119.83536, "tags": {"name": "Tularucan", "place": "village"}}, {"type": "node", "id": 3294577039, "lat": 11.9477823, "lon": 119.855884, "tags": {"name": "DIborda", "place": "village"}}, {"type": "node", "id": 6026445986, "lat": 11.8203025, "lon": 119.9459545, "tags": {"admin_level": "11", "admin_type:PH": "sitio", "is_in": "Binudac;Culion", "name": "Cabulihan", "place": "village"}}, {"type": "node", "id": 6195580940, "lat": 11.6483583, "lon": 119.9629188, "tags": {"admin_level": "10", "admin_type:PH": "barangay", "name": "Decabaitot", "old_ref": "175313004", "place": "village", "population": "741", "population:date": "2020-05-01", "ref": "1705313004", "wikidata": "Q18603060"}}, {"type": "node", "id": 8859318256, "lat": 11.8907179, "lon": 119.9420692, "tags": {"admin_level": "11", "designation": "sitio", "is_in:quarter": "Luac", "is_in:town": "Culion", "name": "Balanga", "place": "hamlet", "source:name": "extrapolated from OSMaPaaralan, way/734400744"}}, {"type": "node", "id": 8859318261, "lat": 11.9122327, "lon": 119.8928547, "tags": {"admin_level": "11", "designation": "sitio", "is_in:town": "Culion", "is_in:village": "Luac", "name": "Ugnisan", "place": "hamlet", "source:name": "extrapolated from OSMaPaaralan, way/816452714"}}, {"type": "node", "id": 8859318267, "lat": 11.9272983, "lon": 119.8768499, "tags": {"admin_level": "11", "designation": "sitio", "is_in:town": "Culion", "is_in:village": "Galoc", "name": "Canimango", "place": "neighbourhood", "source:name": "extrapolated from OSMaPaaralan, way/819745018"}}, {"type": "node", "id": 9139761813, "lat": 11.8229973, "lon": 119.9055737, "tags": {"admin_level": "10", "designation": "barangay", "is_in:town": "Culion", "name": "Binudac", "place": "village", "postal_code": "5315"}}, {"type": "node", "id": 9139761814, "lat": 11.8566096, "lon": 119.9413062, "tags": {"admin_level": "10", "admin_type:PH": "barangay", "is_in:town": "Culion", "name": "Malaking Patag", "place": "village", "population": "1766", "population:2015": "1688", "postal_code": "5315", "ref": "175322009"}}, {"type": "node", "id": 9589023575, "lat": 11.7761636, "lon": 119.9251571, "tags": {"fixme": "name", "place": "hamlet"}}, {"type": "node", "id": 10973293048, "lat": 11.7315277, "lon": 119.9315441, "tags": {"name": "Alava", "place": "hamlet"}}]}