{"version": 0.6, "generator": "Overpass API 0.7.62.5 1bd436f1", "osm3s": {"timestamp_osm_base": "2025-05-24T18:03:28Z", "copyright": "The data included in this document is from www.openstreetmap.org. The data is made available under ODbL."}, "elements": [{"type": "node", "id": 198491798, "lat": 11.7695169, "lon": 125.0388306, "tags": {"admin_level": "10", "is_in:town": "Paranas", "name": "Buray", "old_name": "Wright", "place": "village", "place:PH": "barangay", "source": "Field"}}, {"type": "node", "id": 198504936, "lat": 11.7011085, "lon": 125.0662795, "tags": {"admin_level": "6", "admin_type:PH": "municipality", "gns_classification": "ADM2", "gns_uni": "-3347566", "is_in:province": "Samar", "name": "Hinabangan", "place": "town", "population": "13673", "population:date": "2015-08-01", "source": "US Army Topo Map", "source:population": "Philippine Statistics Authority", "wikidata": "Q816184", "wikimedia_commons": "Category:Hinabangan", "wikipedia": "en:Hinabangan"}}, {"type": "node", "id": 198514971, "lat": 11.6079854, "lon": 125.4322433, "tags": {"admin_level": "6", "capital": "4", "name": "Borongan", "name:ar": "\u0628\u0648\u0631\u0648\u0646\u063a\u0627\u0646", "name:ja": "\u30dc\u30ed\u30f3\u30ac\u30f3", "name:ka": "\u10d1\u10dd\u10e0\u10dd\u10dc\u10d2\u10d0\u10dc\u10d8", "name:lv": "Borongana", "name:th": "\u0e42\u0e1a\u0e42\u0e23\u0e07\u0e01\u0e31\u0e19", "name:tl": "Borongan", "name:uk": "\u0411\u043e\u0440\u043e\u043d\u0433\u0430\u043d", "name:ur": "\u0628\u0648\u0631\u0648\u0646\u06af\u0627\u0646", "name:war": "Borongan", "place": "city", "population": "69297", "population:date": "2015-08-01", "source:population": "Philippine Statistics Authority", "wikidata": "Q894059", "wikimedia_commons": "Category:Borongan", "wikipedia": "en:Borongan"}}, {"type": "node", "id": 198528682, "lat": 11.8152123, "lon": 125.4530073, "tags": {"admin_level": "6", "gns_classification": "ADM2", "gns_uni": "-3379756", "is_in:province": "Eastern Samar", "name": "Sulat", "place": "town", "place:PH": "municipality", "population": "15377", "population:date": "2015-08-01", "source": "GNS", "source:population": "Philippine Statistics Authority", "wikidata": "Q314257", "wikimedia_commons": "Category:Sulat, Eastern Samar", "wikipedia": "en:Sulat"}}, {"type": "node", "id": 2531584268, "lat": 11.5686452, "lon": 125.0324025, "tags": {"admin_level": "10", "designation": "barangay", "is_in:town": "Pinabacdao", "name": "Lawaan", "nga:ufi": "-2406716", "place": "hamlet", "source:name": "extrapolated from OSMaPaaralan"}}, {"type": "node", "id": 2531584269, "lat": 11.666667, "lon": 125.083333, "tags": {"fixme": "Location approximate.", "name": "Abaca", "nga:ufi": "-2406727", "place": "hamlet", "source": "Bing; USGS, 2013-10-11; NGA"}}, {"type": "node", "id": 2531584270, "lat": 11.85, "lon": 125.333333, "tags": {"fixme": "Location approximate.", "name": "Agamham", "nga:ufi": "-2407062", "place": "hamlet", "source": "Bing; USGS, 2013-10-11; NGA"}}, {"type": "node", "id": 2531584274, "lat": 11.5802308, "lon": 125.0766237, "tags": {"name": "Lubang", "nga:ufi": "-2408789", "place": "village", "source": "Bing;USGS, 2013-10-11;NGA"}}, {"type": "node", "id": 2531584282, "lat": 11.9124457, "lon": 125.2531294, "tags": {"admin_level": "10", "admin_type:PH": "barangay", "is_in:town": "Can-avid", "name": "Balagon", "old_ref": "082605001", "place": "hamlet", "place:PH": "barangay", "population": "308", "population:2015": "337", "ref": "0802605001", "source:population": "Philippine Statistics Authority"}}, {"type": "node", "id": 2531584286, "lat": 11.5192074, "lon": 125.4554725, "tags": {"name": "Banuyo", "nga:ufi": "-2412405", "place": "village", "source": "Bing; USGS, 2013-10-11; NGA"}}, {"type": "node", "id": 2531584287, "lat": 11.95, "lon": 125.333333, "tags": {"fixme": "Location approximate.", "name": "Barayan", "nga:ufi": "-2412578", "place": "hamlet", "source": "Bing; USGS, 2013-10-11; NGA"}}, {"type": "node", "id": 2531584291, "lat": 11.7598103, "lon": 125.0499851, "tags": {"admin_level": "10", "designation": "barangay", "name": "Bato", "nga:ufi": "-2413162", "place": "village", "postal_code": "6703", "source": "Bing; USGS, 2013-10-11; NGA"}}, {"type": "node", "id": 2531584294, "lat": 11.9382808, "lon": 125.4013546, "tags": {"admin_level": "10", "designation": "barangay", "is_in:town": "Taft", "name": "Bongdo", "place": "hamlet", "place:PH": "barangay", "source": "DepEd;USGS;NGA", "source:name": "extrapolated from OSMaPaaralan, way/316741678"}}, {"type": "node", "id": 2531584306, "lat": 11.6532391, "lon": 125.3872158, "tags": {"name": "San Andres Upper", "nga:ufi": "-2418338", "place": "hamlet", "source": "Bing;USGS, 2013-10-11;NGA"}}, {"type": "node", "id": 2531584309, "lat": 11.9585993, "lon": 125.2756581, "tags": {"admin_level": "10", "admin_type:PH": "barangay", "is_in:town": "Can-avid", "name": "Pandol", "place": "village", "source:name": "extrapolated from OSMaPaaralan, way/915314281"}}, {"type": "node", "id": 2531584314, "lat": 11.6902012, "lon": 125.0289426, "tags": {"name": "Camanhagay", "nga:ufi": "-2419502", "place": "village", "source": "Bing;USGS, 2013-10-11;NGA"}}, {"type": "node", "id": 2531584315, "lat": 11.8286557, "lon": 125.0991871, "tags": {"fixme": "Location approximate.", "name": "Cambamtoy", "nga:ufi": "-2419588", "place": "hamlet", "source": "Bing; USGS, 2013-10-11; NGA"}}, {"type": "node", "id": 2531584319, "lat": 11.7075109, "lon": 125.4445852, "tags": {"name": "Can-aga", "nga:ufi": "-2419883", "place": "village", "source": "Bing; USGS, 2013-10-11; NGA"}}, {"type": "node", "id": 2531584329, "lat": 11.7599208, "lon": 125.2299866, "tags": {"admin_level": "10", "designation": "barangay", "is_in:town": "Hinabangan", "name": "Cansolabao", "place": "village", "population": "1052", "population:2015": "1149", "population:date": "2020-05-01", "ref": "086008006", "source:population": "Philippine Statistics Authority"}}, {"type": "node", "id": 2531584334, "lat": 11.683333, "lon": 125.033333, "tags": {"fixme": "Location approximate.", "name": "Carabatuan", "nga:ufi": "-2420838", "place": "hamlet", "source": "Bing; USGS, 2013-10-11; NGA"}}, {"type": "node", "id": 2531584336, "lat": 11.9121967, "lon": 125.4200076, "tags": {"fixme": "Location approximate.", "name": "Carombucan", "nga:ufi": "-2421101", "place": "hamlet", "source": "Bing; USGS, 2013-10-11; NGA"}}, {"type": "node", "id": 2531584337, "lat": 11.8316523, "lon": 125.0969028, "tags": {"fixme": "Location approximate.", "name": "Casandig", "nga:ufi": "-2421184", "place": "village", "source": "Bing; USGS, 2013-10-11; NGA"}}, {"type": "node", "id": 2531584338, "lat": 11.778038, "lon": 125.4301531, "tags": {"admin_level": "10", "designation": "barangay", "is_in:town": "San Julian", "name": "Casoroy", "place": "village"}}, {"type": "node", "id": 2531584341, "lat": 11.85, "lon": 125.33328, "tags": {"fixme": "Location approximate.", "name": "Colayhon", "nga:ufi": "-2422232", "place": "hamlet", "source": "Bing; USGS, 2013-10-11; NGA"}}, {"type": "node", "id": 2531584344, "lat": 11.876667, "lon": 125.425833, "tags": {"fixme": "Location approximate.", "name": "Dakul", "nga:ufi": "-2423284", "place": "hamlet", "source": "Bing; USGS, 2013-10-11; NGA"}}, {"type": "node", "id": 2531584346, "lat": 11.7813483, "lon": 125.4424378, "tags": {"fixme": "Location approximate.", "name": "Del Remedio", "nga:ufi": "-2424253", "place": "hamlet", "source": "Bing; USGS, 2013-10-11; NGA"}}, {"type": "node", "id": 2531584353, "lat": 11.8056975, "lon": 125.0317421, "tags": {"fixme": "Location approximate.", "name": "Minarog", "nga:ufi": "-2428587", "place": "village", "source": "Bing;USGS, 2013-10-11;NGA"}}, {"type": "node", "id": 2531584356, "lat": 11.615821, "lon": 125.1044856, "tags": {"name": "Beri", "nga:ufi": "-2429397", "place": "village", "source": "Bing;USGS, 2013-10-11;NGA"}}, {"type": "node", "id": 2531584370, "lat": 11.6934758, "lon": 125.4754203, "tags": {"admin_level": "10", "is_in:city": "Borongan", "name": "Canjaway", "place": "village", "place:PH": "barangay"}}, {"type": "node", "id": 2531584389, "lat": 11.8668289, "lon": 125.0807648, "tags": {"fixme": "Location approximate.", "name": "Lawaan", "nga:ufi": "-2432396", "place": "village", "source": "Bing; USGS, 2013-10-11; NGA"}}, {"type": "node", "id": 2531584394, "lat": 11.746393, "lon": 125.4293083, "tags": {"name": "Libas", "nga:ufi": "-2432781", "place": "village", "source": "Bing; USGS, 2013-10-11; NGA"}}, {"type": "node", "id": 2531584398, "lat": 11.6477457, "lon": 125.4453816, "tags": {"admin_level": "10", "is_in:city": "Borongan", "name": "Libuton", "place": "village", "place:PH": "barangay"}}, {"type": "node", "id": 2531584419, "lat": 11.5904141, "lon": 125.0910998, "tags": {"is_in:town": "Calbiga", "name": "Literon", "place": "village"}}, {"type": "node", "id": 2531584420, "lat": 11.6041719, "lon": 125.4317043, "tags": {"admin_level": "10", "admin_type:PH": "barangay", "is_in:city": "Borongan", "name": "Taboc", "place": "village", "population": "2219", "population:2015": "2291", "population:date": "2020-05-01", "ref": "082604059", "source:population": "Philippine Statistics Authority"}}, {"type": "node", "id": 2531584434, "lat": 11.7940967, "lon": 125.1013819, "tags": {"admin_level": "10", "alt_name": "Loquilocon; Lukilukun", "designation": "barangay", "is_in:town": "Paranas", "name": "Lokilocon", "place": "village"}}, {"type": "node", "id": 2531584439, "lat": 11.909069, "lon": 125.3932168, "tags": {"fixme": "name", "place": "hamlet"}}, {"type": "node", "id": 2531584470, "lat": 11.875833, "lon": 125.346389, "tags": {"admin_level": "10", "name": "Malinao", "nga:ufi": "-2436813", "place": "village", "place:PH": "barangay", "source:name": "extrapolated from OSMaPaaralan, relation/11727488"}}, {"type": "node", "id": 2531584477, "lat": 11.6249901, "lon": 125.3975967, "tags": {"admin_level": "11", "designation": "sitio", "fixme": "Location approximate.", "name": "Minaili", "nga:ufi": "-2439918", "place": "hamlet", "source": "Bing; USGS, 2013-10-11; NGA"}}, {"type": "node", "id": 2531584482, "lat": 11.9237999, "lon": 125.4216062, "tags": {"admin_level": "10", "admin_type:PH": "barangay", "is_in:municipality": "Taft", "name": "Nato", "official_name": "Barangay Nato", "place": "village", "postal_code": "6816"}}, {"type": "node", "id": 2531584488, "lat": 11.566667, "lon": 125.066667, "tags": {"fixme": "Location approximate.", "name": "Nohoc", "nga:ufi": "-2442006", "place": "hamlet", "source": "Bing; USGS, 2013-10-11; NGA"}}, {"type": "node", "id": 2531584492, "lat": 11.6005741, "lon": 125.0320346, "tags": {"name": "Otoc", "nga:ufi": "-2442656", "place": "village", "source": "Bing;USGS, 2013-10-11;NGA"}}, {"type": "node", "id": 2531584494, "lat": 11.6445158, "lon": 125.0934025, "tags": {"fixme": "Location approximate.", "name": "Daligan", "nga:ufi": "-2443497", "place": "village", "source": "Bing;USGS, 2013-10-11;NGA"}}, {"type": "node", "id": 2531584495, "lat": 11.6247, "lon": 125.038848, "tags": {"alt_name": "Panayoran", "name": "Panayuran", "nga:ufi": "-2444007", "place": "village", "source": "Bing;USGS, 2013-10-11;NGA"}}, {"type": "node", "id": 2531584501, "lat": 11.7695191, "lon": 125.0580406, "tags": {"name": "Pequit", "nga:ufi": "-2446241", "place": "village", "source": "Bing;USGS, 2013-10-11;NGA"}}, {"type": "node", "id": 2531584503, "lat": 11.636667, "lon": 125.03, "tags": {"name": "Polangi", "nga:ufi": "-2446491", "place": "village", "source": "Bing;USGS, 2013-10-11;NGA"}}, {"type": "node", "id": 2531584508, "lat": 11.8040256, "lon": 125.0577206, "tags": {"admin_level": "10", "is_in:town": "Paranas", "name": "Mangcales", "place": "village", "place:PH": "barangay"}}, {"type": "node", "id": 2531584522, "lat": 11.8495434, "lon": 125.4199234, "tags": {"alt_name": "Santo Tomas", "name": "Sto. Tomas", "nga:ufi": "-2452137", "place": "village", "source": "Bing;USGS, 2013-10-11;NGA"}}, {"type": "node", "id": 2531584523, "lat": 11.8569886, "lon": 125.4674792, "tags": {"name": "San Vicente", "nga:ufi": "-2452211", "place": "village", "source": "Bing; USGS, 2013-10-11; NGA"}}, {"type": "node", "id": 2531584525, "lat": 11.6913002, "lon": 125.4650017, "tags": {"admin_level": "10", "is_in:city": "Borongan", "name": "Santa Fe", "place": "village", "place:PH": "barangay"}}, {"type": "node", "id": 2531584532, "lat": 11.6281287, "lon": 125.4210087, "tags": {"admin_level": "10", "admin_type:PH": "barangay", "is_in:city": "Borongan", "is_in:village": "Surok", "name": "Surok", "nga:ufi": "-2453931", "place": "village", "population": "791", "population:2015": "763", "ref": "082604058", "source": "Bing;USGS, 2013-10-11;NGA"}}, {"type": "node", "id": 2531584536, "lat": 11.6636917, "lon": 125.4505462, "tags": {"admin_level": "10", "is_in:city": "Borongan", "name": "Tabunan", "place": "village", "place:PH": "barangay"}}, {"type": "node", "id": 2531584537, "lat": 11.696404, "lon": 125.2412402, "tags": {"admin_level": "10", "admin_type:PH": "barangay", "fixme": "verify location", "is_in:town": "Hinabangan", "name": "Tabay", "old_ref": "086008016", "place": "hamlet", "place:PH": "barangay", "population": "356", "population:2015": "367", "ref": "0806008016", "source:population": "Philippine Statistics Authority"}}, {"type": "node", "id": 2531584540, "lat": 11.6836104, "lon": 125.464966, "tags": {"admin_level": "10", "is_in:city": "Borongan", "name": "Tamoso", "place": "village", "place:PH": "barangay"}}, {"type": "node", "id": 2531584545, "lat": 11.6333896, "lon": 125.116667, "tags": {"fixme": "Location approximate.", "name": "Tuguib", "nga:ufi": "-2458809", "place": "hamlet", "source": "Bing; USGS, 2013-10-11; NGA"}}, {"type": "node", "id": 2531584546, "lat": 11.8858292, "lon": 125.2468915, "tags": {"admin_level": "10", "designation": "barangay", "is_in:town": "Paranas", "name": "Tula", "nga:ufi": "-2458852", "place": "hamlet", "source": "DepEd;Bing;USGS, 2013-10-11;NGA", "source:name": "extrapolated from OSMaPaaralan, way/954538794"}}, {"type": "node", "id": 2531584547, "lat": 11.8407715, "lon": 125.0621661, "tags": {"name": "Tutobigan", "nga:ufi": "-2459172", "place": "village", "source": "Bing;USGS, 2013-10-11;NGA"}}, {"type": "node", "id": 2531584549, "lat": 11.5294588, "lon": 125.4774497, "tags": {"admin_level": "10", "is_in:town": "Maydolong", "name": "Omawas", "place": "village", "place:PH": "barangay", "source": "Bing;USGS, 2013-10-11;NGA"}}, {"type": "node", "id": 2531776443, "lat": 11.6619669, "lon": 125.0311783, "tags": {"fixme": "Copied from topo map, please add name and correct location, then remove this fixme.", "place": "hamlet", "source": "US Army Topo Map"}}, {"type": "node", "id": 2531776452, "lat": 11.684598, "lon": 125.0581073, "tags": {"name": "Binobucalan", "place": "village", "source": "US Army Topo Map"}}, {"type": "node", "id": 2531776455, "lat": 11.6906287, "lon": 125.0514563, "tags": {"place": "village", "source": "US Army Topo Map"}}, {"type": "node", "id": 2531776470, "lat": 11.7899121, "lon": 125.4115001, "tags": {"fixme": "Copied from topo map, please add name and correct location, then remove this fixme.", "name": "Layog", "place": "hamlet", "source": "US Army Topo Map"}}, {"type": "node", "id": 2531776476, "lat": 11.8184205, "lon": 125.4182571, "tags": {"admin_level": "10", "designation": "barangay", "is_in:town": "Sulat", "name": "San Juan", "place": "village", "source": "US Army Topo Map", "source:name": "extrapolated from OSMaPaaralan"}}, {"type": "node", "id": 2531776482, "lat": 11.836313, "lon": 125.4366072, "tags": {"admin_level": "10", "designation": "barangay", "is_in:town": "Sulat", "name": "Santo Ni\u00f1o", "place": "village", "source": "US Army Topo Map"}}, {"type": "node", "id": 2531776486, "lat": 11.8569182, "lon": 125.4349479, "tags": {"name": "San Isidro", "name:war": "Maytigbao", "place": "village", "source": "US Army Topo Map"}}, {"type": "node", "id": 2531776487, "lat": 11.8706607, "lon": 125.0325239, "tags": {"admin_level": "10", "designation": "barangay", "is_in:town": "Motiong", "name": "Angyap", "place": "village", "source": "DepEd;US Army Topo Map", "source:name": "extrapolated from OSMaPaaralan, way/907195351"}}, {"type": "node", "id": 2531776493, "lat": 11.9013945, "lon": 125.0787491, "tags": {"admin_level": "10", "is_in:town": "Paranas", "name": "Tapul", "place": "village", "place:PH": "barangay"}}, {"type": "node", "id": 2531776497, "lat": 11.9121854, "lon": 125.0404044, "tags": {"admin_level": "10", "admin_type:PH": "barangay", "is_in:town": "Paranas", "name": "Paco", "old_ref": "086022023", "place": "hamlet", "population": "244", "population:2015": "251", "ref": "0806022023", "source": "US Army Topo Map", "source:population": "Philippine Statistics Authority"}}, {"type": "node", "id": 2531776501, "lat": 11.9377164, "lon": 125.0608795, "tags": {"admin_level": "10", "admin_type:PH": "barangay", "fixme": "Copied from topo map, please add name and correct location, then remove this fixme.", "is_in:town": "Paranas", "name": "Maylobe", "old_ref": "086022019", "place": "hamlet", "population": "341", "population:2015": "304", "ref": "0806022019", "source": "US Army Topo Map", "source:population": "Philippine Statistics Authority"}}, {"type": "node", "id": 2531776502, "lat": 11.9436708, "lon": 125.4244733, "tags": {"name": "San Luis", "place": "village", "source": "US Army Topo Map"}}, {"type": "node", "id": 2532444380, "lat": 11.9049131, "lon": 125.4164158, "tags": {"addr:postcode": "6816", "admin_level": "6", "gns_classification": "ADM2", "is_in:province": "Eastern Samar", "name": "Taft", "place": "town", "place:PH": "municipality", "population": "18915", "population:date": "2015-08-01", "source:population": "Philippine Statistics Authority", "website": "https://en.wikipedia.org/wiki/Taft,_Eastern_Samar", "wikidata": "Q205677", "wikimedia_commons": "Category:Taft, Eastern Samar", "wikipedia": "en:Taft, Eastern Samar"}}, {"type": "node", "id": 2532488967, "lat": 11.7858976, "lon": 125.4671287, "tags": {"name": "San Francisco", "place": "hamlet"}}, {"type": "node", "id": 2532488973, "lat": 11.8695637, "lon": 125.4294696, "tags": {"fixme": "Location approximate.", "name": "Mantang", "nga:ufi": "-2438095", "place": "hamlet", "source": "Bing; USGS, 2013-10-11; NGA"}}, {"type": "node", "id": 2532503435, "lat": 11.8175611, "lon": 125.2346784, "tags": {"admin_level": "10", "designation": "barangay", "is_in:town": "Hinabangan", "name": "Bagacay", "place": "village"}}, {"type": "node", "id": 2542909931, "lat": 11.5367035, "lon": 125.4592904, "tags": {"admin_level": "10", "admin_type:PH": "barangay", "is_in:town": "Maydolong", "name": "Camada", "old_ref": "082615002", "place": "village", "place:PH": "barangay", "population": "1146", "population:2015": "1022", "ref": "0802615002"}}, {"type": "node", "id": 2543114283, "lat": 11.6549494, "lon": 125.4467921, "tags": {"admin_level": "10", "is_in:city": "Borongan", "name": "Maypangdan", "place": "village", "place:PH": "barangay"}}, {"type": "node", "id": 2543177088, "lat": 11.7549638, "lon": 125.455276, "tags": {"addr:postcode": "6814", "admin_level": "6", "gns_classification": "ADM2", "gns_uni": "-3375260", "is_in:province": "Eastern Samar", "name": "San Julian", "place": "town", "place:PH": "municipality", "population": "14498", "population:date": "2015-08-01", "source": "GNS", "source:population": "Philippine Statistics Authority", "wikidata": "Q314220", "wikimedia_commons": "Category:San Julian, Eastern Samar", "wikipedia": "en:San Julian, Eastern Samar"}}, {"type": "node", "id": 2653454306, "lat": 11.673404, "lon": 125.4588544, "tags": {"admin_level": "10", "is_in:city": "Borongan", "name": "San Saturnino", "place": "village", "place:PH": "barangay"}}, {"type": "node", "id": 3152231850, "lat": 11.8117425, "lon": 125.1523648, "tags": {"admin_level": "11", "designation": "sitio", "is_in:quarter": "Tenani", "is_in:town": "Paranas", "name": "Campo Uno", "place": "hamlet", "source:name": "extrapolated from OSMaPaaralan, way/954541423"}}, {"type": "node", "id": 3152231851, "lat": 11.8227425, "lon": 125.1912181, "tags": {"name": "San Isidro", "place": "village"}}, {"type": "node", "id": 3152231852, "lat": 11.8230055, "lon": 125.2467515, "tags": {"admin_level": "10", "designation": "barangay", "is_in:town": "Hinabangan", "name": "Fatima", "place": "village"}}, {"type": "node", "id": 3152231853, "lat": 11.8289541, "lon": 125.2765204, "tags": {"is_in:province": "Eastern Samar", "is_in:town": "Taft", "name": "San Rafael", "place": "village"}}, {"type": "node", "id": 3152254716, "lat": 11.8768025, "lon": 125.3585175, "tags": {"name": "San Pablo", "place": "village"}}, {"type": "node", "id": 3152254722, "lat": 11.8543028, "lon": 125.3262183, "tags": {"name": "Binaloan", "place": "village"}}, {"type": "node", "id": 3152254965, "lat": 11.8969462, "lon": 125.3685896, "tags": {"place": "village"}}, {"type": "node", "id": 3152254966, "lat": 11.8971144, "lon": 125.388872, "tags": {"admin_level": "10", "designation": "barangay", "is_in:town": "Taft", "name": "Lomatud", "nga:ufi": "-2433749", "old_name": "Burak", "place": "village", "source:name": "extrapolated from OSMaPaaralan, way/316350900"}}, {"type": "node", "id": 3221583804, "lat": 11.940853, "lon": 125.4238008}, {"type": "node", "id": 3221583805, "lat": 11.9408641, "lon": 125.4241584}, {"type": "node", "id": 3221583806, "lat": 11.9409585, "lon": 125.4243173}, {"type": "node", "id": 3221583807, "lat": 11.9409974, "lon": 125.4231878}, {"type": "node", "id": 3221583808, "lat": 11.9412417, "lon": 125.4230459}, {"type": "node", "id": 3221583809, "lat": 11.9413472, "lon": 125.424567}, {"type": "node", "id": 3221583810, "lat": 11.9415082, "lon": 125.4230005}, {"type": "node", "id": 3221583811, "lat": 11.941697, "lon": 125.4246805}, {"type": "node", "id": 3221583814, "lat": 11.9420635, "lon": 125.424777}, {"type": "node", "id": 3221583815, "lat": 11.9423633, "lon": 125.4230857}, {"type": "node", "id": 3221583816, "lat": 11.9424688, "lon": 125.4248565}, {"type": "node", "id": 3221583817, "lat": 11.9425355, "lon": 125.4231992}, {"type": "node", "id": 3221583818, "lat": 11.9428353, "lon": 125.4251062}, {"type": "node", "id": 3221583819, "lat": 11.9430852, "lon": 125.4252084}, {"type": "node", "id": 3221583820, "lat": 11.9432351, "lon": 125.4233695}, {"type": "node", "id": 3221583821, "lat": 11.9433628, "lon": 125.4251119}, {"type": "node", "id": 3221583822, "lat": 11.9438071, "lon": 125.4250835}, {"type": "node", "id": 3221583823, "lat": 11.9440514, "lon": 125.4251175}, {"type": "node", "id": 3221583824, "lat": 11.9440625, "lon": 125.4236249}, {"type": "node", "id": 3221583826, "lat": 11.9448048, "lon": 125.4257661}, {"type": "node", "id": 3221583827, "lat": 11.9446177, "lon": 125.4238462}, {"type": "node", "id": 3221583829, "lat": 11.9448954, "lon": 125.4255602}, {"type": "node", "id": 3221583830, "lat": 11.9451342, "lon": 125.4254694}, {"type": "node", "id": 3221583831, "lat": 11.9452341, "lon": 125.4243457}, {"type": "node", "id": 3221583834, "lat": 11.9536966, "lon": 125.4260021}, {"type": "node", "id": 3221583835, "lat": 11.9538934, "lon": 125.4264378}, {"type": "node", "id": 3221583836, "lat": 11.9541708, "lon": 125.4253461}, {"type": "node", "id": 3221583837, "lat": 11.954076, "lon": 125.4262723}, {"type": "node", "id": 3221583838, "lat": 11.9545479, "lon": 125.4248781}, {"type": "node", "id": 3221583840, "lat": 11.9546812, "lon": 125.4241984}, {"type": "node", "id": 3221583842, "lat": 11.9551948, "lon": 125.4261437}, {"type": "node", "id": 3221583843, "lat": 11.9552667, "lon": 125.4235733}, {"type": "node", "id": 3221583844, "lat": 11.9554167, "lon": 125.4236}, {"type": "node", "id": 3221583845, "lat": 11.9555105, "lon": 125.426106}, {"type": "node", "id": 3221583846, "lat": 11.9562281, "lon": 125.4239335}, {"type": "node", "id": 3221583847, "lat": 11.9563446, "lon": 125.4263147}, {"type": "node", "id": 3221583850, "lat": 11.9571597, "lon": 125.427171}, {"type": "node", "id": 3221583851, "lat": 11.9577044, "lon": 125.424696}, {"type": "node", "id": 3221583852, "lat": 11.9581451, "lon": 125.425658}, {"type": "node", "id": 3221583853, "lat": 11.9579949, "lon": 125.4248967}, {"type": "node", "id": 3221583854, "lat": 11.9580185, "lon": 125.4253863}, {"type": "node", "id": 3222704392, "lat": 11.8481556, "lon": 125.4349516, "tags": {"place": "hamlet"}}, {"type": "node", "id": 3222745034, "lat": 11.8298169, "lon": 125.3861019, "tags": {"name": "Kandalakit", "place": "hamlet"}}, {"type": "node", "id": 3903712047, "lat": 11.7485607, "lon": 125.0594421, "tags": {"name": "Apolonia", "place": "village"}}, {"type": "node", "id": 3903721079, "lat": 11.7389048, "lon": 125.0636614, "tags": {"name": "Pabanog", "place": "village"}}, {"type": "node", "id": 5112262022, "lat": 11.7663469, "lon": 125.4179536, "tags": {"name": "Nena", "place": "village"}}, {"type": "node", "id": 5112262023, "lat": 11.7590395, "lon": 125.4122923, "tags": {"name": "Campidhan", "place": "village"}}, {"type": "node", "id": 5113023132, "lat": 11.7563825, "lon": 125.3969236, "tags": {"name": "Putong", "place": "village"}}, {"type": "node", "id": 5113023133, "lat": 11.8060115, "lon": 125.4362469, "tags": {"admin_level": "10", "designation": "barangay", "is_in:town": "Sulat", "name": "San Mateo", "place": "village", "source:name": "extrapolated from OSMaPaaralan, way/906731853"}}, {"type": "node", "id": 5113023134, "lat": 11.8153103, "lon": 125.4033953, "tags": {"admin_level": "10", "designation": "barangay", "is_in:town": "Sulat", "name": "A-et", "place": "village", "source:name": "extrapolated from OSMaPaaralan"}}, {"type": "node", "id": 5113023135, "lat": 11.6474657, "lon": 125.437655, "tags": {"admin_level": "10", "is_in:city": "Borongan", "name": "Bayobay", "place": "village", "place:PH": "barangay"}}, {"type": "node", "id": 5113023141, "lat": 11.6241745, "lon": 125.4189687, "tags": {"admin_level": "10", "admin_type:PH": "barangay", "is_in:city": "Borongan", "name": "Calingatngan", "place": "village", "population": "1507", "population:2015": "1325", "ref": "082604016", "source:population": "Philippine Statistics Authority"}}, {"type": "node", "id": 5113023144, "lat": 11.7423868, "lon": 125.4598453, "tags": {"name": "Lunang", "place": "village"}}, {"type": "node", "id": 5113023147, "lat": 11.8172042, "lon": 125.4455528, "tags": {"name": "Maglipay", "place": "village"}}, {"type": "node", "id": 5113023148, "lat": 11.8237595, "lon": 125.421868, "tags": {"name": "Hamurawon", "place": "hamlet"}}, {"type": "node", "id": 5113023149, "lat": 11.8911645, "lon": 125.4165405, "tags": {"admin_level": "10", "designation": "barangay", "is_in:town": "Taft", "name": "Polangi", "place": "village"}}, {"type": "node", "id": 5122081314, "lat": 11.8093511, "lon": 125.3906874, "tags": {"admin_level": "10", "admin_type:PH": "barangay", "designation": "barangay", "is_in:town": "Sulat", "name": "Mabini", "old_ref": "082622006", "place": "hamlet", "population": "288", "population:2015": "342", "ref": "0802622006", "source:population": "Philippine Statistics Authority"}}, {"type": "node", "id": 5146108776, "lat": 11.7702945, "lon": 125.0577639}, {"type": "node", "id": 5146108777, "lat": 11.7700257, "lon": 125.0573152}, {"type": "node", "id": 5146108778, "lat": 11.7696979, "lon": 125.0571947}, {"type": "node", "id": 5146108779, "lat": 11.7696324, "lon": 125.0574157}, {"type": "node", "id": 5146108780, "lat": 11.768708, "lon": 125.0571612}, {"type": "node", "id": 5146108781, "lat": 11.7686687, "lon": 125.0578576}, {"type": "node", "id": 5146108782, "lat": 11.7684917, "lon": 125.0578777}, {"type": "node", "id": 5146108783, "lat": 11.7685258, "lon": 125.0582501}, {"type": "node", "id": 5146108784, "lat": 11.7690948, "lon": 125.0581791}, {"type": "node", "id": 5146108785, "lat": 11.7691209, "lon": 125.0582403}, {"type": "node", "id": 5146108786, "lat": 11.7693547, "lon": 125.0581784}, {"type": "node", "id": 5146108787, "lat": 11.7691144, "lon": 125.0585911}, {"type": "node", "id": 5146108788, "lat": 11.7690411, "lon": 125.0591234}, {"type": "node", "id": 5146108789, "lat": 11.769104, "lon": 125.0592623}, {"type": "node", "id": 5146108790, "lat": 11.7695778, "lon": 125.0639045}, {"type": "node", "id": 5146108791, "lat": 11.7694246, "lon": 125.0640588}, {"type": "node", "id": 5146108792, "lat": 11.7711165, "lon": 125.0648784}, {"type": "node", "id": 5146108793, "lat": 11.7712737, "lon": 125.0628665}, {"type": "node", "id": 5146108794, "lat": 11.770558, "lon": 125.0616599}, {"type": "node", "id": 5146108795, "lat": 11.770562, "lon": 125.0604331}, {"type": "node", "id": 5146108796, "lat": 11.770583, "lon": 125.0595853}, {"type": "node", "id": 5146115559, "lat": 11.7719043, "lon": 125.0843814, "tags": {"addr:city": "Wright", "addr:postcode": "6703", "name": "Patag", "place": "village"}}, {"type": "node", "id": 5148313258, "lat": 11.7701652, "lon": 125.0836999}, {"type": "node", "id": 5148313259, "lat": 11.7699406, "lon": 125.0832333}, {"type": "node", "id": 5148313260, "lat": 11.7704671, "lon": 125.0827509}, {"type": "node", "id": 5148313261, "lat": 11.7714039, "lon": 125.0838423}, {"type": "node", "id": 5148313262, "lat": 11.7721549, "lon": 125.0834468}, {"type": "node", "id": 5148313263, "lat": 11.7728517, "lon": 125.0838423}, {"type": "node", "id": 5148313264, "lat": 11.7730917, "lon": 125.0847755}, {"type": "node", "id": 5148313265, "lat": 11.7727588, "lon": 125.0851551}, {"type": "node", "id": 5148313266, "lat": 11.7739047, "lon": 125.0859697}, {"type": "node", "id": 5148313267, "lat": 11.7744002, "lon": 125.0865075}, {"type": "node", "id": 5148313268, "lat": 11.7741759, "lon": 125.0866973}, {"type": "node", "id": 5148313269, "lat": 11.7738025, "lon": 125.0867775}, {"type": "node", "id": 5148313270, "lat": 11.7725431, "lon": 125.0857875}, {"type": "node", "id": 5148313271, "lat": 11.7720876, "lon": 125.0853318}, {"type": "node", "id": 5148313272, "lat": 11.7719395, "lon": 125.0850979}, {"type": "node", "id": 5148313273, "lat": 11.7708929, "lon": 125.0845382}, {"type": "node", "id": 5148313275, "lat": 11.773559, "lon": 125.0857239}, {"type": "node", "id": 5148313276, "lat": 11.7737252, "lon": 125.0854686}, {"type": "node", "id": 5148313277, "lat": 11.773562, "lon": 125.08536}, {"type": "node", "id": 5148313278, "lat": 11.7733982, "lon": 125.0856009}, {"type": "node", "id": 5148313300, "lat": 11.7852271, "lon": 125.0928583}, {"type": "node", "id": 5148313301, "lat": 11.78471, "lon": 125.09393}, {"type": "node", "id": 5148313302, "lat": 11.7816773, "lon": 125.0924412}, {"type": "node", "id": 5148313303, "lat": 11.7819812, "lon": 125.0918773}, {"type": "node", "id": 5148313304, "lat": 11.7822789, "lon": 125.0919217}, {"type": "node", "id": 5148313305, "lat": 11.782589, "lon": 125.091852}, {"type": "node", "id": 5148313306, "lat": 11.7828495, "lon": 125.0916809}, {"type": "node", "id": 5148313320, "lat": 11.7901608, "lon": 125.0977547, "tags": {"place": "hamlet"}}, {"type": "node", "id": 5148313364, "lat": 11.8055053, "lon": 125.1292097, "tags": {"admin_level": "10", "designation": "barangay", "is_in:town": "Paranas", "name": "Tenani", "place": "village", "source:name": "extrapolated from OSMaPaaralan"}}, {"type": "node", "id": 5148358927, "lat": 11.8118148, "lon": 125.1497783, "tags": {"name": "Ulot I", "place": "hamlet"}}, {"type": "node", "id": 5148358939, "lat": 11.8130613, "lon": 125.1565237, "tags": {"place": "hamlet"}}, {"type": "node", "id": 5148359007, "lat": 11.820591, "lon": 125.1774312, "tags": {"place": "hamlet"}}, {"type": "node", "id": 5148359020, "lat": 11.8263012, "lon": 125.2114722, "tags": {"place": "hamlet"}}, {"type": "node", "id": 5845642716, "lat": 11.5575014, "lon": 125.4650234, "tags": {"name": "Nabiawan", "place": "hamlet"}}, {"type": "node", "id": 6061124182, "lat": 11.9451771, "lon": 125.4252856}, {"type": "node", "id": 6180959731, "lat": 11.9283143, "lon": 125.2499308, "tags": {"admin_level": "10", "admin_type:PH": "barangay", "is_in:town": "Can-avid", "name": "Boco", "old_ref": "082605003", "place": "hamlet", "population": "481", "population:2015": "475", "ref": "0802605003", "source:population": "Philippine Statistics Authority"}}, {"type": "node", "id": 6180959886, "lat": 11.9571227, "lon": 125.3542955, "tags": {"name": "Jepaco", "place": "village"}}, {"type": "node", "id": 6184156614, "lat": 11.8318305, "lon": 125.2584764, "tags": {"name": "San Rafael", "place": "village"}}, {"type": "node", "id": 6189628280, "lat": 11.5253731, "lon": 125.0273284, "tags": {"admin_level": "10", "designation": "barangay", "is_in:town": "Pinabacdao", "name": "Laygayon", "nga:ufi": "-2406716", "place": "village", "source:name": "extrapolated from OSMaPaaralan, way/902892541"}}, {"type": "node", "id": 6192601101, "lat": 11.5761222, "lon": 125.0964878, "tags": {"name": "Guimbanga", "place": "village"}}, {"type": "node", "id": 6192601102, "lat": 11.5678045, "lon": 125.1154294, "tags": {"is_in:town": "Calbiga", "name": "Caamlungan", "place": "village"}}, {"type": "node", "id": 6192601150, "lat": 11.5722013, "lon": 125.078068, "tags": {"name": "Sinalangtan", "place": "village"}}, {"type": "node", "id": 6192601151, "lat": 11.5941081, "lon": 125.0442921, "tags": {"name": "San Mauricio", "place": "village"}}, {"type": "node", "id": 6192601164, "lat": 11.5774836, "lon": 125.0429785, "tags": {"name": "Canbagtic", "place": "village"}}, {"type": "node", "id": 6192601165, "lat": 11.5773709, "lon": 125.0272589, "tags": {"admin_level": "10", "designation": "barangay", "is_in:town": "Pinabacdao", "name": "Catigawan", "place": "hamlet", "source:name": "extrapolated from OSMaPaaralan, way/954448445"}}, {"type": "node", "id": 6192601166, "lat": 11.5450544, "lon": 125.0334248, "tags": {"admin_level": "10", "designation": "barangay", "is_in:town": "Pinabacdao", "name": "Bugho", "place": "hamlet", "source:name": "extrapolated from OSMaPaaralan, way/954450047"}}, {"type": "node", "id": 6192601167, "lat": 11.5175098, "lon": 125.0557092, "tags": {"name": "Pelaon", "place": "village"}}, {"type": "node", "id": 6192601722, "lat": 11.6068578, "lon": 125.0915233, "tags": {"is_in:town": "Calbiga", "name": "Hubasan", "place": "village"}}, {"type": "node", "id": 6192601723, "lat": 11.6083741, "lon": 125.1232925, "tags": {"admin_level": "10", "designation": "barangay", "is_in:town": "Calbigay", "name": "Binanggaran", "place": "village", "source:name": "extrapolated from OSMaPaaralan"}}, {"type": "node", "id": 6192601766, "lat": 11.6268104, "lon": 125.1345892, "tags": {"name": "Buluan", "place": "village"}}, {"type": "node", "id": 6192601806, "lat": 11.6130578, "lon": 125.0799715, "tags": {"name": "Mahangcao", "place": "village"}}, {"type": "node", "id": 6192601853, "lat": 11.6155584, "lon": 125.0411914, "tags": {"name": "Borong", "place": "village"}}, {"type": "node", "id": 6192601854, "lat": 11.6069333, "lon": 125.0473876, "tags": {"name": "Minata", "place": "village"}}, {"type": "node", "id": 6192602168, "lat": 11.6642049, "lon": 125.0292237, "tags": {"name": "Timbangan", "place": "village"}}, {"type": "node", "id": 6192602213, "lat": 11.6769289, "lon": 125.0317602, "tags": {"name": "Inobongan", "place": "village"}}, {"type": "node", "id": 6192602214, "lat": 11.6756961, "lon": 125.0439758, "tags": {"name": "Balogo", "place": "village"}}, {"type": "node", "id": 6192602273, "lat": 11.6859939, "lon": 125.0438209, "tags": {"name": "Campiyak", "place": "village"}}, {"type": "node", "id": 6192602274, "lat": 11.6911104, "lon": 125.0508215, "tags": {"admin_level": "10", "admin_type:PH": "barangay", "name": "Canduyucan", "place": "village", "population": "1022", "population:2015": "911", "population:date": "2020-05-01", "ref": "086015014", "source:population": "Philippine Statistics Authority"}}, {"type": "node", "id": 6192602289, "lat": 11.6971408, "lon": 125.0284973, "tags": {"name": "Cabaywa", "place": "village"}}, {"type": "node", "id": 6192602290, "lat": 11.6904024, "lon": 125.0540269, "tags": {"admin_level": "10", "admin_type:PH": "barangay", "is_in:town": "Hinabangan", "name": "Osme\u00f1a", "place": "village", "population": "486", "population:2015": "481", "population:date": "2020-05-01", "ref": "086008010", "source:name": "extrapolated from OSMaPaaralan, way/905303486", "source:population": "Philippine Statistics Authority"}}, {"type": "node", "id": 6622717235, "lat": 11.8199458, "lon": 125.0372453, "tags": {"name": "Inalad", "place": "village"}}, {"type": "node", "id": 7639039808, "lat": 11.8133465, "lon": 125.4568398, "tags": {"is_in:town": "Sulat", "name": "Abucay", "place": "village"}}, {"type": "node", "id": 7639039809, "lat": 11.811514, "lon": 125.451411, "tags": {"is_in:town": "Sulat", "name": "Maramara", "place": "village"}}, {"type": "node", "id": 7639039810, "lat": 11.8135356, "lon": 125.452221, "tags": {"is_in:town": "Sulat", "name": "Tabi", "place": "village"}}, {"type": "node", "id": 7639039811, "lat": 11.8158879, "lon": 125.4550052, "tags": {"is_in:town": "Sulat", "name": "Baybay", "place": "village"}}, {"type": "node", "id": 8009359954, "lat": 11.9295272, "lon": 125.3816749, "tags": {"admin_level": "10", "is_in:town": "Taft", "name": "Danao", "place": "village", "place:PH": "barangay", "source:name": "extrapolated from OSMaPaaralan, way/859232208"}}, {"type": "node", "id": 8331271628, "lat": 11.8881158, "lon": 125.0606784}, {"type": "node", "id": 8331271629, "lat": 11.8880528, "lon": 125.0606302}, {"type": "node", "id": 8331271630, "lat": 11.8882103, "lon": 125.0603244}, {"type": "node", "id": 8331271631, "lat": 11.8881315, "lon": 125.0602493}, {"type": "node", "id": 8331271632, "lat": 11.8878428, "lon": 125.0604692}, {"type": "node", "id": 8331271633, "lat": 11.8876643, "lon": 125.0603244}, {"type": "node", "id": 8331271634, "lat": 11.8874439, "lon": 125.0605712}, {"type": "node", "id": 8331271635, "lat": 11.8878376, "lon": 125.0609681}, {"type": "node", "id": 8331271636, "lat": 11.8870187, "lon": 125.0617889}, {"type": "node", "id": 8331271637, "lat": 11.8867352, "lon": 125.0618479}, {"type": "node", "id": 8331271638, "lat": 11.8866184, "lon": 125.0618103}, {"type": "node", "id": 8331271639, "lat": 11.8864399, "lon": 125.0620464}, {"type": "node", "id": 8331271640, "lat": 11.8860672, "lon": 125.0620464}, {"type": "node", "id": 8331271641, "lat": 11.8859202, "lon": 125.0621966}, {"type": "node", "id": 8331271642, "lat": 11.885852, "lon": 125.0625506}, {"type": "node", "id": 8331271643, "lat": 11.8860304, "lon": 125.062615}, {"type": "node", "id": 8331271644, "lat": 11.8862142, "lon": 125.0624863}, {"type": "node", "id": 8331271645, "lat": 11.8871171, "lon": 125.0630763}, {"type": "node", "id": 8331271646, "lat": 11.8876944, "lon": 125.0623736}, {"type": "node", "id": 8331271647, "lat": 11.8879727, "lon": 125.0623736}, {"type": "node", "id": 8331271648, "lat": 11.8881039, "lon": 125.0620678}, {"type": "node", "id": 8331271649, "lat": 11.8880199, "lon": 125.061703}, {"type": "node", "id": 8331271650, "lat": 11.8881879, "lon": 125.0615421}, {"type": "node", "id": 8331271651, "lat": 11.8883296, "lon": 125.0607482}, {"type": "node", "id": 8386223216, "lat": 11.8049541, "lon": 125.0775715, "tags": {"admin_level": "10", "designation": "barangay", "is_in:town": "Paranas", "name": "Cantaguic", "place": "village", "source:name": "extrapolated from OSMaPaaralan, way/902920156"}}, {"type": "node", "id": 8403639368, "lat": 11.544655, "lon": 125.1216365, "tags": {"admin_level": "10", "designation": "barangay", "is_in:town": "Calbiga", "name": "Antol", "place": "hamlet", "source:name": "extrapolated from OSMaPaaralan, node/8403639367"}}, {"type": "node", "id": 8403954875, "lat": 11.6172656, "lon": 125.0265418, "tags": {"name": "Macaalan", "place": "village"}}, {"type": "node", "id": 8406966723, "lat": 11.5936774, "lon": 125.0324262, "tags": {"name": "Bulao", "place": "village"}}, {"type": "node", "id": 8410559574, "lat": 11.7169665, "lon": 125.0290295, "tags": {"admin_level": "10", "admin_type:PH": "barangay", "is_in:town": "San Sebastian", "name": "Bontod", "old_ref": "086015006", "place": "village", "population": "614", "population:2015": "510", "ref": "0806015006", "source": "extrapolation", "source_ref": "https://osm.org/way/909852877"}}, {"type": "node", "id": 8410560080, "lat": 11.7122586, "lon": 125.0892193, "tags": {"name": "Lim-ao", "place": "village"}}, {"type": "node", "id": 8410571918, "lat": 11.7147309, "lon": 125.0653115, "tags": {"name": "Mugdo", "place": "village"}}, {"type": "node", "id": 8410796893, "lat": 11.6847195, "lon": 125.0877704, "tags": {"admin_level": "10", "admin_type:PH": "barangay", "name": "Canano", "place": "village", "population": "282", "population:2015": "221", "population:date": "2020-05-01", "ref": "086008005", "source:population": "Philippine Statistics Authority"}}, {"type": "node", "id": 8410804828, "lat": 11.6833491, "lon": 125.0725714, "tags": {"name": "Dalosdoson", "place": "village"}}, {"type": "node", "id": 8410805042, "lat": 11.6902284, "lon": 125.1063771, "tags": {"name": "Yabon", "place": "village"}}, {"type": "node", "id": 8413547588, "lat": 11.7837431, "lon": 125.0928052, "tags": {"addr:city": "Wright", "addr:postcode": "6703", "name": "Tabucan", "place": "village"}}, {"type": "node", "id": 8413578028, "lat": 11.7398744, "lon": 125.0469607, "tags": {"admin_level": "10", "designation": "barangay", "is_in:town": "Paranas", "name": "Tigbawon", "place": "village", "source:name": "extrapolated from OSMaPaaralan, way/906012727"}}, {"type": "node", "id": 8413598922, "lat": 11.7871176, "lon": 125.0633756, "tags": {"name": "Sulopan", "place": "village"}}, {"type": "node", "id": 8413606639, "lat": 11.7072626, "lon": 125.0996074, "tags": {"name": "Cabalagnan", "place": "village"}}, {"type": "node", "id": 8413610030, "lat": 11.7584991, "lon": 125.0711111, "tags": {"name": "Balbagan", "place": "village"}}, {"type": "node", "id": 8414074671, "lat": 11.7244337, "lon": 125.238173, "tags": {"admin_level": "10", "admin_type:PH": "barangay", "is_in:town": "Hinabangan", "name": "Concord", "old_ref": "086008007", "place": "hamlet", "population": "780", "population:2015": "719", "ref": "0806008007", "source:population": "Philippine Statistics Authority"}}, {"type": "node", "id": 8416899664, "lat": 11.9151219, "lon": 125.0707511, "tags": {"admin_level": "10", "is_in:town": "Paranas", "name": "Nawi", "place": "village", "place:PH": "barangay"}}, {"type": "node", "id": 8416939324, "lat": 11.9260588, "lon": 125.079135, "tags": {"admin_level": "10", "is_in:town": "Paranas", "name": "Pagsang-an", "place": "village", "place:PH": "barangay"}}, {"type": "node", "id": 8416946558, "lat": 11.887813, "lon": 125.0615227, "tags": {"name": "Concepcion", "place": "village"}}, {"type": "node", "id": 8416946559, "lat": 11.9029491, "lon": 125.0429358, "tags": {"admin_level": "10", "admin_type:PH": "barangay", "name": "Jose Ro\u00f1o", "old_name": "Canligues", "old_ref": "086022013", "place": "hamlet", "population": "387", "population:2015": "364", "ref": "0806022013", "source:population": "Philippine Statistics Authority"}}, {"type": "node", "id": 8416958851, "lat": 11.942183, "lon": 125.0470165, "tags": {"admin_level": "10", "admin_type:PH": "barangay", "designation": "barangay", "is_in:town": "Motiong", "name": "Malonoy", "old_ref": "086012022", "place": "hamlet", "population": "156", "population:2015": "192", "ref": "0806012022", "source:name": "extrapolated from OSMaPaaralan, way/907190901", "source:population": "Philippine Statistics Authority"}}, {"type": "node", "id": 8417215456, "lat": 11.7947064, "lon": 125.0406514, "tags": {"admin_level": "10", "designation": "barangay", "is_in:town": "Paranas", "is_in:village": "?", "name": "Bagsa", "place": "hamlet", "source:name": "extrapolated from OSMaPaaralan, way/954537045"}}, {"type": "node", "id": 8417242217, "lat": 11.8205352, "lon": 125.0523681, "tags": {"name": "Salay", "place": "village"}}, {"type": "node", "id": 8417257779, "lat": 11.781442, "lon": 125.0504315, "tags": {"admin_level": "10", "is_in:town": "Paranas", "name": "Cantao-an", "place": "village", "place:PH": "barangay"}}, {"type": "node", "id": 8417294161, "lat": 11.8889126, "lon": 125.0328121, "tags": {"admin_level": "10", "admin_type:PH": "barangay", "designation": "barangay", "is_in:town": "Motiong", "name": "Pusongan", "old_ref": "086012031", "place": "hamlet", "population": "298", "population:2015": "302", "ref": "0806012031", "source:name": "extrapolated from OSMaPaaralan", "source:population": "Philippine Statistics Authority"}}, {"type": "node", "id": 8419800563, "lat": 11.9566321, "lon": 125.4256806, "tags": {"admin_level": "10", "designation": "barangay", "is_in:town": "Taft", "name": "San Juan", "place": "village", "source:name": "extrapolated from OSMaPaaralan, way/316156899"}}, {"type": "node", "id": 8424068736, "lat": 11.9475754, "lon": 125.0522212, "tags": {"admin_level": "10", "admin_type:PH": "barangay", "designation": "barangay", "is_in:town": "Motiong", "name": "Sarao", "old_ref": "086012030", "place": "hamlet", "population": "142", "population:2015": "152", "ref": "0806012030", "source:name": "extrapolated from OSMaPaaralan, way/909851566", "source:population": "Philippine Statistics Authority"}}, {"type": "node", "id": 8484532354, "lat": 11.7433303, "lon": 125.3754149, "tags": {"name": "Caruyagon", "place": "hamlet"}}, {"type": "node", "id": 8484570853, "lat": 11.8850766, "lon": 125.3988177, "tags": {"name": "Gayam", "place": "hamlet"}}, {"type": "node", "id": 8484578151, "lat": 11.9259603, "lon": 125.3632165, "tags": {"admin_level": "10", "is_in:town": "Taft", "name": "Del Remedios", "place": "village", "place:PH": "barangay"}}, {"type": "node", "id": 8589997916, "lat": 11.533237, "lon": 125.0925357, "tags": {"admin_level": "10", "designation": "barangay", "is_in:town": "Pinabacdao", "name": "Layo", "place": "hamlet", "source:name": "extrapolated from OSMaPaaralan, way/954484577"}}, {"type": "node", "id": 8590015236, "lat": 11.593986, "lon": 125.1108777, "tags": {"place": "village"}}, {"type": "node", "id": 8651398101, "lat": 11.9486465, "lon": 125.3838706, "tags": {"admin_level": "10", "is_in:town": "Taft", "name": "Beto", "place": "village", "place:PH": "barangay", "source": "USGS, NGA"}}, {"type": "node", "id": 8834161762, "lat": 11.549009, "lon": 125.1021726, "tags": {"admin_level": "10", "designation": "barangay", "is_in:town": "Calbiga", "name": "Hindang", "place": "hamlet", "source:name": "extrapolated from OSMaPaaralan, way/952931112"}}, {"type": "node", "id": 8834205675, "lat": 11.5182228, "lon": 125.1125273, "tags": {"admin_level": "10", "designation": "barangay", "is_in:town": "Pinabacdao", "name": "Canlobo", "place": "hamlet", "source:name": "extrapolated from OSMaPaaralan, way/954489155"}}, {"type": "node", "id": 8834238597, "lat": 11.6073359, "lon": 125.0636843, "tags": {"fixme": "name", "place": "hamlet"}}, {"type": "node", "id": 8834238598, "lat": 11.5912376, "lon": 125.0653955, "tags": {"fixme": "name", "place": "hamlet"}}, {"type": "node", "id": 8834957152, "lat": 11.8165692, "lon": 125.0986563, "tags": {"admin_level": "10", "designation": "barangay", "is_in:town": "Paranas", "name": "Cantato", "old_name": "Canturab", "place": "hamlet", "source:name": "extrapolated from OSMaPaaralan"}}, {"type": "node", "id": 8834979501, "lat": 11.7931985, "lon": 125.0325385, "tags": {"admin_level": "10", "designation": "barangay", "is_in:town": "Paranas", "name": "Cawayan", "place": "hamlet", "source:name": "extrapolated from OSMaPaaralan, way/954536918"}}, {"type": "node", "id": 8835039943, "lat": 11.7448715, "lon": 125.0489013, "tags": {"admin_level": "10", "alt_name": "Pagsaogan", "designation": "barangay", "is_in:town": "Paranas", "name": "Pagsa-ogan", "place": "village", "source:name": "extrapolated from OSMaPaaralan, way/954542794"}}, {"type": "node", "id": 8838069239, "lat": 11.9501139, "lon": 125.1098344, "tags": {"admin_level": "10", "designation": "barangay", "is_in:town": "Paranas", "name": "Anagasi", "place": "hamlet", "source:name": "extrapolated from OSMaPaaralan, way/954857371"}}, {"type": "node", "id": 8840685162, "lat": 11.9309824, "lon": 125.0469325, "tags": {"admin_level": "10", "admin_type:PH": "barangay", "is_in:town": "Motiong", "name": "Capaysagan", "old_ref": "086012015", "place": "hamlet", "population": "101", "population:2015": "140", "ref": "0806012015", "source:name": "extrapolated from OSMaPaaralan, way/955173454", "source:population": "Philippine Statistics Authority"}}, {"type": "node", "id": 9125205367, "lat": 11.9566062, "lon": 125.4265024}, {"type": "node", "id": 9125205368, "lat": 11.9569699, "lon": 125.4268852}, {"type": "node", "id": 9125205369, "lat": 11.9573312, "lon": 125.427571}, {"type": "node", "id": 9125205370, "lat": 11.9575238, "lon": 125.4280111}, {"type": "node", "id": 9125205371, "lat": 11.9578143, "lon": 125.4282438}, {"type": "node", "id": 9125205372, "lat": 11.9584671, "lon": 125.4285992}, {"type": "node", "id": 9125205373, "lat": 11.9589705, "lon": 125.4290263}, {"type": "node", "id": 9125205374, "lat": 11.9585841, "lon": 125.4267769}, {"type": "node", "id": 9125205375, "lat": 11.9559562, "lon": 125.426189}, {"type": "node", "id": 9280153937, "lat": 11.7705179, "lon": 125.0619211}, {"type": "node", "id": 9280153938, "lat": 11.7703774, "lon": 125.0616551}, {"type": "node", "id": 9280153939, "lat": 11.7703828, "lon": 125.0618929}, {"type": "node", "id": 9280153940, "lat": 11.7705089, "lon": 125.062245}, {"type": "node", "id": 9280153941, "lat": 11.7708751, "lon": 125.0622558}, {"type": "node", "id": 9280153942, "lat": 11.77097, "lon": 125.0628752}, {"type": "node", "id": 9280153943, "lat": 11.7716107, "lon": 125.0631084}, {"type": "node", "id": 9280153944, "lat": 11.7714955, "lon": 125.0633333}, {"type": "node", "id": 9280153945, "lat": 11.7713216, "lon": 125.0634878}, {"type": "node", "id": 9280153946, "lat": 11.7711031, "lon": 125.0634001}, {"type": "node", "id": 9280153947, "lat": 11.7709985, "lon": 125.0634928}, {"type": "node", "id": 9280153948, "lat": 11.7708629, "lon": 125.0634897}, {"type": "node", "id": 9280153949, "lat": 11.7706303, "lon": 125.0637304}, {"type": "node", "id": 9280153950, "lat": 11.7707291, "lon": 125.0638325}, {"type": "node", "id": 9280153951, "lat": 11.7709486, "lon": 125.063604}, {"type": "node", "id": 9280153952, "lat": 11.7711308, "lon": 125.06365}, {"type": "node", "id": 9280153953, "lat": 11.7712294, "lon": 125.0637704}, {"type": "node", "id": 9280153954, "lat": 11.7715778, "lon": 125.063761}, {"type": "node", "id": 9280153955, "lat": 11.7716244, "lon": 125.0641138}, {"type": "node", "id": 9280153956, "lat": 11.7715743, "lon": 125.0646582}, {"type": "node", "id": 9280153957, "lat": 11.7714482, "lon": 125.0646995}, {"type": "node", "id": 9280153958, "lat": 11.771395, "lon": 125.0648525}, {"type": "node", "id": 9280153959, "lat": 11.77086, "lon": 125.0651412}, {"type": "node", "id": 9280153960, "lat": 11.7707528, "lon": 125.065271}, {"type": "node", "id": 9280153961, "lat": 11.7706477, "lon": 125.065469}, {"type": "node", "id": 9280153962, "lat": 11.7705953, "lon": 125.0657562}, {"type": "node", "id": 9280153963, "lat": 11.770428, "lon": 125.0657447}, {"type": "node", "id": 9280153964, "lat": 11.770261, "lon": 125.0659792}, {"type": "node", "id": 9280153965, "lat": 11.7699556, "lon": 125.0661337}, {"type": "node", "id": 9280153966, "lat": 11.7697078, "lon": 125.0662073}, {"type": "node", "id": 9280153967, "lat": 11.7693243, "lon": 125.0660291}, {"type": "node", "id": 9280153968, "lat": 11.769218, "lon": 125.0658647}, {"type": "node", "id": 9280153969, "lat": 11.769434, "lon": 125.0657187}, {"type": "node", "id": 9280153970, "lat": 11.7697122, "lon": 125.065533}, {"type": "node", "id": 9280153971, "lat": 11.7698881, "lon": 125.0653218}, {"type": "node", "id": 9280153972, "lat": 11.7699718, "lon": 125.0650085}, {"type": "node", "id": 9280153973, "lat": 11.7694389, "lon": 125.0642557}, {"type": "node", "id": 9280153974, "lat": 11.7696684, "lon": 125.064325}, {"type": "node", "id": 9280153975, "lat": 11.7697984, "lon": 125.0645029}, {"type": "node", "id": 9280153976, "lat": 11.7699413, "lon": 125.0645888}, {"type": "node", "id": 9280153977, "lat": 11.7694137, "lon": 125.0584058}, {"type": "node", "id": 9280153978, "lat": 11.7692379, "lon": 125.0584783}, {"type": "node", "id": 9280153979, "lat": 11.7692615, "lon": 125.0585421}, {"type": "node", "id": 9280153980, "lat": 11.7690816, "lon": 125.0585453}, {"type": "node", "id": 9280153981, "lat": 11.7688832, "lon": 125.0585581}, {"type": "node", "id": 9280153982, "lat": 11.7686493, "lon": 125.0586444}, {"type": "node", "id": 9280153983, "lat": 11.7685301, "lon": 125.0588479}, {"type": "node", "id": 9280153984, "lat": 11.7685417, "lon": 125.0590714}, {"type": "node", "id": 9280153985, "lat": 11.7686666, "lon": 125.0591529}, {"type": "node", "id": 9280153986, "lat": 11.7688195, "lon": 125.0590957}, {"type": "node", "id": 9280153988, "lat": 11.7692077, "lon": 125.0593208}, {"type": "node", "id": 9280153989, "lat": 11.7692034, "lon": 125.059715}, {"type": "node", "id": 9280153990, "lat": 11.769174, "lon": 125.0598356}, {"type": "node", "id": 9280154057, "lat": 11.7691787, "lon": 125.0600502}, {"type": "node", "id": 9280154058, "lat": 11.7693731, "lon": 125.0600663}, {"type": "node", "id": 9280154059, "lat": 11.7695798, "lon": 125.0600342}, {"type": "node", "id": 9280154060, "lat": 11.7697755, "lon": 125.0599837}, {"type": "node", "id": 9280154061, "lat": 11.7698292, "lon": 125.0601149}, {"type": "node", "id": 9280154062, "lat": 11.7698493, "lon": 125.0602941}, {"type": "node", "id": 9280154063, "lat": 11.7695868, "lon": 125.0603902}, {"type": "node", "id": 9280154064, "lat": 11.7693746, "lon": 125.0604747}, {"type": "node", "id": 9280154065, "lat": 11.7694102, "lon": 125.0605545}, {"type": "node", "id": 9280154066, "lat": 11.7693271, "lon": 125.0606057}, {"type": "node", "id": 9280154067, "lat": 11.7692196, "lon": 125.0605304}, {"type": "node", "id": 9280154068, "lat": 11.7690088, "lon": 125.060541}, {"type": "node", "id": 9280154069, "lat": 11.7689768, "lon": 125.0606259}, {"type": "node", "id": 9280154070, "lat": 11.7688972, "lon": 125.0610789}, {"type": "node", "id": 9280154071, "lat": 11.7690465, "lon": 125.0610774}, {"type": "node", "id": 9280154072, "lat": 11.7691019, "lon": 125.0612303}, {"type": "node", "id": 9280154073, "lat": 11.7692316, "lon": 125.0614588}, {"type": "node", "id": 9280154074, "lat": 11.7691004, "lon": 125.0616595}, {"type": "node", "id": 9280154075, "lat": 11.7691201, "lon": 125.0619358}, {"type": "node", "id": 9280154076, "lat": 11.7692997, "lon": 125.0621504}, {"type": "node", "id": 9280154077, "lat": 11.7693604, "lon": 125.0622871}, {"type": "node", "id": 9280154078, "lat": 11.7693494, "lon": 125.0624826}, {"type": "node", "id": 9280154079, "lat": 11.7695257, "lon": 125.0625045}, {"type": "node", "id": 9280154080, "lat": 11.7695823, "lon": 125.0622956}, {"type": "node", "id": 9280154081, "lat": 11.7697467, "lon": 125.0620636}, {"type": "node", "id": 9280154082, "lat": 11.7697791, "lon": 125.0618042}, {"type": "node", "id": 9280154083, "lat": 11.7699476, "lon": 125.0621261}, {"type": "node", "id": 9280154084, "lat": 11.7696964, "lon": 125.0615533}, {"type": "node", "id": 9280154085, "lat": 11.769646, "lon": 125.0612866}, {"type": "node", "id": 9280154086, "lat": 11.7698023, "lon": 125.061421}, {"type": "node", "id": 9280154087, "lat": 11.7698972, "lon": 125.0616524}, {"type": "node", "id": 9280154088, "lat": 11.76996, "lon": 125.0618451}, {"type": "node", "id": 9280154089, "lat": 11.769798, "lon": 125.0623266}, {"type": "node", "id": 9280154090, "lat": 11.7696356, "lon": 125.0627557}, {"type": "node", "id": 9280154091, "lat": 11.7694846, "lon": 125.0627946}, {"type": "node", "id": 9280154092, "lat": 11.7695368, "lon": 125.0629407}, {"type": "node", "id": 9280154093, "lat": 11.7696146, "lon": 125.0629894}, {"type": "node", "id": 9280154094, "lat": 11.7695826, "lon": 125.0632646}, {"type": "node", "id": 9280154095, "lat": 11.7697931, "lon": 125.0633988}, {"type": "node", "id": 9280154096, "lat": 11.7699717, "lon": 125.0634943}, {"type": "node", "id": 9280154097, "lat": 11.7699691, "lon": 125.0635598}, {"type": "node", "id": 9280154098, "lat": 11.769817, "lon": 125.0636876}, {"type": "node", "id": 9280154099, "lat": 11.7695999, "lon": 125.0637242}, {"type": "node", "id": 9280210496, "lat": 11.7738568, "lon": 125.0864247}, {"type": "node", "id": 9280210497, "lat": 11.7735841, "lon": 125.0866404}, {"type": "node", "id": 9280210498, "lat": 11.7735754, "lon": 125.0864907}, {"type": "node", "id": 9280210499, "lat": 11.7732549, "lon": 125.086296}, {"type": "node", "id": 9280210500, "lat": 11.7729756, "lon": 125.0863547}, {"type": "node", "id": 9280210501, "lat": 11.7726609, "lon": 125.0862472}, {"type": "node", "id": 9280210502, "lat": 11.7725307, "lon": 125.0860737}, {"type": "node", "id": 9280210503, "lat": 11.7725577, "lon": 125.0856954}, {"type": "node", "id": 9280210504, "lat": 11.7722229, "lon": 125.0854613}, {"type": "node", "id": 9280210505, "lat": 11.7721166, "lon": 125.0855874}, {"type": "node", "id": 9280210506, "lat": 11.7719743, "lon": 125.0854544}, {"type": "node", "id": 9280210507, "lat": 11.7719559, "lon": 125.0851777}, {"type": "node", "id": 9280210508, "lat": 11.7719154, "lon": 125.0850726}, {"type": "node", "id": 9280210509, "lat": 11.7717175, "lon": 125.0852651}, {"type": "node", "id": 9280210510, "lat": 11.7714181, "lon": 125.0849794}, {"type": "node", "id": 9280237384, "lat": 11.7725475, "lon": 125.0857597}, {"type": "node", "id": 9280878318, "lat": 11.7705825, "lon": 125.0585834}, {"type": "node", "id": 9280878319, "lat": 11.7705869, "lon": 125.0577779}, {"type": "node", "id": 9280878320, "lat": 11.7713224, "lon": 125.0604621}, {"type": "node", "id": 9280878321, "lat": 11.7720909, "lon": 125.0603489}, {"type": "node", "id": 9280878322, "lat": 11.7721322, "lon": 125.0600574}, {"type": "node", "id": 9280878323, "lat": 11.7716361, "lon": 125.0599472}, {"type": "node", "id": 9280878324, "lat": 11.7716537, "lon": 125.0596423}, {"type": "node", "id": 9281204327, "lat": 11.9445959, "lon": 125.4259035}, {"type": "node", "id": 9281204328, "lat": 11.9444161, "lon": 125.4258702}, {"type": "node", "id": 9281204329, "lat": 11.9444356, "lon": 125.4256506}, {"type": "node", "id": 9281204330, "lat": 11.9444622, "lon": 125.425238}, {"type": "node", "id": 9281204331, "lat": 11.9454716, "lon": 125.4253639}, {"type": "node", "id": 9281204332, "lat": 11.9461277, "lon": 125.4255254}, {"type": "node", "id": 9281204333, "lat": 11.946171, "lon": 125.4253066}, {"type": "node", "id": 9281204334, "lat": 11.9460925, "lon": 125.4249441}, {"type": "node", "id": 9281204335, "lat": 11.945811, "lon": 125.4248573}, {"type": "node", "id": 9281204336, "lat": 11.9455813, "lon": 125.4249678}, {"type": "node", "id": 9281204337, "lat": 11.9453968, "lon": 125.424852}, {"type": "node", "id": 9281204338, "lat": 11.9455253, "lon": 125.4244685}, {"type": "node", "id": 9281204339, "lat": 11.9453148, "lon": 125.4241122}, {"type": "node", "id": 9281267233, "lat": 11.9538002, "lon": 125.4264254}, {"type": "node", "id": 9281267234, "lat": 11.9539506, "lon": 125.425891}, {"type": "node", "id": 9281267235, "lat": 11.9539327, "lon": 125.4257537}, {"type": "node", "id": 9281267236, "lat": 11.9540214, "lon": 125.4255722}, {"type": "node", "id": 9281267237, "lat": 11.9540066, "lon": 125.425439}, {"type": "node", "id": 9281267238, "lat": 11.954315, "lon": 125.4251502}, {"type": "node", "id": 9281267239, "lat": 11.9544337, "lon": 125.4250695}, {"type": "node", "id": 9281267242, "lat": 11.9543266, "lon": 125.4262373}, {"type": "node", "id": 9281267243, "lat": 11.9547139, "lon": 125.4240595}, {"type": "node", "id": 9281267244, "lat": 11.9547858, "lon": 125.4238933}, {"type": "node", "id": 9281267245, "lat": 11.9547595, "lon": 125.4237511}, {"type": "node", "id": 9281267246, "lat": 11.9548415, "lon": 125.42362}, {"type": "node", "id": 9281267247, "lat": 11.9549757, "lon": 125.4235481}, {"type": "node", "id": 9281267248, "lat": 11.9550764, "lon": 125.4235359}, {"type": "node", "id": 9281267256, "lat": 11.9545533, "lon": 125.4248505}, {"type": "node", "id": 9281267271, "lat": 11.9581928, "lon": 125.4259628}, {"type": "node", "id": 9281267272, "lat": 11.9580744, "lon": 125.4262456}, {"type": "node", "id": 9281267273, "lat": 11.9579367, "lon": 125.4265}, {"type": "node", "id": 9281267274, "lat": 11.9579888, "lon": 125.4266572}, {"type": "node", "id": 9281267275, "lat": 11.9580939, "lon": 125.4267087}, {"type": "node", "id": 9281267276, "lat": 11.9582993, "lon": 125.4265828}, {"type": "node", "id": 9281267277, "lat": 11.9588061, "lon": 125.4271348}, {"type": "node", "id": 9281267278, "lat": 11.9597863, "lon": 125.4282957}, {"type": "node", "id": 9298332946, "lat": 11.8339225, "lon": 125.094322}, {"type": "node", "id": 9298332947, "lat": 11.8334583, "lon": 125.0946901}, {"type": "node", "id": 9298332948, "lat": 11.834158, "lon": 125.0960067}, {"type": "node", "id": 9298332949, "lat": 11.8341649, "lon": 125.0963181}, {"type": "node", "id": 9298332950, "lat": 11.8337631, "lon": 125.0966579}, {"type": "node", "id": 9298332951, "lat": 11.8334652, "lon": 125.0968702}, {"type": "node", "id": 9298332952, "lat": 11.8334098, "lon": 125.0971604}, {"type": "node", "id": 9298332953, "lat": 11.8332782, "lon": 125.0973799}, {"type": "node", "id": 9298332954, "lat": 11.8329664, "lon": 125.0978754}, {"type": "node", "id": 9298332955, "lat": 11.8332712, "lon": 125.0983284}, {"type": "node", "id": 9298332956, "lat": 11.8331812, "lon": 125.0984699}, {"type": "node", "id": 9298332957, "lat": 11.8330218, "lon": 125.0985195}, {"type": "node", "id": 9298332958, "lat": 11.8328902, "lon": 125.0985336}, {"type": "node", "id": 9298332959, "lat": 11.8323221, "lon": 125.0984983}, {"type": "node", "id": 9298332960, "lat": 11.8321143, "lon": 125.0985124}, {"type": "node", "id": 9298332961, "lat": 11.8318579, "lon": 125.0986257}, {"type": "node", "id": 9298332962, "lat": 11.8316293, "lon": 125.0982222}, {"type": "node", "id": 9298332963, "lat": 11.8310266, "lon": 125.0985903}, {"type": "node", "id": 9298332964, "lat": 11.8307425, "lon": 125.0989442}, {"type": "node", "id": 9298332965, "lat": 11.8306178, "lon": 125.0990291}, {"type": "node", "id": 9298332966, "lat": 11.8296825, "lon": 125.0975781}, {"type": "node", "id": 9298332967, "lat": 11.8295163, "lon": 125.0972737}, {"type": "node", "id": 9298332968, "lat": 11.829544, "lon": 125.0965729}, {"type": "node", "id": 9298332969, "lat": 11.8304931, "lon": 125.0966083}, {"type": "node", "id": 9298332970, "lat": 11.8303961, "lon": 125.0964384}, {"type": "node", "id": 9298332971, "lat": 11.8302368, "lon": 125.0960987}, {"type": "node", "id": 9298332972, "lat": 11.8310543, "lon": 125.0955961}, {"type": "node", "id": 9298332973, "lat": 11.8313175, "lon": 125.0954333}, {"type": "node", "id": 9298332974, "lat": 11.8313383, "lon": 125.0941663}, {"type": "node", "id": 9298332975, "lat": 11.831948, "lon": 125.0941521}, {"type": "node", "id": 9298332976, "lat": 11.8319272, "lon": 125.0947325}, {"type": "node", "id": 9298332977, "lat": 11.8323498, "lon": 125.0947113}, {"type": "node", "id": 9298332978, "lat": 11.8335345, "lon": 125.0937557}, {"type": "node", "id": 12198460629, "lat": 11.6211402, "lon": 125.4241671}, {"type": "node", "id": 12198460630, "lat": 11.6215252, "lon": 125.4246875}, {"type": "node", "id": 12198460631, "lat": 11.6200883, "lon": 125.4258645}, {"type": "node", "id": 12198460632, "lat": 11.6188145, "lon": 125.4262117}, {"type": "node", "id": 12198460633, "lat": 11.6186978, "lon": 125.4258394}, {"type": "node", "id": 12198460634, "lat": 11.6191731, "lon": 125.4255223}, {"type": "node", "id": 12198460635, "lat": 11.6187961, "lon": 125.4252025}, {"type": "node", "id": 12198460636, "lat": 11.6197279, "lon": 125.4239585}, {"type": "node", "id": 12198460637, "lat": 11.6205535, "lon": 125.4240247}, {"type": "node", "id": 12211956615, "lat": 11.6192147, "lon": 125.424551}, {"type": "node", "id": 12622826784, "lat": 11.6132152, "lon": 125.4300566, "tags": {"name": "Balud \u2161", "place": "neighbourhood"}}, {"type": "node", "id": 12785300336, "lat": 11.827487, "lon": 125.2689532, "tags": {"name": "Canhaguemet", "place": "village"}}, {"type": "node", "id": 12856772340, "lat": 11.61588, "lon": 125.4350438, "tags": {"admin_level": "10", "admin_type:PH": "barangay", "name": "Songco", "official_name": "Songco", "place": "village"}}, {"type": "node", "id": 12856772341, "lat": 11.6189961, "lon": 125.4256394, "tags": {"admin_level": "10", "admin_type:PH": "barangay", "name": "Balud", "place": "village"}}, {"type": "node", "id": 12856772342, "lat": 11.6234169, "lon": 125.440515, "tags": {"admin_level": "10", "admin_type:PH": "barangay", "name": "Sabang South", "place": "village"}}, {"type": "node", "id": 12856772343, "lat": 11.6250641, "lon": 125.4438784, "tags": {"admin_level": "10", "admin_type:PH": "barangay", "name": "Sabang North", "place": "village"}}, {"type": "node", "id": 12856772344, "lat": 11.6104082, "lon": 125.4251592, "tags": {"admin_level": "10", "admin_type:PH": "barangay", "name": "Campesao", "place": "village"}}, {"type": "node", "id": 12856772345, "lat": 11.6086882, "lon": 125.4335553, "tags": {"name": "Poblacion", "place": "suburb"}}, {"type": "node", "id": 12856772346, "lat": 11.6040229, "lon": 125.4375341, "tags": {"admin_level": "10", "admin_type:PH": "barangay", "name": "Alang-alang", "place": "village"}}, {"type": "node", "id": 12856772349, "lat": 11.6058404, "lon": 125.4448092, "tags": {"name": "Rawis", "place": "suburb"}}, {"type": "node", "id": 12856772350, "lat": 11.5962692, "lon": 125.4374062, "tags": {"admin_level": "10", "admin_type:PH": "barangay", "name": "Bato", "place": "village"}}, {"type": "node", "id": 12856772351, "lat": 11.6063403, "lon": 125.4075746, "tags": {"admin_level": "10", "admin_type:PH": "barangay", "name": "Sohutan", "place": "village"}}, {"type": "node", "id": 12856772352, "lat": 11.595994, "lon": 125.4045504, "tags": {"admin_level": "10", "admin_type:PH": "barangay", "name": "Calico-an", "place": "village"}}, {"type": "node", "id": 12856772353, "lat": 11.6002538, "lon": 125.38885, "tags": {"admin_level": "10", "admin_type:PH": "barangay", "name": "Calico-an", "place": "village"}}, {"type": "node", "id": 12856772354, "lat": 11.585386, "lon": 125.3916554, "tags": {"admin_level": "10", "admin_type:PH": "barangay", "name": "Siha", "place": "village"}}, {"type": "node", "id": 12856772355, "lat": 11.5902919, "lon": 125.363164, "tags": {"admin_level": "10", "admin_type:PH": "barangay", "name": "San Gabriel", "place": "village"}}, {"type": "node", "id": 12856772356, "lat": 11.5459673, "lon": 125.4691333, "tags": {"admin_level": "10", "admin_type:PH": "barangay", "name": "Suribao", "place": "village"}}, {"type": "node", "id": 12856772357, "lat": 11.5404986, "lon": 125.4590513, "tags": {"admin_level": "10", "admin_type:PH": "barangay", "name": "Camada", "place": "village"}}, {"type": "node", "id": 12856772358, "lat": 11.5336344, "lon": 125.4515697, "tags": {"admin_level": "10", "admin_type:PH": "barangay", "name": "San Gregorio", "place": "village"}}, {"type": "node", "id": 12856772359, "lat": 11.5355387, "lon": 125.4262454, "tags": {"admin_level": "10", "admin_type:PH": "barangay", "name": "Cabalagnan", "place": "village"}}, {"type": "node", "id": 12856772360, "lat": 11.5139227, "lon": 125.4077332, "tags": {"admin_level": "10", "admin_type:PH": "barangay", "name": "Canyopay", "place": "village"}}, {"type": "node", "id": 12856772361, "lat": 11.5724362, "lon": 125.4663174, "tags": {"admin_level": "10", "admin_type:PH": "barangay", "name": "Locso-on", "place": "village"}}, {"type": "node", "id": 12856772362, "lat": 11.5869184, "lon": 125.4507266, "tags": {"admin_level": "10", "admin_type:PH": "barangay", "name": "Cabong", "place": "village"}}, {"type": "node", "id": 12856772363, "lat": 11.590599, "lon": 125.4709072, "tags": {"admin_level": "10", "admin_type:PH": "barangay", "name": "Lalawigan", "place": "village"}}, {"type": "node", "id": 12856772364, "lat": 11.5881409, "lon": 125.4399775, "tags": {"admin_level": "10", "admin_type:PH": "barangay", "name": "Can-abong", "place": "village"}}, {"type": "node", "id": 12856772365, "lat": 11.6296029, "lon": 125.447223, "tags": {"admin_level": "10", "admin_type:PH": "barangay", "name": "Pepelitan", "place": "village"}}, {"type": "node", "id": 12856772366, "lat": 11.630658, "lon": 125.4529872, "tags": {"admin_level": "10", "admin_type:PH": "barangay", "name": "Canlaray", "place": "village"}}, {"type": "node", "id": 12856772367, "lat": 11.6398208, "lon": 125.4534786, "tags": {"admin_level": "10", "admin_type:PH": "barangay", "name": "Maybacong", "place": "village"}}, {"type": "node", "id": 12856772368, "lat": 11.6378587, "lon": 125.4428384, "tags": {"admin_level": "10", "admin_type:PH": "barangay", "name": "Hindang", "place": "village"}}, {"type": "node", "id": 12856772369, "lat": 11.6519274, "lon": 125.4230042, "tags": {"admin_level": "10", "admin_type:PH": "barangay", "name": "Cagbonga", "place": "village"}}, {"type": "node", "id": 12856772370, "lat": 11.6304495, "lon": 125.3905237, "tags": {"admin_level": "10", "admin_type:PH": "barangay", "name": "San Mateo", "place": "village"}}, {"type": "node", "id": 12856772371, "lat": 11.6440029, "lon": 125.3832039, "tags": {"admin_level": "10", "admin_type:PH": "barangay", "name": "San Andres", "place": "village"}}, {"type": "node", "id": 12856772372, "lat": 11.6409659, "lon": 125.3825057, "tags": {"name": "San Andres Upper", "nga:ufi": "-2418338", "place": "hamlet", "source": "Bing;USGS, 2013-10-11;NGA"}}, {"type": "node", "id": 12856772373, "lat": 11.6869284, "lon": 125.4147856, "tags": {"admin_level": "10", "admin_type:PH": "barangay", "name": "Amantacop", "place": "village"}}, {"type": "node", "id": 12856772374, "lat": 11.6900065, "lon": 125.4332278, "tags": {"admin_level": "10", "admin_type:PH": "barangay", "name": "Balacdas", "place": "village"}}, {"type": "node", "id": 12856772375, "lat": 11.7025965, "lon": 125.4666311, "tags": {"admin_level": "10", "admin_type:PH": "barangay", "name": "Bugas", "place": "village"}}, {"type": "node", "id": 12856772376, "lat": 11.720075, "lon": 125.4637474, "tags": {"admin_level": "10", "admin_type:PH": "barangay", "name": "San Isidro", "place": "village"}}, {"type": "node", "id": 12856772377, "lat": 11.7346459, "lon": 125.4628916, "tags": {"admin_level": "10", "admin_type:PH": "barangay", "name": "Pagbabangnan", "place": "village"}}, {"type": "node", "id": 12856772378, "lat": 11.71641, "lon": 125.4432502, "tags": {"admin_level": "10", "admin_type:PH": "barangay", "name": "San Miguel", "place": "village"}}, {"type": "node", "id": 12856772379, "lat": 11.7106683, "lon": 125.4314666, "tags": {"admin_level": "10", "admin_type:PH": "barangay", "name": "Bunacan", "place": "village"}}, {"type": "node", "id": 12856772380, "lat": 11.6439666, "lon": 125.4787021, "tags": {"admin_level": "10", "admin_type:PH": "barangay", "name": "Ando", "place": "village"}}, {"type": "node", "id": 12856777278, "lat": 11.6703009, "lon": 125.4207879, "tags": {"admin_level": "10", "admin_type:PH": "barangay", "name": "San Pablo", "place": "village"}}, {"type": "way", "id": 316041286, "nodes": [3221583834, 9281267234, 9281267235, 9281267236, 9281267237, 3221583836, 9281267238, 9281267239, 3221583838, 9281267256, 3221583840, 9281267243, 9281267244, 9281267245, 9281267246, 9281267247, 9281267248, 3221583843, 3221583844, 3221583846, 3221583851, 3221583853, 3221583854, 3221583852, 9281267271, 9281267272, 9281267273, 9281267274, 9281267275, 9281267276, 9125205374, 9281267277, 9281267278, 9125205373, 9125205372, 9125205371, 9125205370, 9125205369, 3221583850, 9125205368, 9125205367, 3221583847, 9125205375, 3221583845, 3221583842, 9281267242, 3221583837, 3221583835, 9281267233, 3221583834], "tags": {"name": "SanJuan", "place": "village"}}, {"type": "way", "id": 316041287, "nodes": [3221583806, 3221583805, 3221583804, 3221583807, 3221583808, 3221583810, 3221583815, 3221583817, 3221583820, 3221583824, 3221583827, 9281204339, 3221583831, 9281204338, 9281204337, 9281204336, 9281204335, 9281204334, 9281204333, 9281204332, 9281204331, 6061124182, 3221583830, 3221583829, 3221583826, 9281204327, 9281204328, 9281204329, 9281204330, 3221583823, 3221583822, 3221583821, 3221583819, 3221583818, 3221583816, 3221583814, 3221583811, 3221583809, 3221583806], "tags": {"name": "San Luis", "place": "village"}}, {"type": "way", "id": 529803876, "nodes": [5146108776, 5146108777, 5146108778, 5146108779, 5146108780, 5146108781, 5146108782, 5146108783, 5146108784, 5146108785, 5146108786, 9280153977, 9280153978, 9280153979, 5146108787, 9280153980, 9280153981, 9280153982, 9280153983, 9280153984, 9280153985, 9280153986, 5146108788, 5146108789, 9280153988, 9280153989, 9280153990, 9280154057, 9280154058, 9280154059, 9280154060, 9280154061, 9280154062, 9280154063, 9280154064, 9280154065, 9280154066, 9280154067, 9280154068, 9280154069, 9280154070, 9280154071, 9280154072, 9280154073, 9280154074, 9280154075, 9280154076, 9280154077, 9280154078, 9280154079, 9280154080, 9280154081, 9280154082, 9280154084, 9280154085, 9280154086, 9280154087, 9280154088, 9280154083, 9280154089, 9280154090, 9280154091, 9280154092, 9280154093, 9280154094, 9280154095, 9280154096, 9280154097, 9280154098, 9280154099, 5146108790, 5146108791, 9280153973, 9280153974, 9280153975, 9280153976, 9280153972, 9280153971, 9280153970, 9280153969, 9280153968, 9280153967, 9280153966, 9280153965, 9280153964, 9280153963, 9280153962, 9280153961, 9280153960, 9280153959, 5146108792, 9280153958, 9280153957, 9280153956, 9280153955, 9280153954, 9280153953, 9280153952, 9280153951, 9280153950, 9280153949, 9280153948, 9280153947, 9280153946, 9280153945, 9280153944, 9280153943, 5146108793, 9280153942, 9280153941, 9280153940, 9280153937, 9280153939, 9280153938, 5146108794, 5146108795, 9280878320, 9280878321, 9280878322, 9280878323, 9280878324, 5146108796, 9280878318, 9280878319, 5146108776], "tags": {"name": "Pequit", "place": "village"}}, {"type": "way", "id": 530086975, "nodes": [5148313258, 5148313259, 5148313260, 5148313261, 5148313262, 5148313263, 5148313264, 5148313265, 5148313278, 5148313277, 5148313276, 5148313275, 5148313266, 5148313267, 5148313268, 9280210496, 5148313269, 9280210497, 9280210498, 9280210499, 9280210500, 9280210501, 9280210502, 5148313270, 9280237384, 9280210503, 9280210504, 9280210505, 9280210506, 5148313271, 9280210507, 5148313272, 9280210508, 9280210509, 9280210510, 5148313273, 5148313258], "tags": {"name": "Patag", "place": "village"}}, {"type": "way", "id": 530086978, "nodes": [5148313300, 5148313301, 5148313302, 5148313303, 5148313304, 5148313305, 5148313306, 5148313300], "tags": {"place": "village"}}, {"type": "way", "id": 896261594, "nodes": [8331271628, 8331271629, 8331271630, 8331271631, 8331271632, 8331271633, 8331271634, 8331271635, 8331271636, 8331271637, 8331271638, 8331271639, 8331271640, 8331271641, 8331271642, 8331271643, 8331271644, 8331271645, 8331271646, 8331271647, 8331271648, 8331271649, 8331271650, 8331271651, 8331271628], "tags": {"name": "Concepcion", "place": "village"}}, {"type": "way", "id": 1007907354, "nodes": [9298332946, 9298332947, 9298332948, 9298332949, 9298332950, 9298332951, 9298332952, 9298332953, 9298332954, 9298332955, 9298332956, 9298332957, 9298332958, 9298332959, 9298332960, 9298332961, 9298332962, 9298332963, 9298332964, 9298332965, 9298332966, 9298332967, 9298332968, 9298332969, 9298332970, 9298332971, 9298332972, 9298332973, 9298332974, 9298332975, 9298332976, 9298332977, 9298332978, 9298332946], "tags": {"name": "Casandeg", "place": "village"}}, {"type": "way", "id": 1318043039, "nodes": [12198460629, 12198460630, 12198460631, 12198460632, 12198460633, 12198460634, 12198460635, 12211956615, 12198460636, 12198460637, 12198460629], "tags": {"name": "Lipgutan", "place": "village"}}]}