{"version": 0.6, "generator": "Overpass API 0.7.62.5 1bd436f1", "osm3s": {"timestamp_osm_base": "2025-05-24T17:52:15Z", "copyright": "The data included in this document is from www.openstreetmap.org. The data is made available under ODbL."}, "elements": [{"type": "node", "id": 198512492, "lat": 18.022963, "lon": 121.1841242, "tags": {"admin_level": "6", "capital": "4", "name": "Kabugao", "name:ilo": "Kabugao", "name:ja": "\u30ab\u30d6\u30ac\u30aa", "official_name:ilo": "Ili ti Kabugao", "place": "town", "place:PH": "municipality", "population": "15537", "population:date": "2015-08-01", "postal_code": "3809", "ref": "148104000", "source:population": "Philippine Statistics Authority", "wikidata": "Q30053", "wikimedia_commons": "Category:Kabugao", "wikipedia": "en:Kabugao", "wikipedia:ilo": "Kabugao, Apayao"}}, {"type": "node", "id": 198513396, "lat": 17.7829065, "lon": 120.943593, "tags": {"admin_level": "6", "name": "Tineg", "place": "town", "place:PH": "municipality", "population": "5097", "population:date": "2015-08-01", "ref": "140125000", "source:population": "Philippine Statistics Authority", "wikidata": "Q29146", "wikimedia_commons": "Category:Tineg", "wikipedia": "en:Tineg"}}, {"type": "node", "id": 3552474362, "lat": 17.8919772, "lon": 121.2275405, "tags": {"admin_level": "11", "admin_type:PH": "sitio", "fixme": "for verify.", "name": "Banan", "place": "hamlet"}}, {"type": "node", "id": 3552474373, "lat": 18.0081859, "lon": 121.1972225, "tags": {"admin_level": "11", "admin_type:PH": "sitio", "name": "Binuan", "place": "hamlet"}}, {"type": "node", "id": 3554502202, "lat": 17.7654137, "lon": 120.9287847, "tags": {"fixme": "name", "place": "village"}}, {"type": "node", "id": 5043898462, "lat": 17.7670041, "lon": 120.9733785, "tags": {"admin_level": "11", "admin_type:PH": "sitio", "is_in:town": "Lacub", "is_in:village": "Buneg", "name": "Talipugo", "place": "hamlet"}}, {"type": "node", "id": 5043904971, "lat": 17.7626556, "lon": 120.9991443, "tags": {"fixme": "name", "place": "hamlet"}}, {"type": "node", "id": 5043904972, "lat": 17.8040011, "lon": 120.9934029, "tags": {"fixme": "name", "place": "village"}}, {"type": "node", "id": 5043904995, "lat": 17.8180858, "lon": 121.0517997, "tags": {"fixme": "name", "place": "hamlet"}}, {"type": "node", "id": 5043992325, "lat": 17.8086522, "lon": 120.9670199, "tags": {"admin_level": "10", "admin_type:PH": "barangay", "is_in:town": "Tineg", "name": "Cogon", "old_ref": "140125007", "place": "hamlet", "population": "548", "population:2015": "510", "ref": "1400125007", "source:population": "Philippine Statistics Authority"}}, {"type": "node", "id": 8856086105, "lat": 17.7822987, "lon": 120.9430549, "tags": {"admin_level": "10", "designation": "barangay", "is_in:town": "Tineg", "name": "Poblacion", "old_name": "Agsimao", "place": "village", "source:name": "extrapolated from OSMaPaaralan"}}, {"type": "node", "id": 9061399290, "lat": 17.9760804, "lon": 121.2038952, "tags": {"admin_level": "10", "name": "Badduat", "place": "village"}}, {"type": "node", "id": 9061421562, "lat": 18.0395436, "lon": 121.1742196, "tags": {"admin_level": "10", "name": "Laco", "place": "village"}}, {"type": "node", "id": 9061422035, "lat": 18.1066717, "lon": 121.1167954, "tags": {"admin_level": "10", "name": "Tuyangan", "place": "village"}}, {"type": "node", "id": 9061426766, "lat": 18.0245575, "lon": 121.1545715, "tags": {"admin_level": "10", "name": "Nagbabalayan", "place": "village"}}, {"type": "node", "id": 9460500713, "lat": 17.7623657, "lon": 121.2748039, "tags": {"name": "Lapat", "place": "hamlet"}}, {"type": "node", "id": 9504223860, "lat": 18.0434564, "lon": 121.2207949, "tags": {"admin_level": "10", "admin_type:PH": "barangay", "is_in:town": "Kabugao", "name": "Bulu", "place": "hamlet", "population": "401", "population:2015": "297", "ref": "148104004", "source:population": "Philippine Statistics Authority", "way": "1031098452"}}, {"type": "node", "id": 9529207005, "lat": 18.1280544, "lon": 121.0717091, "tags": {"admin_level": "10", "admin_type:PH": "barangay", "is_in": "Calanasan", "name": "Namaltugan", "place": "village", "population": "941", "population:2015": "918", "ref": "148101006", "source:name": "extrapolated from OSMaPaaralan, way/1007083570", "source:population": "Philippine Statistics Authority"}}, {"type": "node", "id": 9529207006, "lat": 18.130325, "lon": 121.0739726, "tags": {"admin_level": "12", "admin_type:PH": "purok", "is_in": "Namaltugan;Calanasan", "name": "Abbel", "place": "neighbourhood", "source:name": "extrapolated from OSMaPaaralan, way/1007083570"}}, {"type": "node", "id": 9529207007, "lat": 18.1308913, "lon": 121.0793291, "tags": {"admin_level": "12", "admin_type:PH": "purok", "is_in": "Namaltugan;Calanasan", "name": "Sugoc", "place": "neighbourhood", "source:name": "extrapolated from OSMaPaaralan, way/772046032"}}, {"type": "node", "id": 9695565048, "lat": 18.103414, "lon": 121.3156056, "tags": {"admin_level": "10", "designation": "barangay", "name": "Lieutenant Balag", "place": "village"}}, {"type": "node", "id": 9695743825, "lat": 17.9582455, "lon": 121.2130272, "tags": {"admin_level": "11", "admin_type:PH": "sitio", "name": "Purag", "place": "hamlet"}}, {"type": "node", "id": 9695743830, "lat": 17.9422262, "lon": 121.2116432, "tags": {"admin_level": "11", "admin_type:PH": "sitio", "name": "Guimitan", "place": "hamlet"}}, {"type": "node", "id": 9695743835, "lat": 17.9225867, "lon": 121.2156022, "tags": {"admin_level": "10", "admin_type:PH": "barangay", "name": "Lenneng", "place": "village"}}, {"type": "node", "id": 9695758154, "lat": 17.9912848, "lon": 121.2047446, "tags": {"admin_level": "10", "designation": "barangay", "name": "Luttuacan", "place": "village"}}, {"type": "node", "id": 9695758159, "lat": 17.992346, "lon": 121.2057853, "tags": {"admin_level": "11", "designation": "sitio", "name": "Mallag", "place": "hamlet"}}, {"type": "node", "id": 9698640505, "lat": 17.8630527, "lon": 121.2438861, "tags": {"admin_level": "10", "admin_type:PH": "barangay", "name": "Guina-ang", "place": "village"}}, {"type": "node", "id": 9698665318, "lat": 17.8999792, "lon": 121.2378216, "tags": {"admin_level": "11", "admin_type:PH": "sitio", "is_in:town": "Kabugao", "is_in:village": "Guina-ang", "name": "Buguit", "place": "hamlet"}}, {"type": "node", "id": 9698665319, "lat": 17.8768174, "lon": 121.2339914, "tags": {"admin_level": "11", "admin_type:PH": "sitio", "name": "Abungan", "place": "hamlet"}}, {"type": "node", "id": 9698848761, "lat": 17.800207, "lon": 121.320895, "tags": {"admin_level": "10", "admin_type:PH": "barangay", "is_in:town": "Conner", "name": "Ripang", "old_ref": "148102015", "place": "village", "population": "1084", "ref": "1408102015", "source:population": "Philippine Statistics Authority"}}, {"type": "node", "id": 9698848762, "lat": 17.8109505, "lon": 121.2968033, "tags": {"admin_level": "11", "admin_type:PH": "sitio", "name": "Cubet", "place": "hamlet"}}, {"type": "node", "id": 9698860024, "lat": 17.8145307, "lon": 121.2823409, "tags": {"admin_level": "10", "admin_type:PH": "barangay", "name": "Malama", "place": "village"}}, {"type": "node", "id": 9698860039, "lat": 17.832502, "lon": 121.2664998, "tags": {"admin_level": "10", "admin_type:PH": "barangay", "name": "Ili", "place": "village"}}, {"type": "node", "id": 11170890937, "lat": 17.9459313, "lon": 121.2461364, "tags": {"admin_level": "11", "admin_type:PH": "sitio", "is_in:town": "Kabugao", "is_in:village": "Lenneng", "name": "Kaliat", "place": "hamlet"}}, {"type": "node", "id": 11219557044, "lat": 17.8506515, "lon": 120.9400159, "tags": {"admin_level": "10", "admin_type:PH": "barangay", "is_in:town": "Tineg", "name": "Naglibacan", "place": "village"}}, {"type": "node", "id": 11533353205, "lat": 17.8494707, "lon": 121.2787735, "tags": {"admin_level": "10", "admin_type:PH": "barangay", "name": "Guinamgaman", "place": "village"}}, {"type": "node", "id": 11533353206, "lat": 17.8412546, "lon": 121.255382, "tags": {"admin_level": "10", "admin_type:PH": "barangay", "name": "Manag", "place": "village"}}, {"type": "node", "id": 11533353207, "lat": 17.7978242, "lon": 121.2821397, "tags": {"admin_level": "10", "admin_type:PH": "barangay", "name": "Paddaoan", "place": "village"}}, {"type": "node", "id": 11533353208, "lat": 17.8338323, "lon": 121.2487623, "tags": {"admin_level": "10", "admin_type:PH": "barangay", "name": "Talifugo", "place": "village"}}, {"type": "node", "id": 12189308992, "lat": 17.7958169, "lon": 121.3087741, "tags": {"admin_level": "12", "admin_type:PH": "purok", "is_in:town": "Conner", "is_in:village": "Caglayan", "name": "Paddig", "place": "neighbourhood"}}, {"type": "node", "id": 12189309362, "lat": 17.8111752, "lon": 121.3148144, "tags": {"admin_level": "10", "admin_type:PH": "barangay", "is_in:town": "Rizal", "name": "Lattut", "old_ref": "021521013", "place": "village", "population": "909", "ref": "0201521013", "source:population": "Philippine Statistics Authority"}}, {"type": "node", "id": 12752914561, "lat": 18.107646, "lon": 120.9994698, "tags": {"admin_level": "10", "admin_type:PH": "barangay", "name": "Butao", "place": "village"}}, {"type": "node", "id": 12752931438, "lat": 17.9048746, "lon": 121.2220475, "tags": {"admin_level": "11", "admin_type:PH": "sitio", "is_in:town": "Kabugao", "is_in:village": "Lenneng", "name": "Taracay", "place": "hamlet"}}, {"type": "node", "id": 12752931447, "lat": 17.9257359, "lon": 121.0893345, "tags": {"admin_level": "10", "admin_type:PH": "barangay", "name": "Dagara", "place": "village"}}]}