{"version": 0.6, "generator": "Overpass API 0.7.62.5 1bd436f1", "osm3s": {"timestamp_osm_base": "2025-05-24T18:02:29Z", "copyright": "The data included in this document is from www.openstreetmap.org. The data is made available under ODbL."}, "elements": [{"type": "node", "id": 198491001, "lat": 7.9833903, "lon": 124.3855095, "tags": {"admin_level": "6", "gns_classification": "ADM2", "gns_uni": "6719693", "is_in:province": "Lanao del Sur", "name": "Bubong", "place": "town", "place:PH": "municipality", "population": "22336", "population:date": "2015-08-01", "source": "GNS", "source:population": "Philippine Statistics Authority", "wikidata": "Q273757", "wikimedia_commons": "Category:Bubong", "wikipedia": "en:Bubong"}}, {"type": "node", "id": 198491672, "lat": 8.1332196, "lon": 124.1671308, "tags": {"admin_level": "6", "gns_classification": "ADM2", "gns_uni": "6719731", "is_in:province": "Lanao del Norte", "name": "Matungao", "place": "town", "place:PH": "municipality", "population": "13975", "population:date": "2015-08-01", "source": "GNS", "source:population": "Philippine Statistics Authority", "wikidata": "Q274272", "wikimedia_commons": "Category:Matungao", "wikipedia": "en:Matungao"}}, {"type": "node", "id": 198492549, "lat": 8.0736026, "lon": 124.3638057, "tags": {"admin_level": "6", "gns_classification": "ADM2", "gns_uni": "6719687", "is_in:province": "Lanao del Sur", "name": "Kapai", "place": "town", "place:PH": "municipality", "population": "18894", "population:date": "2015-08-01", "source": "GNS", "source:population": "Philippine Statistics Authority", "wikidata": "Q273864", "wikimedia_commons": "Category:Kapai", "wikipedia": "en:Kapai"}}, {"type": "node", "id": 198495497, "lat": 8.1839585, "lon": 124.1569454, "tags": {"admin_level": "6", "gns_classification": "ADM2", "gns_uni": "6719726", "name": "Linamon", "name:es": "Linam\u00f3n", "place": "town", "place:PH": "municipality", "population": "20341", "population:date": "2015-08-01", "wikidata": "Q274230", "wikimedia_commons": "Category:Linamon", "wikipedia": "en:Linamon"}}, {"type": "node", "id": 198495672, "lat": 7.9788768, "lon": 124.3516506, "tags": {"admin_level": "6", "gns_classification": "ADM2", "gns_uni": "-3372110", "is_in:province": "Lanao del Sur", "name": "Ditsaan-Ramain", "name:uk": "\u0414\u0456\u0446\u0430\u0430\u043d-\u0420\u0430\u043c\u0430\u0456\u043d", "place": "town", "place:PH": "municipality", "population": "22299", "population:date": "2015-08-01", "source": "GNS", "source:population": "Philippine Statistics Authority", "wikidata": "Q273828", "wikimedia_commons": "Category:Ditsaan-Ramain", "wikipedia": "en:Ditsaan-Ramain"}}, {"type": "node", "id": 198497803, "lat": 8.1155656, "lon": 124.2220178, "tags": {"admin_level": "6", "alt_name": "Baloi", "gns_classification": "ADM2", "gns_uni": "6719729", "is_in:province": "Lanao del Norte", "name": "Balo-i", "official_name": "Municipality of Baloi", "place": "town", "place:PH": "municipality", "population": "58383", "population:date": "2015-08-01", "source": "GNS", "source:population": "Philippine Statistics Authority", "wikidata": "Q274164", "wikimedia_commons": "Category:Baloi, Lanao del Norte", "wikipedia": "en:Balo-i"}}, {"type": "node", "id": 198498827, "lat": 8.0340831, "lon": 124.2687239, "tags": {"admin_level": "6", "gns_classification": "ADM2", "gns_uni": "6719695", "is_in:province": "Lanao del Sur", "name": "Saguiaran", "old_ref": "153625000", "place": "town", "place:PH": "municipality", "population": "24619", "population:date": "2015-08-01", "ref": "1903625000", "source": "GNS", "source:population": "Philippine Statistics Authority", "wikidata": "Q274057", "wikimedia_commons": "Category:Saguiaran", "wikipedia": "en:Saguiaran"}}, {"type": "node", "id": 198499369, "lat": 8.1328988, "lon": 124.1177626, "tags": {"admin_level": "6", "alt_name": "Lumbacaingud", "fixme": "confirm location of poblacion", "gns_classification": "ADM2", "gns_uni": "6719733", "is_in:province": "Lanao del Norte", "name": "Poona Piagapo", "name:uk": "\u041f\u043e\u043e\u043d\u0430 \u041f\u0456\u0430\u0491\u0430\u043f\u043e", "place": "town", "place:PH": "municipality", "population": "27018", "population:date": "2015-08-01", "source": "GNS", "source:population": "Philippine Statistics Authority", "wikidata": "Q274343", "wikimedia_commons": "Category:Poona Piagapo", "wikipedia": "en:Poona Piagapo"}}, {"type": "node", "id": 198500910, "lat": 8.061219, "lon": 124.2642034, "tags": {"admin_level": "6", "gns_classification": "ADM2", "gns_uni": "6719737", "is_in:province": "Lanao del Norte", "name": "Pantar", "place": "town", "place:PH": "municipality", "population": "21773", "population:date": "2015-08-01", "source": "GNS", "source:population": "Philippine Statistics Authority", "wikidata": "Q274329", "wikimedia_commons": "Category:Pantar, Lanao del Norte", "wikipedia": "en:Pantar, Lanao del Norte"}}, {"type": "node", "id": 198506317, "lat": 8.0610559, "lon": 124.1846453, "tags": {"admin_level": "6", "gns_classification": "ADM2", "gns_uni": "6719735", "is_in:province": "Lanao del Norte", "name": "Pantao Ragat", "old_ref": "103516000", "place": "town", "place:PH": "municipality", "population": "27866", "population:date": "2015-08-01", "ref": "1003516000", "source": "GNS", "source:population": "Philippine Statistics Authority", "wikidata": "Q274313", "wikimedia_commons": "Category:Pantao Ragat", "wikipedia": "en:Pantao Ragat"}}, {"type": "node", "id": 198509098, "lat": 8.1268565, "lon": 124.2767478, "tags": {"admin_level": "6", "ele": "400", "is_in:province": "Lanao del Norte", "name": "Tagoloan", "place": "town", "place:PH": "municipality", "population": "15091", "population:date": "2020-05-01", "postal_code": "9222", "source:population": "Philippine Statistics Authority", "wikidata": "Q274406", "wikimedia_commons": "Category:Tagoloan, Lanao del Norte", "wikipedia": "en:Tagoloan, Lanao del Norte"}}, {"type": "node", "id": 198532242, "lat": 7.9654, "lon": 124.37615, "tags": {"admin_level": "6", "gns_classification": "ADM2", "gns_uni": "-3332562", "is_in:province": "Lanao del Sur", "name": "Buadiposo-Buntong", "place": "town", "place:PH": "municipality", "population": "16130", "population:date": "2015-08-01", "source": "GNS", "source:population": "Philippine Statistics Authority", "wikidata": "Q273744", "wikimedia_commons": "Category:Buadiposo-Buntong", "wikipedia": "en:Buadiposo-Buntong"}}, {"type": "node", "id": 198532458, "lat": 8.0798345, "lon": 124.4157352, "tags": {"admin_level": "6", "gns_classification": "ADM2", "gns_uni": "6719689", "is_in:province": "Lanao del Sur", "name": "Tagoloan II", "place": "town", "place:PH": "municipality", "population": "11169", "population:date": "2015-08-01", "source": "GNS", "source:population": "Philippine Statistics Authority", "wikidata": "Q274077", "wikimedia_commons": "Category:Tagoloan, Lanao del Sur", "wikipedia": "en:Tagoloan, Lanao del Sur"}}, {"type": "node", "id": 968039424, "lat": 8.0047262, "lon": 124.2854351, "tags": {"admin_level": "6", "alt_name:es": "Marahui", "capital": "4", "ele": "710", "name": "Marawi", "name:de": "Marawi", "name:es": "Marawi", "name:ja": "\u30de\u30e9\u30a6\u30a3", "old_name": "Dansalan", "old_name:es": "Marahui", "place": "city", "population": "207010", "population:date": "2020-05-01", "postal_code": "9700", "ref": "153617000", "start_date": "1639-10", "wikidata": "Q592338", "wikimedia_commons": "Category:Marawi", "wikipedia": "en:Marawi", "wikipedia:es": "Marahui"}}, {"type": "node", "id": 1321553540, "lat": 8.1621408, "lon": 124.1925915, "tags": {"admin_level": "11", "admin_type:PH": "sitio", "is_in:city": "Iligan", "is_in:village": "Ditucalan", "name": "Upper Taytay", "place": "hamlet"}}, {"type": "node", "id": 1321728304, "lat": 8.2605401, "lon": 124.2571326, "tags": {"name": "Palmera Hills Subdivision", "place": "neighbourhood"}}, {"type": "node", "id": 1321746274, "lat": 8.2674413, "lon": 124.2630075, "tags": {"name": "Maria Cristina Gardens", "place": "neighbourhood"}}, {"type": "node", "id": 1321796902, "lat": 8.2977855, "lon": 124.2558733, "tags": {"name": "Ibo Village", "place": "neighbourhood", "place:PH": "village"}}, {"type": "node", "id": 1321797010, "lat": 8.3372777, "lon": 124.2567676, "tags": {"admin_level": "11", "admin_type:PH": "purok", "name": "Andres Bonifacio", "place": "neighbourhood"}}, {"type": "node", "id": 1329763175, "lat": 8.2581246, "lon": 124.2584102, "tags": {"name": "Duranta", "place": "neighbourhood"}}, {"type": "node", "id": 1551430780, "lat": 8.176033, "lon": 124.1927684, "tags": {"admin_level": "10", "designation": "barangay", "is_in:city": "Iligan", "name": "Ditucalan", "place": "village", "population": "4039", "population:2015": "3385", "population:date": "2020-05-01", "ref": "103504039", "source:population": "Philippine Statistics Authority"}}, {"type": "node", "id": 1551464599, "lat": 8.1697834, "lon": 124.1725092}, {"type": "node", "id": 1551464602, "lat": 8.1700893, "lon": 124.1738559}, {"type": "node", "id": 1551464618, "lat": 8.1705272, "lon": 124.1726478}, {"type": "node", "id": 1551464635, "lat": 8.1708398, "lon": 124.1750685}, {"type": "node", "id": 1551464638, "lat": 8.1713965, "lon": 124.1726013}, {"type": "node", "id": 1551464639, "lat": 8.172427, "lon": 124.1742936}, {"type": "node", "id": 1558950509, "lat": 8.2071297, "lon": 124.2433465}, {"type": "node", "id": 1558950511, "lat": 8.2071358, "lon": 124.2436592}, {"type": "node", "id": 1558950513, "lat": 8.2072468, "lon": 124.2436306}, {"type": "node", "id": 1558950515, "lat": 8.2075892, "lon": 124.2431206}, {"type": "node", "id": 1558950517, "lat": 8.2082442, "lon": 124.2429253}, {"type": "node", "id": 1558950518, "lat": 8.2084297, "lon": 124.2467299}, {"type": "node", "id": 1558950528, "lat": 8.2096082, "lon": 124.2459266}, {"type": "node", "id": 1558950530, "lat": 8.2097035, "lon": 124.246163}, {"type": "node", "id": 1558950531, "lat": 8.2104406, "lon": 124.2455712}, {"type": "node", "id": 1930105044, "lat": 8.3113073, "lon": 124.4179524, "tags": {"alt_name": "Loklok;Sitio Loklok;Sitio Locloc", "is_in:barangay": "Mainit", "is_in:city": "Iligan", "name": "Locloc", "place": "hamlet", "postal_code": "9200"}}, {"type": "node", "id": 2111378743, "lat": 8.3431526, "lon": 124.2597747, "tags": {"admin_level": "6", "admin_type:PH": "municipality", "alt_name": "Luga-it", "gns_classification": "ADM2", "is_in:province": "Misamis Oriental", "name": "Lugait", "old_ref": "104316000", "place": "town", "population": "19758", "population:date": "2015-08-01", "ref": "1004316000", "source:population": "Philippine Statistics Authority", "wikidata": "Q195780", "wikimedia_commons": "Category:Lugait", "wikipedia": "en:Lugait"}}, {"type": "node", "id": 2417364147, "lat": 8.1940463, "lon": 124.2286232, "tags": {"name": "Steeltown", "place": "neighbourhood"}}, {"type": "node", "id": 2883683142, "lat": 8.0978236, "lon": 124.5307767, "tags": {"admin_level": "11", "designation": "sitio", "is_in:village": "Rogongon", "name": "Limunsudan", "note": "also claimed by Bayog, Tagoloan II", "place": "hamlet", "place:PH": "sitio"}}, {"type": "node", "id": 2990360953, "lat": 8.2094059, "lon": 124.2443176}, {"type": "node", "id": 3073509722, "lat": 8.2818929, "lon": 124.266195, "tags": {"admin_level": "10", "designation": "barangay", "is_in:city": "Iligan", "name": "Kiwalan", "place": "village", "population": "7710", "population:date": "2020-05-01", "ref": "103504011", "source:population": "Philippine Statistics Authority"}}, {"type": "node", "id": 4070932283, "lat": 8.2281556, "lon": 124.2411508, "tags": {"admin_level": "6", "name": "Iligan", "name:zh": "\u4f0a\u5229\u7518", "place": "city", "population": "342618", "population:date": "2015-08-01", "source:population": "Philippine Statistics Authority", "wikidata": "Q285488", "wikimedia_commons": "Category:Iligan", "wikipedia": "en:Iligan"}}, {"type": "node", "id": 4165508542, "lat": 8.2362368, "lon": 124.2577879}, {"type": "node", "id": 4165508543, "lat": 8.2515233, "lon": 124.2482716, "tags": {"name": "Orchids Homes", "place": "neighbourhood"}}, {"type": "node", "id": 4166661494, "lat": 8.2384613, "lon": 124.2597565}, {"type": "node", "id": 4166678492, "lat": 8.2407965, "lon": 124.2646375, "tags": {"name": "Green Hights Subdivision", "place": "neighbourhood"}}, {"type": "node", "id": 4166679089, "lat": 8.2345079, "lon": 124.2517841, "tags": {"alt_name": "Saint Paul Subdivision; St. Paul Subdivision", "is_in:city": "Iligan", "name": "Saint Paul", "place": "neighbourhood", "postal_code": "9200", "short_name": "St. Paul"}}, {"type": "node", "id": 4286088593, "lat": 8.199094, "lon": 124.1959908, "tags": {"name": "Fuentes", "place": "neighbourhood"}}, {"type": "node", "id": 4286129189, "lat": 8.2148401, "lon": 124.2287223, "tags": {"admin_level": "11", "admin_type:PH": "sitio", "is_in": "Tomas Cabili;Iligan", "name": "Camague", "place": "neighbourhood"}}, {"type": "node", "id": 4326397023, "lat": 8.3986305, "lon": 124.4826533, "tags": {"place": "village"}}, {"type": "node", "id": 4326397024, "lat": 8.3806332, "lon": 124.4758637, "tags": {"place": "hamlet"}}, {"type": "node", "id": 4326397025, "lat": 8.3973424, "lon": 124.4591316, "tags": {"alt_name": "Sitio Megdaha", "is_in:barangay": "Tingalan", "is_in:municipality": "Opol", "name": "Megdaha", "place": "hamlet", "postal_code": "9016"}}, {"type": "node", "id": 4568565085, "lat": 8.1722909, "lon": 124.1741551}, {"type": "node", "id": 4627853616, "lat": 7.989793, "lon": 124.1796138, "tags": {"admin_level": "6", "gns_classification": "ADM2", "is_in:province": "Lanao del Sur", "name": "Piagapo", "place": "town", "place:PH": "municipality", "population": "25440", "population:date": "2015-08-01", "source:population": "Philippine Statistics Authority", "wikidata": "Q274022", "wikimedia_commons": "Category:Piagapo", "wikipedia": "en:Piagapo"}}, {"type": "node", "id": 4832498623, "lat": 8.2386711, "lon": 124.2786957, "tags": {"ele": "150", "is_in:barangay": "Luinab", "is_in:city": "Iligan", "name": "Upper Luinab", "place": "hamlet", "postal_code": "9200"}}, {"type": "node", "id": 4832541324, "lat": 8.3156015, "lon": 124.2581082, "tags": {"admin_level": "11", "designation": "sitio", "is_in:village": "Dalipuga", "name": "Paitan", "place": "neighbourhood"}}, {"type": "node", "id": 4832548122, "lat": 8.3235484, "lon": 124.2549281, "tags": {"admin_level": "11", "designation": "sitio", "is_in:village": "Dalipuga", "name": "Mapalad", "place": "hamlet"}}, {"type": "node", "id": 4832548124, "lat": 8.2676624, "lon": 124.2902994, "tags": {"admin_level": "10", "designation": "barangay", "is_in:city": "Iligan", "name": "Bonbonon", "place": "village", "population": "2381", "population:date": "2020-05-01", "ref": "103504002", "source:population": "Philippine Statistics Authority"}}, {"type": "node", "id": 4832552621, "lat": 8.3146177, "lon": 124.3452975, "tags": {"admin_level": "10", "designation": "barangay", "is_in:province": "Misamis Oriental", "is_in:town": "Lugait", "name": "Betahon", "place": "village", "population": "1086", "population:date": "2020-05-01", "source:population": "Philippine Statistics Authority"}}, {"type": "node", "id": 4832711322, "lat": 8.2289825, "lon": 124.2747455, "tags": {"admin_level": "10", "admin_type:PH": "barangay", "alt_name": "Pugaan", "ele": "30", "is_in:city": "Iligan", "name": "Puga-an", "place": "village", "population": "7555", "population:date": "2020-05-01", "postal_code": "9200"}}, {"type": "node", "id": 4832722121, "lat": 8.2491293, "lon": 124.3175732, "tags": {"admin_level": "10", "designation": "barangay", "is_in:city": "Iligan", "name": "Digkilaan", "place": "village", "population": "5764", "population:date": "2020-05-01", "ref": "103504007", "source:population": "Philippine Statistics Authority"}}, {"type": "node", "id": 4833706421, "lat": 8.2139869, "lon": 124.2713638, "tags": {"admin_level": "11", "designation": "sitio", "is_in:city": "Iligan", "is_in:village": "Puga-an", "name": "Langilanon", "place": "hamlet", "postal_code": "9200"}}, {"type": "node", "id": 5162906022, "lat": 8.1993142, "lon": 124.23225, "tags": {"admin_level": "11", "description": "subdivision", "name": "Scions Subdivision", "place": "neighbourhood"}}, {"type": "node", "id": 5240488342, "lat": 8.2049127, "lon": 124.2493378, "tags": {"name": "Do\u00f1a Maria Phase 5", "place": "neighbourhood"}}, {"type": "node", "id": 5240490679, "lat": 8.2070343, "lon": 124.2506641, "tags": {"name": "La Purisima Concepcion Village", "place": "neighbourhood"}}, {"type": "node", "id": 5240575895, "lat": 8.2042583, "lon": 124.2365777, "tags": {"admin_level": "11", "admin_type:PH": "purok", "name": "Ubhai", "official_name": "Urban Poor Housing Association, Incorporated", "place": "neighbourhood"}}, {"type": "node", "id": 5326412443, "lat": 8.3917151, "lon": 124.5216285, "tags": {"admin_level": "10", "admin_type:PH": "barangay", "ele": "70", "is_in:city": "Cagayan de Oro", "is_in:district": "1st District", "name": "Taglimao", "official_name": "Barangay Taglimao", "place": "village", "population": "1391", "population:date": "2020-05-01", "postal_code": "9000"}}, {"type": "node", "id": 5326417731, "lat": 8.3748374, "lon": 124.5046574, "tags": {"admin_level": "10", "admin_type:PH": "barangay", "ele": "80", "is_in:city": "Cagayan de Oro", "is_in:district": "1st District", "name": "Tuburan", "official_name": "Barangay Tuburan", "place": "village", "population": "1388", "population:date": "2020-05-01", "postal_code": "9000"}}, {"type": "node", "id": 5326417764, "lat": 8.3305897, "lon": 124.4611378, "tags": {"admin_level": "10", "admin_type:PH": "barangay", "ele": "170", "is_in:city": "Cagayan de Oro", "is_in:district": "1st District", "name": "Tumpagon", "official_name": "Barangay Tumpagon", "place": "village", "population": "2305", "population:date": "2020-05-01", "postal_code": "9000"}}, {"type": "node", "id": 5466296634, "lat": 8.2450564, "lon": 124.2731297, "tags": {"name": "Floraville 5 Subdivision", "place": "neighbourhood"}}, {"type": "node", "id": 5466317133, "lat": 8.2407087, "lon": 124.2722499, "tags": {"name": "Green Olive Homes Subdivision", "place": "neighbourhood"}}, {"type": "node", "id": 5784399959, "lat": 8.2515266, "lon": 124.2445725, "tags": {"name": "Purok 6A", "place": "neighbourhood"}}, {"type": "node", "id": 5784399960, "lat": 8.2508046, "lon": 124.2437518, "tags": {"name": "Purok 5B", "place": "neighbourhood"}}, {"type": "node", "id": 5784399965, "lat": 8.2501105, "lon": 124.2509804, "tags": {"name": "Purok 7", "place": "neighbourhood"}}, {"type": "node", "id": 5784400257, "lat": 8.2475078, "lon": 124.2431053, "tags": {"admin_level": "11", "name": "Purok 4B", "place": "neighbourhood"}}, {"type": "node", "id": 5784400258, "lat": 8.2491562, "lon": 124.2436016, "tags": {"name": "Purok 5A", "place": "neighbourhood"}}, {"type": "node", "id": 5784400259, "lat": 8.2461488, "lon": 124.2432135, "tags": {"admin_level": "11", "name": "Purok 3B", "place": "neighbourhood"}}, {"type": "node", "id": 5784400260, "lat": 8.2449038, "lon": 124.2429203, "tags": {"name": "Purok 2B", "place": "neighbourhood"}}, {"type": "node", "id": 5784400261, "lat": 8.2436668, "lon": 124.2458063, "tags": {"admin_level": "11", "name": "Purok 12", "place": "neighbourhood"}}, {"type": "node", "id": 5784400262, "lat": 8.2440118, "lon": 124.2446396, "tags": {"name": "Purok 2C", "place": "neighbourhood"}}, {"type": "node", "id": 5784400263, "lat": 8.2452807, "lon": 124.2437357, "tags": {"name": "Purok 8B", "place": "neighbourhood"}}, {"type": "node", "id": 5784400266, "lat": 8.2468601, "lon": 124.2435875, "tags": {"admin_level": "11", "name": "Purok 5B", "place": "neighbourhood"}}, {"type": "node", "id": 5784400267, "lat": 8.2475581, "lon": 124.2434768, "tags": {"admin_level": "11", "name": "Purok 4A", "place": "neighbourhood"}}, {"type": "node", "id": 5784400274, "lat": 8.25264, "lon": 124.24578, "tags": {"name": "Purok 6B", "place": "neighbourhood"}}, {"type": "node", "id": 5784400289, "lat": 8.2429656, "lon": 124.2484306, "tags": {"name": "Purok 10", "place": "neighbourhood"}}, {"type": "node", "id": 5784400292, "lat": 8.24361, "lon": 124.24155, "tags": {"admin_level": "11", "name": "Purok 1", "place": "neighbourhood"}}, {"type": "node", "id": 5784400293, "lat": 8.2440905, "lon": 124.2424698, "tags": {"admin_level": "11", "name": "Purok 2A", "place": "neighbourhood"}}, {"type": "node", "id": 6041403203, "lat": 8.1847804, "lon": 124.1798428}, {"type": "node", "id": 6041403204, "lat": 8.1852025, "lon": 124.180111}, {"type": "node", "id": 6041403205, "lat": 8.186445, "lon": 124.18109}, {"type": "node", "id": 6041403206, "lat": 8.1865379, "lon": 124.1824231}, {"type": "node", "id": 6041403207, "lat": 8.1862645, "lon": 124.1828844}, {"type": "node", "id": 6041403208, "lat": 8.1853698, "lon": 124.1837668}, {"type": "node", "id": 6041403209, "lat": 8.1850864, "lon": 124.1837836}, {"type": "node", "id": 6041403210, "lat": 8.1849152, "lon": 124.1826799}, {"type": "node", "id": 6041403211, "lat": 8.184793, "lon": 124.1821957}, {"type": "node", "id": 6041403212, "lat": 8.1854547, "lon": 124.1814414}, {"type": "node", "id": 6041403213, "lat": 8.184722, "lon": 124.1807681}, {"type": "node", "id": 6041403214, "lat": 8.1847406, "lon": 124.1799527}, {"type": "node", "id": 6041403222, "lat": 8.1885153, "lon": 124.1726759, "tags": {"name": "Purok 9", "place": "neighbourhood"}}, {"type": "node", "id": 6041403226, "lat": 8.1869473, "lon": 124.169692, "tags": {"name": "Purok 2", "place": "neighbourhood"}}, {"type": "node", "id": 6041403227, "lat": 8.1833242, "lon": 124.1698987, "tags": {"name": "Purok 4A Mimbalot", "place": "neighbourhood"}}, {"type": "node", "id": 6041403230, "lat": 8.18606, "lon": 124.17275, "tags": {"name": "Purok 14", "place": "neighbourhood"}}, {"type": "node", "id": 6041403231, "lat": 8.1863038, "lon": 124.1671089, "tags": {"name": "Purok 1", "place": "neighbourhood"}}, {"type": "node", "id": 6041403232, "lat": 8.1880416, "lon": 124.1709776, "tags": {"name": "Purok 4", "place": "neighbourhood"}}, {"type": "node", "id": 6041403233, "lat": 8.1881295, "lon": 124.1705211, "tags": {"name": "Purok 3", "place": "neighbourhood"}}, {"type": "node", "id": 6041403236, "lat": 8.1882582, "lon": 124.1712462, "tags": {"name": "Purok 5", "place": "neighbourhood"}}, {"type": "node", "id": 6041403240, "lat": 8.1872958, "lon": 124.1723565, "tags": {"name": "Purok 6", "place": "neighbourhood"}}, {"type": "node", "id": 6041403242, "lat": 8.188304, "lon": 124.1729045, "tags": {"name": "Purok 7", "place": "neighbourhood"}}, {"type": "node", "id": 6041403245, "lat": 8.18845, "lon": 124.17343, "tags": {"name": "Purok 8", "place": "neighbourhood"}}, {"type": "node", "id": 6041403247, "lat": 8.1889, "lon": 124.17388, "tags": {"name": "Purok 10A", "place": "neighbourhood"}}, {"type": "node", "id": 6041403248, "lat": 8.190109, "lon": 124.1757964, "tags": {"name": "Purok 11", "place": "neighbourhood"}}, {"type": "node", "id": 6041403249, "lat": 8.1908234, "lon": 124.1771494, "tags": {"name": "Purok 12", "place": "neighbourhood"}}, {"type": "node", "id": 6041403250, "lat": 8.1930908, "lon": 124.1836107, "tags": {"name": "Purok 13", "place": "neighbourhood"}}, {"type": "node", "id": 6041403251, "lat": 8.1846256, "lon": 124.1811264, "tags": {"admin_level": "11", "admin_type:PH": "purok", "name": "Purok 4 Tonggo", "place": "neighbourhood"}}, {"type": "node", "id": 6041403254, "lat": 8.1841799, "lon": 124.1836093, "tags": {"admin_level": "11", "admin_type:PH": "purok", "name": "Mercy Heights Purok 3B", "place": "neighbourhood"}}, {"type": "node", "id": 6041403255, "lat": 8.1856679, "lon": 124.1871444, "tags": {"admin_level": "11", "admin_type:PH": "purok", "name": "Purok 1 Tongo", "place": "neighbourhood"}}, {"type": "node", "id": 6041403258, "lat": 8.1819242, "lon": 124.1724976, "tags": {"admin_level": "11", "admin_type:PH": "purok", "name": "Purok 3 Mimbalot", "place": "neighbourhood"}}, {"type": "node", "id": 6041403261, "lat": 8.1779237, "lon": 124.175705, "tags": {"name": "Purok 2 Mimbalot", "place": "neighbourhood"}}, {"type": "node", "id": 6041403263, "lat": 8.1752289, "lon": 124.1762929, "tags": {"name": "Purok 1B Mimbalot", "place": "neighbourhood"}}, {"type": "node", "id": 6041403265, "lat": 8.171404, "lon": 124.1801213, "tags": {"name": "Purok 1C", "place": "neighbourhood"}}, {"type": "node", "id": 6041449813, "lat": 8.2487684, "lon": 124.2433864, "tags": {"name": "Purok 5", "place": "neighbourhood"}}, {"type": "node", "id": 6041449814, "lat": 8.2456728, "lon": 124.2426303, "tags": {"name": "Purok 3", "place": "neighbourhood"}}, {"type": "node", "id": 6041449818, "lat": 8.2464905, "lon": 124.2453626, "tags": {"name": "Purok 8A", "place": "neighbourhood"}}, {"type": "node", "id": 6041449824, "lat": 8.24324, "lon": 124.246709, "tags": {"name": "Purok 11", "place": "neighbourhood"}}, {"type": "node", "id": 6041491690, "lat": 8.262518, "lon": 124.3072269, "tags": {"admin_level": "11", "designation": "sitio", "is_in:village": "Digkilaan", "name": "Dodiongan", "place": "hamlet"}}, {"type": "node", "id": 6041491704, "lat": 8.2646, "lon": 124.28828, "tags": {"name": "Pobakdal Village", "place": "neighbourhood"}}, {"type": "node", "id": 6041732795, "lat": 8.2418086, "lon": 124.3015882}, {"type": "node", "id": 6041732796, "lat": 8.2417422, "lon": 124.3021676}, {"type": "node", "id": 6041732797, "lat": 8.2430509, "lon": 124.3021971}, {"type": "node", "id": 6041732798, "lat": 8.2430934, "lon": 124.3018591}, {"type": "node", "id": 6041734965, "lat": 8.2388559, "lon": 124.3140593, "tags": {"name": "GMA Village Phase I", "place": "neighbourhood"}}, {"type": "node", "id": 6041734970, "lat": 8.2346837, "lon": 124.3160798, "tags": {"admin_level": "11", "admin_type:PH": "purok", "is_in:barangay": "Mandulog", "is_in:city": "Iligan", "name": "Purok 24", "place": "neighbourhood"}}, {"type": "node", "id": 6041734971, "lat": 8.233898, "lon": 124.3186419, "tags": {"admin_level": "11", "admin_type:PH": "purok", "is_in:barangay": "Mandulog", "is_in:city": "Iligan", "name": "Purok 25", "place": "neighbourhood"}}, {"type": "node", "id": 6041734972, "lat": 8.2348567, "lon": 124.3218549, "tags": {"name": "Purok 22 Masipit", "place": "neighbourhood"}}, {"type": "node", "id": 6041734973, "lat": 8.2337193, "lon": 124.3202797, "tags": {"admin_level": "11", "admin_type:PH": "purok", "is_in:barangay": "Mandulog", "is_in:city": "Iligan", "name": "Purok 26", "place": "neighbourhood"}}, {"type": "node", "id": 6041734977, "lat": 8.2312269, "lon": 124.3263497, "tags": {"name": "Purok 27", "place": "neighbourhood"}}, {"type": "node", "id": 6041734980, "lat": 8.2226446, "lon": 124.3103022, "tags": {"admin_level": "11", "admin_type:PH": "purok", "is_in:barangay": "Mandulog", "name": "Purok 28", "place": "neighbourhood"}}, {"type": "node", "id": 6041734984, "lat": 8.2217188, "lon": 124.309388, "tags": {"admin_level": "11", "admin_type:PH": "purok", "is_in:barangay": "Mandulog", "name": "Purok 30", "place": "neighbourhood"}}, {"type": "node", "id": 6041735336, "lat": 8.25474, "lon": 124.29252, "tags": {"name": "Purok 7 Taparac", "place": "neighbourhood"}}, {"type": "node", "id": 6041735346, "lat": 8.2537485, "lon": 124.2852206, "tags": {"name": "Purok 10", "place": "neighbourhood"}}, {"type": "node", "id": 6041735350, "lat": 8.2452987, "lon": 124.3102298, "tags": {"name": "Purok 18", "place": "neighbourhood"}}, {"type": "node", "id": 6041735354, "lat": 8.2432497, "lon": 124.3105274, "tags": {"name": "Purok 19", "place": "neighbourhood"}}, {"type": "node", "id": 6041735355, "lat": 8.2417922, "lon": 124.3117413, "tags": {"name": "Purok 20", "place": "neighbourhood"}}, {"type": "node", "id": 6041735685, "lat": 8.24012, "lon": 124.30198, "tags": {"name": "Purok 16", "place": "neighbourhood"}}, {"type": "node", "id": 6041735689, "lat": 8.2437841, "lon": 124.30435, "tags": {"name": "Purok 17", "place": "neighbourhood"}}, {"type": "node", "id": 6041735693, "lat": 8.2436676, "lon": 124.3012839, "tags": {"name": "Purok 13", "place": "neighbourhood"}}, {"type": "node", "id": 6041735695, "lat": 8.2434741, "lon": 124.2991961, "tags": {"name": "Purok 12", "place": "neighbourhood"}}, {"type": "node", "id": 6041735696, "lat": 8.2392597, "lon": 124.2896787, "tags": {"name": "Purok 11", "place": "neighbourhood"}}, {"type": "node", "id": 6041735699, "lat": 8.246678, "lon": 124.2954875, "tags": {"name": "Purok 9 Bendol", "place": "neighbourhood"}}, {"type": "node", "id": 6041807712, "lat": 8.25842, "lon": 124.27779, "tags": {"name": "Purok 10 Lower Wago", "place": "neighbourhood"}}, {"type": "node", "id": 6041807713, "lat": 8.25773, "lon": 124.27685, "tags": {"name": "Purok 9", "place": "neighbourhood"}}, {"type": "node", "id": 6041807719, "lat": 8.2566173, "lon": 124.2705551, "tags": {"name": "Purok 2", "place": "neighbourhood"}}, {"type": "node", "id": 6041807721, "lat": 8.25602, "lon": 124.26948, "tags": {"name": "Purok 1", "place": "neighbourhood"}}, {"type": "node", "id": 6041923273, "lat": 8.25044, "lon": 124.26122, "tags": {"alt_name": "Purok 2-A", "name": "Green Village", "place": "neighbourhood"}}, {"type": "node", "id": 6041923278, "lat": 8.2523855, "lon": 124.2611039, "tags": {"name": "Stone Diamond", "place": "neighbourhood"}}, {"type": "node", "id": 6041925989, "lat": 8.24619, "lon": 124.25891, "tags": {"name": "Purok 4A", "place": "neighbourhood"}}, {"type": "node", "id": 6041925996, "lat": 8.2498588, "lon": 124.2517503, "tags": {"name": "Bayug Riverside", "place": "neighbourhood"}}, {"type": "node", "id": 6041926002, "lat": 8.2452347, "lon": 124.2563759, "tags": {"name": "Purok 6A", "place": "neighbourhood"}}, {"type": "node", "id": 6041926007, "lat": 8.2448, "lon": 124.25557, "tags": {"name": "Purok 6B", "place": "neighbourhood"}}, {"type": "node", "id": 6041926024, "lat": 8.245, "lon": 124.26125, "tags": {"name": "Purok 7", "place": "neighbourhood"}}, {"type": "node", "id": 6041926026, "lat": 8.24933, "lon": 124.26379, "tags": {"name": "Pag-ibig Housing", "place": "neighbourhood"}}, {"type": "node", "id": 6041926029, "lat": 8.24958, "lon": 124.26336, "tags": {"name": "Purok 2B", "place": "neighbourhood"}}, {"type": "node", "id": 6041926031, "lat": 8.2509878, "lon": 124.2646759, "tags": {"alt_name": "Purok 3", "name": "Kabugason", "place": "neighbourhood"}}, {"type": "node", "id": 6041926037, "lat": 8.2538939, "lon": 124.2634416, "tags": {"name": "Purok 1", "place": "neighbourhood"}}, {"type": "node", "id": 6041964993, "lat": 8.2565657, "lon": 124.2626172, "tags": {"name": "Sampaguita", "place": "neighbourhood"}}, {"type": "node", "id": 6041968719, "lat": 8.2583621, "lon": 124.2668392, "tags": {"name": "Orchids", "place": "neighbourhood"}}, {"type": "node", "id": 6041968728, "lat": 8.2608036, "lon": 124.2736727, "tags": {"name": "Emerald Homes Phase I", "place": "neighbourhood"}}, {"type": "node", "id": 6041968731, "lat": 8.2629717, "lon": 124.274023, "tags": {"admin_level": "11", "admin_type:PH": "purok", "name": "Firetree", "place": "neighbourhood"}}, {"type": "node", "id": 6041968739, "lat": 8.26153, "lon": 124.27852, "tags": {"name": "Adelfa", "place": "neighbourhood"}}, {"type": "node", "id": 6041968740, "lat": 8.258792, "lon": 124.2633342, "tags": {"name": "Greenhills", "place": "neighbourhood"}}, {"type": "node", "id": 6041968745, "lat": 8.2587543, "lon": 124.2610483, "tags": {"name": "Gumamela", "place": "neighbourhood"}}, {"type": "node", "id": 6071444826, "lat": 8.2675737, "lon": 124.335148, "tags": {"name": "Purok 5", "place": "neighbourhood"}}, {"type": "node", "id": 6071446366, "lat": 8.2577088, "lon": 124.324962, "tags": {"name": "Purok Crossing", "place": "neighbourhood"}}, {"type": "node", "id": 6071446374, "lat": 8.27492, "lon": 124.34602, "tags": {"admin_level": "11", "admin_type:PH": "purok", "is_in:barangay": "Digkilaan", "name": "Pingcob", "place": "neighbourhood"}}, {"type": "node", "id": 6071446377, "lat": 8.2763651, "lon": 124.350011, "tags": {"admin_level": "11", "designation": "sitio", "is_in:village": "Digkilaan", "name": "Sardab", "place": "hamlet"}}, {"type": "node", "id": 6071446378, "lat": 8.259343, "lon": 124.3308813, "tags": {"name": "Pinantao", "place": "neighbourhood"}}, {"type": "node", "id": 6071446381, "lat": 8.2465892, "lon": 124.3321669, "tags": {"admin_level": "11", "admin_type:PH": "purok", "is_in:barangay": "Digkilaan", "name": "Runai", "place": "neighbourhood"}}, {"type": "node", "id": 6071446383, "lat": 8.2440909, "lon": 124.3427742, "tags": {"name": "Mangga", "place": "neighbourhood"}}, {"type": "node", "id": 6071446405, "lat": 8.2524096, "lon": 124.308621, "tags": {"name": "Caluda", "place": "neighbourhood"}}, {"type": "node", "id": 6071446685, "lat": 8.2458226, "lon": 124.34769, "tags": {"name": "Green Village", "place": "neighbourhood"}}, {"type": "node", "id": 6071446691, "lat": 8.2450126, "lon": 124.3495102, "tags": {"admin_level": "11", "designation": "sitio", "is_in:village": "Digkilaan", "name": "Tablon", "place": "hamlet"}}, {"type": "node", "id": 6071446796, "lat": 8.2418518, "lon": 124.3556205, "tags": {"admin_level": "11", "admin_type:PH": "purok", "name": "Ladi A", "place": "hamlet"}}, {"type": "node", "id": 6071446799, "lat": 8.2433865, "lon": 124.3607394, "tags": {"admin_level": "11", "admin_type:PH": "purok", "name": "Ladi B", "place": "hamlet"}}, {"type": "node", "id": 6071446802, "lat": 8.2544534, "lon": 124.3251703, "tags": {"name": "Mamualas", "place": "neighbourhood"}}, {"type": "node", "id": 6071446805, "lat": 8.2486507, "lon": 124.3237304, "tags": {"name": "Cebu Village", "place": "neighbourhood"}}, {"type": "node", "id": 6071446807, "lat": 8.2478618, "lon": 124.3223105, "tags": {"name": "Red Cross Village", "place": "neighbourhood"}}, {"type": "node", "id": 6071446819, "lat": 8.2497179, "lon": 124.3175328, "tags": {"name": "Narra", "place": "neighbourhood"}}, {"type": "node", "id": 6071446823, "lat": 8.2547098, "lon": 124.3130456, "tags": {"name": "Celica", "place": "neighbourhood"}}, {"type": "node", "id": 6077811223, "lat": 8.244349, "lon": 124.3061292, "tags": {"admin_level": "10", "designation": "barangay", "is_in:city": "Iligan", "name": "Mandulog", "place": "village", "population": "4283", "population:date": "2020-05-01", "ref": "103504014", "source:population": "Philippine Statistics Authority"}}, {"type": "node", "id": 6077811224, "lat": 8.2535838, "lon": 124.2892876, "tags": {"name": "Purok 5 Taparac", "place": "neighbourhood"}}, {"type": "node", "id": 6148878838, "lat": 8.1719927, "lon": 124.1805673, "tags": {"name": "Purok 1C", "place": "neighbourhood"}}, {"type": "node", "id": 6148878839, "lat": 8.1831553, "lon": 124.1767296, "tags": {"admin_level": "11", "admin_type:PH": "purok", "alt_name": "Bliss Relocation Site", "name": "Purok 5 Bliss Mimbalot", "place": "neighbourhood"}}, {"type": "node", "id": 6199543262, "lat": 8.25461, "lon": 124.26582, "tags": {"name": "Purok 4", "place": "neighbourhood"}}, {"type": "node", "id": 6199543706, "lat": 8.2529176, "lon": 124.2672962, "tags": {"name": "Purok 6", "place": "neighbourhood"}}, {"type": "node", "id": 6199543711, "lat": 8.254704, "lon": 124.2672104, "tags": {"name": "Purok 5", "place": "neighbourhood"}}, {"type": "node", "id": 6199543712, "lat": 8.2562542, "lon": 124.2676476, "tags": {"name": "Purok 7", "place": "neighbourhood"}}, {"type": "node", "id": 6199543713, "lat": 8.2550924, "lon": 124.2686782, "tags": {"name": "Purok 6", "place": "neighbourhood"}}, {"type": "node", "id": 6199543718, "lat": 8.2527363, "lon": 124.2700217, "tags": {"name": "Purok 8", "place": "neighbourhood"}}, {"type": "node", "id": 6199543720, "lat": 8.2536, "lon": 124.26904, "tags": {"name": "DILG Housing", "place": "neighbourhood"}}, {"type": "node", "id": 6199543727, "lat": 8.2546008, "lon": 124.2708896, "tags": {"name": "Purok 11", "place": "neighbourhood"}}, {"type": "node", "id": 6199543731, "lat": 8.25558, "lon": 124.26817, "tags": {"name": "Purok 3", "place": "neighbourhood"}}, {"type": "node", "id": 6227284575, "lat": 8.2272272, "lon": 124.3405473, "tags": {"admin_level": "10", "designation": "barangay", "is_in:city": "Iligan", "name": "Lanipao", "place": "village", "population": "2891", "population:date": "2020-05-01", "ref": "103504042", "source:population": "Philippine Statistics Authority"}}, {"type": "node", "id": 6227284576, "lat": 8.2575464, "lon": 124.2617431, "tags": {"admin_level": "10", "designation": "barangay", "is_in:city": "Iligan", "name": "San Roque", "old_ref": "103504045", "place": "village", "population": "5292", "population:2015": "4740", "population:date": "2020-05-01", "ref": "1030900045", "source:population": "Philippine Statistics Authority"}}, {"type": "node", "id": 6227284577, "lat": 8.2693751, "lon": 124.2606888, "tags": {"admin_level": "10", "designation": "barangay", "is_in:city": "Iligan", "name": "Santa Filomena", "old_ref": "103504022", "place": "village", "population": "7005", "population:2015": "6615", "population:date": "2020-05-01", "ref": "1030900022", "source:population": "Philippine Statistics Authority"}}, {"type": "node", "id": 6227284578, "lat": 8.2737582, "lon": 124.2650685, "tags": {"admin_level": "10", "designation": "barangay", "is_in:city": "Iligan", "name": "Acmac", "official_name": "Acmac-Mariano Badelles Sr.", "place": "village", "population": "6856", "population:2015": "6471", "population:date": "2020-05-01", "ref": "103504038", "source:population": "Philippine Statistics Authority"}}, {"type": "node", "id": 6227284579, "lat": 8.3059601, "lon": 124.258587, "tags": {"admin_level": "10", "admin_type:PH": "barangay", "is_in:city": "Iligan", "name": "Dalipuga", "old_ref": "103504006", "place": "village", "population": "21470", "population:2015": "19721", "population:date": "2020-05-01", "ref": "1030900006"}}, {"type": "node", "id": 6227284580, "lat": 8.28125, "lon": 124.308865, "tags": {"admin_level": "10", "designation": "barangay", "is_in:city": "Iligan", "name": "Kabacsanan", "place": "village", "population": "2362", "population:date": "2020-05-01", "ref": "103504010", "source:population": "Philippine Statistics Authority"}}, {"type": "node", "id": 6227284581, "lat": 8.3033333, "lon": 124.3039216, "tags": {"admin_level": "10", "designation": "barangay", "is_in:city": "Iligan", "name": "Bunawan", "place": "village", "population": "2025", "population:2015": "2218", "population:date": "2020-05-01", "ref": "103504003", "source:population": "Philippine Statistics Authority"}}, {"type": "node", "id": 6227284582, "lat": 8.3176488, "lon": 124.3458496, "tags": {"admin_level": "10", "admin_type:PH": "barangay", "is_in:city": "Iligan", "name": "Hindang", "old_ref": "103504040", "place": "village", "population": "953", "population:2015": "913", "population:date": "2020-05-01"}}, {"type": "node", "id": 6227284583, "lat": 8.2978095, "lon": 124.387679, "tags": {"admin_level": "10", "designation": "barangay", "is_in:city": "Iligan", "name": "Mainit", "place": "village", "population": "2700", "population:date": "2020-05-01", "ref": "103504013", "source:population": "Philippine Statistics Authority"}}, {"type": "node", "id": 6227284584, "lat": 8.1745033, "lon": 124.4247337, "tags": {"admin_level": "10", "designation": "barangay", "is_in:city": "Iligan", "name": "Panoroganan", "place": "village", "population": "1586", "population:date": "2020-05-01", "ref": "103504044", "source:population": "Philippine Statistics Authority"}}, {"type": "node", "id": 6227285285, "lat": 8.1992542, "lon": 124.3898911, "tags": {"admin_level": "10", "admin_type:PH": "barangay", "designation": "barangay", "is_in:city": "Iligan", "name": "Kalilangan", "old_ref": "103504041", "place": "village", "population": "1718", "population:date": "2020-05-01", "ref": "1030900041", "source:population": "Philippine Statistics Authority"}}, {"type": "node", "id": 6227285286, "lat": 8.2388649, "lon": 124.4113682, "tags": {"admin_level": "10", "designation": "barangay", "is_in:city": "Iligan", "name": "Rogongon", "place": "village", "population": "7592", "population:date": "2020-05-01", "ref": "103504019", "source:population": "Philippine Statistics Authority"}}, {"type": "node", "id": 6227285287, "lat": 8.2053483, "lon": 124.3688262, "tags": {"admin_level": "10", "designation": "barangay", "is_in:city": "Iligan", "name": "Dulag", "place": "village", "population": "1185", "population:date": "2020-05-01", "ref": "103504033", "source:population": "Philippine Statistics Authority"}}, {"type": "node", "id": 6433906185, "lat": 8.1915743, "lon": 124.2588861, "tags": {"admin_type:PH": "purok", "is_in:village": "Pindugangan", "name": "Purok 2-A", "place": "neighbourhood"}}, {"type": "node", "id": 6484780915, "lat": 8.2734914, "lon": 124.4155402, "tags": {"name": "Santa Cruz 2", "place": "hamlet"}}, {"type": "node", "id": 6484780918, "lat": 8.2759613, "lon": 124.4211972, "tags": {"admin_level": "11", "admin_type:PH": "purok", "name": "Sumasagaysay", "place": "hamlet"}}, {"type": "node", "id": 6484780924, "lat": 8.271718, "lon": 124.4132227, "tags": {"admin_level": "11", "admin_type:PH": "purok", "is_in:barangay": "Rogongon", "name": "Santa Cruz 1", "place": "hamlet"}}, {"type": "node", "id": 6484780943, "lat": 8.22838, "lon": 124.45654, "tags": {"admin_level": "11", "admin_type:PH": "purok", "name": "Gabunan", "place": "hamlet"}}, {"type": "node", "id": 6484780944, "lat": 8.22341, "lon": 124.45671, "tags": {"admin_level": "11", "admin_type:PH": "purok", "alt_name": "Libantayan", "name": "Libandayan", "place": "hamlet"}}, {"type": "node", "id": 6484780951, "lat": 8.2468528, "lon": 124.3704092, "tags": {"admin_level": "11", "designation": "sitio", "is_in:village": "Rogongon", "name": "Kabangahan 1", "place": "hamlet"}}, {"type": "node", "id": 6487166812, "lat": 8.2377683, "lon": 124.4105129, "tags": {"name": "Poblacion", "place": "neighbourhood"}}, {"type": "node", "id": 6501184693, "lat": 8.0105633, "lon": 124.2763138, "tags": {"admin_level": "10", "fixme": "confirm location", "is_in:city": "Marawi", "name": "Bito Buadi Parba", "place": "village", "place:PH": "barangay"}}, {"type": "node", "id": 6501184694, "lat": 8.0185527, "lon": 124.2750977, "tags": {"admin_level": "10", "admin_type:PH": "barangay", "is_in:city": "Marawi", "name": "Bito Buadi Itowa", "official_name": "Barangay Bito Buadi Itowa", "old_ref": "153617012", "place": "village", "population": "1002", "population:2015": "902", "population:date": "2020-05-01", "ref": "1903617012"}}, {"type": "node", "id": 6501184703, "lat": 7.9906426, "lon": 124.2665613, "tags": {"admin_level": "10", "alt_name": "Bacung", "fixme": "confirm location", "is_in:town": "Marantao", "name": "Bacong", "place": "village", "place:PH": "barangay"}}, {"type": "node", "id": 6501184955, "lat": 8.1267078, "lon": 124.2092768, "tags": {"admin_level": "10", "admin_type:PH": "barangay", "is_in:municipality": "Balo-i", "name": "Nangka", "official_name": "Barangay Nangka", "old_ref": "103502017", "place": "village", "population": "4752", "population:date": "2020-05-01", "postal_code": "9217", "ref": "1003502017"}}, {"type": "node", "id": 6501185260, "lat": 8.1794521, "lon": 124.1753816, "tags": {"admin_level": "10", "designation": "sitio", "is_in:village": "Buru-un", "name": "Mimbalot", "place": "hamlet"}}, {"type": "node", "id": 6501681021, "lat": 8.258229, "lon": 124.4185069, "tags": {"name": "Hanginan", "place": "hamlet"}}, {"type": "node", "id": 6501681027, "lat": 8.2353661, "lon": 124.4088663, "tags": {"name": "Bayanihan", "place": "neighbourhood"}}, {"type": "node", "id": 6501681039, "lat": 8.2398664, "lon": 124.3754787, "tags": {"name": "Baclag", "place": "hamlet"}}, {"type": "node", "id": 6501681040, "lat": 8.237531, "lon": 124.3863188, "tags": {"CODE": "648", "name": "Sinicabog", "place": "hamlet"}}, {"type": "node", "id": 6501681043, "lat": 8.2412341, "lon": 124.3913368, "tags": {"name": "Salvador", "place": "hamlet"}}, {"type": "node", "id": 6501681047, "lat": 8.2421675, "lon": 124.3928154, "tags": {"name": "Mandulog", "place": "hamlet"}}, {"type": "node", "id": 6501681051, "lat": 8.2459276, "lon": 124.4011364, "tags": {"name": "Bulaho", "place": "hamlet"}}, {"type": "node", "id": 6501681056, "lat": 8.245193, "lon": 124.4095407, "tags": {"name": "Recodo", "place": "hamlet"}}, {"type": "node", "id": 6501681062, "lat": 8.2401718, "lon": 124.4117893, "tags": {"name": "Scaling", "place": "neighbourhood"}}, {"type": "node", "id": 6509821042, "lat": 8.2037843, "lon": 124.316404, "tags": {"admin_level": "11", "admin_type:PH": "purok", "alt_name": "Sitio Dalamas", "fixme": "confirm location", "is_in:barangay": "Puga-an", "is_in:city": "Iligan", "name": "Dalamas", "official_name": "Purok Dalamas", "place": "hamlet", "postal_code": "9200"}}, {"type": "node", "id": 6509821043, "lat": 8.2036684, "lon": 124.3170512, "tags": {"admin_level": "10", "admin_type:PH": "barangay", "is_in:town": "Tagoloan", "name": "Dalamas", "official_name": "Barangay Dalamas", "old_ref": "103520001", "place": "village", "population": "1636", "postal_code": "9222", "ref": "1003520001", "source:population": "Philippine Statistics Authority"}}, {"type": "node", "id": 6509821109, "lat": 8.2144848, "lon": 124.3080711, "tags": {"admin_level": "11", "designation": "sitio", "is_in:city": "Iligan", "is_in:village": "Puga-an", "name": "Lower Calawag", "place": "hamlet", "postal_code": "9200"}}, {"type": "node", "id": 6509821172, "lat": 8.2152069, "lon": 124.293673, "tags": {"admin_level": "11", "designation": "sitio", "is_in:city": "Iligan", "is_in:village": "Puga-an", "name": "Taluntonan", "place": "hamlet", "postal_code": "9200"}}, {"type": "node", "id": 6509821204, "lat": 8.2152281, "lon": 124.2831802, "tags": {"admin_level": "11", "designation": "sitio", "is_in:city": "Iligan", "is_in:village": "Puga-an", "name": "Lumbatin", "place": "hamlet", "postal_code": "9200"}}, {"type": "node", "id": 6578575710, "lat": 8.3493128, "lon": 124.4906535, "tags": {"admin_level": "10", "admin_type:PH": "barangay", "ele": "200", "is_in:city": "Cagayan de Oro", "is_in:district": "1st District", "name": "Pigsag-an", "official_name": "Barangay Pigsag-an", "place": "village", "population": "1428", "population:date": "2020-05-01", "postal_code": "9000"}}, {"type": "node", "id": 6978211199, "lat": 8.3355272, "lon": 124.4001345, "tags": {"admin_level": "10", "admin_type:PH": "barangay", "is_in:municipality": "Manticao", "name": "Mahayahay", "official_name": "Barangay Mahayahay", "place": "village", "postal_code": "9024"}}, {"type": "node", "id": 6978211256, "lat": 8.3232272, "lon": 124.4029248, "tags": {"place": "hamlet"}}, {"type": "node", "id": 6978211257, "lat": 8.3204459, "lon": 124.3955111, "tags": {"place": "hamlet"}}, {"type": "node", "id": 6978211258, "lat": 8.3075632, "lon": 124.3823093, "tags": {"place": "hamlet"}}, {"type": "node", "id": 6978211260, "lat": 8.3047241, "lon": 124.3964364, "tags": {"admin_level": "11", "designation": "sitio", "is_in:village": "Mainit", "name": "Rebucon", "place": "hamlet"}}, {"type": "node", "id": 6978211261, "lat": 8.2900832, "lon": 124.4021845, "tags": {"admin_level": "11", "designation": "sitio", "is_in:village": "Mainit", "name": "Pudog", "place": "hamlet"}}, {"type": "node", "id": 6978211532, "lat": 8.3697819, "lon": 124.4704024, "tags": {"admin_level": "10", "admin_type:PH": "barangay", "is_in:municipality": "Opol", "name": "Tingalan", "place": "village", "postal_code": "9016"}}, {"type": "node", "id": 6978212027, "lat": 8.2815313, "lon": 124.4371122, "tags": {"admin_level": "11", "designation": "sitio", "is_in:city": "Iligan", "is_in:village": "Rogongon", "name": "Katipunan", "place": "hamlet", "source:name": "extrapolated from OSMaPaaralan, way/663361755"}}, {"type": "node", "id": 6978212028, "lat": 8.3050843, "lon": 124.4268393, "tags": {"admin_level": "11", "designation": "sitio", "is_in:city": "Iligan", "is_in:village": "Mainit", "name": "Caribao", "place": "hamlet"}}, {"type": "node", "id": 6978212031, "lat": 8.2980191, "lon": 124.4365462, "tags": {"admin_level": "11", "designation": "sitio", "is_in:city": "Iligan", "is_in:village": "Mainit", "name": "Kapisahan", "place": "hamlet", "source:name": "extrapolated from OSMaPaaralan, way/917213114"}}, {"type": "node", "id": 6978212032, "lat": 8.3129722, "lon": 124.495064, "tags": {"place": "hamlet"}}, {"type": "node", "id": 6978212033, "lat": 8.2730111, "lon": 124.5239568, "tags": {"place": "hamlet"}}, {"type": "node", "id": 6978212035, "lat": 8.3001742, "lon": 124.5380008, "tags": {"admin_type:PH": "sitio", "is_in:city": "Cagayan de Oro City", "is_in:village": "Dansolihon", "name": "Iba", "place": "neighbourhood"}}, {"type": "node", "id": 6978212036, "lat": 8.2974299, "lon": 124.5323789, "tags": {"place": "hamlet"}}, {"type": "node", "id": 6978212037, "lat": 8.2944942, "lon": 124.5151243, "tags": {"admin_level": "11", "admin_type:PH": "sitio", "is_in:city": "Cagayan de Oro City", "is_in:village": "Dansolihon", "name": "Balongkot", "place": "neighbourhood"}}, {"type": "node", "id": 6978212038, "lat": 8.2430376, "lon": 124.4976953, "tags": {"alt_name": "Sitio Magayad", "ele": "620", "is_in:barangay": "Tignapoloan", "is_in:city": "Cagayan de Oro", "name": "Magayad", "place": "hamlet", "postal_code": "9000"}}, {"type": "node", "id": 7197049987, "lat": 8.2101531, "lon": 124.2421542, "tags": {"name": "Pates Compound", "place": "neighbourhood"}}, {"type": "node", "id": 7733346468, "lat": 8.0320395, "lon": 124.2900091, "tags": {"is_in:city": "Marawi", "name": "Cabasaran", "place": "village"}}, {"type": "node", "id": 7914967337, "lat": 8.2329717, "lon": 124.2585415, "tags": {"name": "Zone 1-A", "place": "neighbourhood", "source:name": "extrapolated from OSMaPaaralan, way/848237528"}}, {"type": "node", "id": 7965245593, "lat": 8.2144609, "lon": 124.2422792, "tags": {"description": "subdivision", "is_in:city": "Iligan", "is_in:village": "Tubod", "name": "Rosario Heights", "place": "neighbourhood", "source:name": "extrapolated from OSMaPaaralan, way/542008438"}}, {"type": "node", "id": 7965298533, "lat": 8.2074339, "lon": 124.2429364, "tags": {"name": "Bara-as", "place": "neighbourhood", "source:name": "extrapolated from way/141944627"}}, {"type": "node", "id": 7965302000, "lat": 8.2082994, "lon": 124.240163, "tags": {"admin_level": "11", "designation": "sitio", "is_in:city": "Iligan", "is_in:village": "Tubod", "name": "Orellana", "place": "neighbourhood", "source:name": "extrapolated from OSMaPaaralan, way/542016904"}}, {"type": "node", "id": 7965302001, "lat": 8.207641, "lon": 124.237529, "tags": {"description": "subdivision", "is_in:city": "Iligan", "is_in:village": "Tubod", "name": "Carbide Village", "place": "neighbourhood", "source:name": "extrapolated from OSMaPaaralan, way/542016904"}}, {"type": "node", "id": 7965333925, "lat": 8.2198499, "lon": 124.2353618, "tags": {"admin_level": "11", "admin_type:PH": "purok", "is_in:barangay": "Tambacan", "is_in:city": "Iligan", "name": "Purok 9", "place": "neighbourhood"}}, {"type": "node", "id": 7965333942, "lat": 8.2243057, "lon": 124.2362027, "tags": {"admin_level": "11", "admin_type:PH": "purok", "is_in:barangay": "Tambacan", "is_in:city": "Iligan", "name": "Purok 2-A", "place": "neighbourhood"}}, {"type": "node", "id": 7965430470, "lat": 8.2246203, "lon": 124.2449453, "tags": {"is_in:city": "Iligan", "is_in:village": "Ubaldo Laya", "name": "Noria", "place": "neighbourhood", "source:name": "extrapolated from OSMaPaaralan, way/854109993"}}, {"type": "node", "id": 7965457479, "lat": 8.2128336, "lon": 124.2519379, "tags": {"admin_level": "11", "admin_type:PH": "purok", "is_in:barangay": "Ubaldo D. Laya", "is_in:city": "Iligan", "name": "Merila", "place": "neighbourhood"}}, {"type": "node", "id": 7965459435, "lat": 8.2212383, "lon": 124.2458492, "tags": {"admin_level": "11", "admin_type:PH": "purok", "is_in:barangay": "Tubod", "is_in:city": "Iligan", "name": "Manuang", "place": "neighbourhood"}}, {"type": "node", "id": 7965459436, "lat": 8.2188133, "lon": 124.2466566, "tags": {"admin_level": "11", "admin_type:PH": "purok", "is_in:barangay": "Tubod", "is_in:city": "Iligan", "name": "Mangga", "place": "neighbourhood"}}, {"type": "node", "id": 7965484127, "lat": 8.1973245, "lon": 124.2514765, "tags": {"admin_level": "11", "admin_type:PH": "purok", "is_in:barangay": "Tipanoy", "is_in:city": "Iligan", "name": "Purok 6", "place": "neighbourhood"}}, {"type": "node", "id": 7965484165, "lat": 8.1997192, "lon": 124.2502668, "tags": {"admin_level": "11", "admin_type:PH": "purok", "is_in:barangay": "Tipanoy", "is_in:city": "Iligan", "name": "Purok 4", "place": "neighbourhood"}}, {"type": "node", "id": 7965515532, "lat": 8.1905441, "lon": 124.2277551, "tags": {"admin_level": "11", "admin_type:PH": "purok", "is_in:barangay": "Santa Elena", "is_in:city": "Iligan", "name": "Purok 2", "place": "neighbourhood"}}, {"type": "node", "id": 7965574237, "lat": 8.1952955, "lon": 124.2141688, "tags": {"is_in:city": "Iligan", "is_in:village": "Suarez", "name": "Orchids", "official_name": "Zone Orchids", "place": "neighbourhood", "source:name": "extrapolated from OSMaPaaralan, relation/11701308"}}, {"type": "node", "id": 8091914228, "lat": 8.0484685, "lon": 124.3808448, "tags": {"place": "hamlet"}}, {"type": "node", "id": 8091914229, "lat": 8.0316517, "lon": 124.3773901, "tags": {"place": "hamlet"}}, {"type": "node", "id": 8091916291, "lat": 8.0317965, "lon": 124.412275, "tags": {"place": "hamlet"}}, {"type": "node", "id": 8092420991, "lat": 8.0645304, "lon": 124.1974675, "tags": {"admin_level": "10", "admin_type:PH": "barangay", "is_in:municipality": "Pantao Ragat", "name": "Aloon", "official_name": "Barangay Aloon", "old_ref": "103516001", "place": "village", "population": "1688", "population:date": "2020-05-01", "postal_code": "9208", "ref": "1003516001"}}, {"type": "node", "id": 8092420992, "lat": 8.0729754, "lon": 124.1866636, "tags": {"admin_level": "10", "is_in:town": "Pantao Ragat", "name": "Lomidong", "place": "village", "place:PH": "barangay"}}, {"type": "node", "id": 8092420993, "lat": 8.0778724, "lon": 124.1731346, "tags": {"admin_level": "10", "admin_type:PH": "barangay", "is_in:town": "Pantao Ragat", "name": "Maliwanag", "place": "village", "population": "1811", "population:2015": "1633", "population:date": "2020-05-01", "ref": "103516016", "source:population": "Philippine Statistics Authority"}}, {"type": "node", "id": 8092420994, "lat": 8.0926425, "lon": 124.1730756, "tags": {"admin_level": "10", "admin_type:PH": "barangay", "is_in:town": "Matungao", "name": "Bangco", "place": "village", "population": "983", "population:2015": "915", "population:date": "2020-05-01", "ref": "103513002", "source:population": "Philippine Statistics Authority"}}, {"type": "node", "id": 8092420995, "lat": 8.0977198, "lon": 124.1558933, "tags": {"admin_level": "10", "is_in:town": "Matungao", "name": "Cadayonan", "place": "village", "place:PH": "barangay"}}, {"type": "node", "id": 8092420996, "lat": 8.1582651, "lon": 124.1615796, "tags": {"admin_level": "10", "is_in:town": "Linamon", "name": "Purakan", "place": "village", "place:PH": "barangay"}}, {"type": "node", "id": 8092420997, "lat": 8.1510221, "lon": 124.1756666, "tags": {"admin_level": "10", "is_in:town": "Linamon", "name": "Robocon", "place": "village", "place:PH": "barangay"}}, {"type": "node", "id": 8092420998, "lat": 8.1354946, "lon": 124.1961157, "tags": {"admin_level": "10", "is_in:town": "Matungao", "name": "Matampay", "place": "village", "place:PH": "barangay"}}, {"type": "node", "id": 8092421000, "lat": 8.1128291, "lon": 124.1828549, "tags": {"admin_level": "10", "is_in:town": "Matungao", "name": "Somiorang", "place": "village", "place:PH": "barangay"}}, {"type": "node", "id": 8092421002, "lat": 8.122845, "lon": 124.1776514, "tags": {"name": "Pangi", "place": "village"}}, {"type": "node", "id": 8092421003, "lat": 8.126265, "lon": 124.1690898, "tags": {"admin_level": "10", "is_in:town": "Matungao", "name": "Batangan", "place": "village", "place:PH": "barangay"}}, {"type": "node", "id": 8092421004, "lat": 8.0951971, "lon": 124.1263568, "tags": {"admin_level": "10", "is_in:town": "Poona Piagapo", "name": "Daramba", "place": "village", "place:PH": "barangay"}}, {"type": "node", "id": 8092421005, "lat": 8.1557216, "lon": 124.129951, "tags": {"admin_level": "10", "is_in:town": "Kauswagan", "name": "Tingintingin", "place": "village", "place:PH": "barangay"}}, {"type": "node", "id": 8092459392, "lat": 8.0409207, "lon": 124.2141885, "tags": {"admin_level": "10", "admin_type:PH": "barangay", "is_in:town": "Balindong", "name": "Bualan", "place": "village", "population": "1387", "population:2015": "1263", "population:date": "2020-05-01", "ref": "153621009", "source:population": "Philippine Statistics Authority"}}, {"type": "node", "id": 8092459397, "lat": 8.1373215, "lon": 124.1167223, "tags": {"admin_level": "10", "is_in:town": "Poona Piagapo", "name": "Dinaig", "place": "village", "place:PH": "barangay"}}, {"type": "node", "id": 8092459401, "lat": 8.128984, "lon": 124.1227949, "tags": {"place": "village"}}, {"type": "node", "id": 8092459402, "lat": 8.1336679, "lon": 124.1341352, "tags": {"place": "village"}}, {"type": "node", "id": 8092459403, "lat": 8.0691035, "lon": 124.1271347, "tags": {"admin_level": "10", "admin_type:PH": "barangay", "is_in:town": "Poona Piagapo", "name": "Pantaon", "place": "village", "population": "993", "population:2015": "905", "population:date": "2020-05-01", "ref": "103517020", "source:name": "extrapolated from OSMaPaaralan, way/849698601", "source:population": "Philippine Statistics Authority"}}, {"type": "node", "id": 8092459404, "lat": 8.0615454, "lon": 124.1097593, "tags": {"place": "village"}}, {"type": "node", "id": 8092459405, "lat": 8.0532224, "lon": 124.1047329, "tags": {"place": "village"}}, {"type": "node", "id": 8092459474, "lat": 8.0171609, "lon": 124.1312975, "tags": {"place": "village"}}, {"type": "node", "id": 8092459475, "lat": 8.0128873, "lon": 124.1421229, "tags": {"place": "village"}}, {"type": "node", "id": 8092459476, "lat": 8.0088688, "lon": 124.1475195, "tags": {"place": "village"}}, {"type": "node", "id": 8092459477, "lat": 7.9914925, "lon": 124.1406906, "tags": {"place": "village"}}, {"type": "node", "id": 8092459478, "lat": 7.9932987, "lon": 124.118675, "tags": {"place": "village"}}, {"type": "node", "id": 8218825061, "lat": 8.0206349, "lon": 124.2859912, "tags": {"admin_level": "10", "alt_name": "Rorogagus Proper", "is_in:city": "Marawi", "name": "Rorogagus", "place": "village", "place:PH": "barangay", "source:name": "extrapolated from OSMaPaaralan"}}, {"type": "node", "id": 8321271888, "lat": 8.3804583, "lon": 124.2852724, "tags": {"admin_level": "10", "admin_type:PH": "barangay", "is_in:municipality": "Manticao", "name": "Patag", "old_ref": "104318009", "place": "village", "population": "1655", "population:2015": "1526", "population:date": "2020-05-01", "ref": "1004318009"}}, {"type": "node", "id": 8353756371, "lat": 8.373114, "lon": 124.2617811, "tags": {"admin_level": "10", "admin_type:PH": "barangay", "alt_name": "Calangahan", "is_in:municipality": "Lugait", "name": "Kalangahan", "official_name": "Barangay Calangahan", "old_ref": "104316004", "place": "village", "population": "2701", "population:2015": "2436", "population:date": "2020-05-01", "ref": "1004316004"}}, {"type": "node", "id": 8353756372, "lat": 8.3711309, "lon": 124.2641754, "tags": {"admin_level": "11", "admin_type:PH": "purok", "is_in:barangay": "Kalangahan", "is_in:municipality": "Lugait", "name": "Mahayahay", "place": "neighbourhood"}}, {"type": "node", "id": 8353756382, "lat": 8.3403648, "lon": 124.2600462, "tags": {"admin_level": "11", "admin_type:PH": "purok", "is_in:barangay": "Poblacion", "is_in:municipality": "Lugait", "name": "Rizal", "place": "neighbourhood"}}, {"type": "node", "id": 8353809763, "lat": 8.3216295, "lon": 124.2800876, "tags": {"admin_level": "11", "designation": "sitio", "is_in:city": "Iligan", "is_in:village": "Dalipuga", "name": "Bulalang", "place": "hamlet"}}, {"type": "node", "id": 8353809764, "lat": 8.3155519, "lon": 124.2558619, "tags": {"description": "subdivision", "is_in:city": "Iligan", "is_in:village": "Dalipuga", "name": "Iligan Bay Vista Village", "place": "neighbourhood"}}, {"type": "node", "id": 8515967162, "lat": 8.0802597, "lon": 124.4051979, "tags": {"admin_level": "10", "designation": "barangay", "is_in:town": "Tagoloan Ii", "name": "Kianibong", "place": "village", "source:name": "extrapolated from OSMaPaaralan"}}, {"type": "node", "id": 8515971449, "lat": 8.0823656, "lon": 124.3984374, "tags": {"admin_level": "10", "alt_name": "Kapai Proper", "designation": "barangay", "is_in:town": "Kapai", "name": "Poblacion", "place": "village", "source:name": "extrapolated from OSMaPaaralan"}}, {"type": "node", "id": 8515971454, "lat": 8.0887787, "lon": 124.3875396, "tags": {"admin_level": "10", "designation": "barangay", "is_in:town": "Kapai", "name": "Doronan", "place": "village", "source:name": "extrapolated from OSMaPaaralan"}}, {"type": "node", "id": 8775441117, "lat": 8.3820323, "lon": 124.273316, "tags": {"admin_level": "10", "admin_type:PH": "barangay", "name": "Punta Silum", "old_ref": "104318011", "place": "village", "population": "4204", "population:2015": "4154", "population:date": "2020-05-01", "ref": "1004318011"}}, {"type": "node", "id": 8797785325, "lat": 8.1849895, "lon": 124.1835932}, {"type": "node", "id": 8797785326, "lat": 8.1849696, "lon": 124.1832069}, {"type": "node", "id": 8797785328, "lat": 8.1848859, "lon": 124.1825028}, {"type": "node", "id": 8833874109, "lat": 8.3829458, "lon": 124.3148674, "tags": {"name": "Paniangan", "place": "village"}}, {"type": "node", "id": 8833887058, "lat": 8.3609685, "lon": 124.3434464, "tags": {"name": "Magpait", "place": "hamlet"}}, {"type": "node", "id": 8833893002, "lat": 8.3703148, "lon": 124.377599, "tags": {"name": "Balintad", "place": "village"}}, {"type": "node", "id": 8833897966, "lat": 8.3875266, "lon": 124.369871, "tags": {"name": "Macabagla", "place": "village"}}, {"type": "node", "id": 8833901155, "lat": 8.3695952, "lon": 124.3280877, "tags": {"name": "Cabalantian", "place": "village"}}, {"type": "node", "id": 8833902900, "lat": 8.3846545, "lon": 124.299908, "tags": {"name": "Pagawan", "place": "village"}}, {"type": "node", "id": 8833909764, "lat": 8.3464778, "lon": 124.3512132, "tags": {"admin_level": "10", "admin_type:PH": "barangay", "is_in:municipality": "Manticao", "name": "Tuod", "official_name": "Barangay Tuod", "place": "village", "postal_code": "9024"}}, {"type": "node", "id": 8833910669, "lat": 8.3441208, "lon": 124.3416833, "tags": {"name": "Camanga", "place": "village"}}, {"type": "node", "id": 8833911498, "lat": 8.3818796, "lon": 124.3282858, "tags": {"name": "Argayoso", "place": "village"}}, {"type": "node", "id": 8833913074, "lat": 8.3429265, "lon": 124.3753027, "tags": {"name": "San Isidro", "place": "hamlet"}}, {"type": "node", "id": 8833939518, "lat": 8.3513079, "lon": 124.4162119, "tags": {"name": "Malibato", "place": "village"}}, {"type": "node", "id": 8833989598, "lat": 8.4007276, "lon": 124.3367537, "tags": {"name": "Mat-i", "place": "village"}}, {"type": "node", "id": 8837436426, "lat": 8.32517, "lon": 124.4122168, "tags": {"admin_level": "10", "admin_type:PH": "barangay", "alt_name": "Limunda", "is_in:municipality": "Opol", "name": "Limonda", "official_name": "Barangay Limonda", "place": "village", "postal_code": "9016"}}, {"type": "node", "id": 8837833799, "lat": 8.3227795, "lon": 124.4534586, "tags": {"designation": "barangay", "name": "Cauyonan", "place": "village"}}, {"type": "node", "id": 8840724877, "lat": 8.3440019, "lon": 124.5489809, "tags": {"admin_level": "11", "alt_name": "Sitio Batinay", "designation": "sitio", "is_in:city": "Cagayan de Oro", "is_in:village": "Tagpangi", "name": "Batinay", "place": "hamlet", "postal_code": "9000"}}, {"type": "node", "id": 8911288308, "lat": 8.2222603, "lon": 124.3098307, "tags": {"admin_level": "11", "designation": "sitio", "is_in:city": "Iligan", "is_in:village": "Mandulog", "name": "Upper Pigsuotan", "place": "hamlet", "postal_code": "9200"}}, {"type": "node", "id": 8911330046, "lat": 8.1679162, "lon": 124.2695895, "tags": {"admin_level": "10", "admin_type:PH": "barangay", "is_in:town": "Tagoloan", "name": "Inagongan", "place": "village", "population": "3578", "population:2015": "2711", "population:date": "2020-05-01", "postal_code": "9222", "ref": "103520004", "source:population": "Philippine Statistics Authority"}}, {"type": "node", "id": 8911330047, "lat": 8.164085, "lon": 124.2954916, "tags": {"admin_level": "10", "designation": "barangay", "is_in:town": "Tagoloan", "name": "Malimbato", "note": "location approximate", "place": "village", "postal_code": "9222"}}, {"type": "node", "id": 8911330048, "lat": 8.1380569, "lon": 124.3007943, "tags": {"admin_level": "10", "designation": "barangay", "is_in:town": "Tagoloan", "name": "Darimbang", "place": "village", "postal_code": "9222"}}, {"type": "node", "id": 8911330049, "lat": 8.136724, "lon": 124.2702413, "tags": {"admin_level": "11", "designation": "sitio", "is_in:town": "Tagoloan", "is_in:village": "Dimayon", "name": "Cabasaran", "place": "village", "postal_code": "9222"}}, {"type": "node", "id": 8911330050, "lat": 8.1278184, "lon": 124.3499726, "tags": {"admin_level": "11", "designation": "sitio", "is_in:town": "Tagoloan", "is_in:village": "Panalawan", "name": "Tumple", "place": "hamlet", "postal_code": "9222"}}, {"type": "node", "id": 8911330051, "lat": 8.1304072, "lon": 124.344179, "tags": {"admin_level": "10", "designation": "barangay", "is_in:town": "Tagoloan", "name": "Panalawan", "place": "village", "postal_code": "9222"}}, {"type": "node", "id": 8911330052, "lat": 8.1213846, "lon": 124.312073, "tags": {"admin_level": "10", "alt_name": "Poblacion", "designation": "barangay", "is_in:town": "Tagoloan", "name": "Kiazar", "place": "village", "postal_code": "9222"}}, {"type": "node", "id": 8911330053, "lat": 8.1207765, "lon": 124.2763594, "tags": {"admin_level": "10", "admin_type:PH": "barangay", "is_in:town": "Tagoloan", "name": "Dimayon", "place": "village", "population": "2779", "population:2015": "3057", "population:date": "2020-05-01", "postal_code": "9222", "ref": "103520003", "source:name": "extrapolated from OSMaPaaralan, way/926308869", "source:population": "Philippine Statistics Authority"}}, {"type": "node", "id": 9041261256, "lat": 8.3226141, "lon": 124.2948908, "tags": {"admin_level": "10", "designation": "barangay", "is_in:town": "Lugait", "name": "Kaluknayan", "place": "village", "postal_code": "9025"}}, {"type": "node", "id": 9049574885, "lat": 8.1345433, "lon": 124.165694, "tags": {"name": "Poblacion", "place": "neighbourhood"}}, {"type": "node", "id": 9049578954, "lat": 8.0890415, "lon": 124.2453217, "tags": {"admin_level": "10", "admin_type:PH": "barangay", "alt_name": "Kalanganan Lower", "name": "Lower Kalanganan", "official_name": "Barangay Kalanganan Lower", "old_ref": "103523013", "place": "village", "population": "1574", "population:2015": "1423", "population:date": "2020-05-01", "ref": "1003523013"}}, {"type": "node", "id": 9049578955, "lat": 8.0824019, "lon": 124.2505501, "tags": {"admin_level": "10", "admin_type:PH": "barangay", "is_in:municipality": "Pantar", "name": "Kalanganan East", "official_name": "Barangay Kalanganan East", "old_ref": "103523012", "place": "village", "population": "3554", "population:2015": "3015", "population:date": "2020-05-01"}}, {"type": "node", "id": 9086049483, "lat": 7.9855282, "lon": 124.364615, "tags": {"admin_level": "10", "admin_type:PH": "barangay", "is_in:municipality": "Bubong", "name": "Poblacion", "old_name": "Bubong", "old_ref": "153606007", "place": "village", "population": "750", "population:2015": "613", "population:date": "2020-05-01", "ref": "1903606007"}}, {"type": "node", "id": 9089863013, "lat": 8.1167418, "lon": 124.1994403, "tags": {"admin_level": "10", "admin_type:PH": "barangay", "is_in:town": "Baloi", "name": "Matampay", "place": "village", "source:name": "extrapolated from OSMaPaaralan, way/983070400"}}, {"type": "node", "id": 9239253177, "lat": 8.11622, "lon": 124.1554414, "tags": {"admin_level": "10", "admin_type:PH": "barangay", "is_in:town": "Matungao", "name": "Pasayanon", "place": "village", "population": "2087", "population:2015": "1990", "population:date": "2020-05-01", "ref": "103513016", "source:population": "Philippine Statistics Authority"}}, {"type": "node", "id": 9241948380, "lat": 8.115041, "lon": 124.2584047, "tags": {"admin_level": "10", "admin_type:PH": "barangay", "is_in:town": "Baloi", "name": "Landa", "place": "village", "population": "3275", "population:2015": "2824", "population:date": "2020-05-01", "ref": "103502012", "source:name": "extrapolated from OSMaPaaralan, way/926295597", "source:population": "Philippine Statistics Authority"}}, {"type": "node", "id": 9241948389, "lat": 8.1043743, "lon": 124.2292678, "tags": {"admin_level": "10", "admin_type:PH": "barangay", "is_in:town": "Balo-i", "name": "Adapun-ali", "place": "village", "population": "2601", "population:2015": "2041", "population:date": "2020-05-01", "ref": "103502002", "source:name": "extrapolated from OSMaPaaralan, way/925508942", "source:population": "Philippine Statistics Authority"}}, {"type": "node", "id": 9241948406, "lat": 8.1052148, "lon": 124.2456749, "tags": {"admin_level": "10", "admin_type:PH": "barangay", "is_in:town": "Tagoloan", "name": "Sarip Alawi", "old_name": "Payawan", "place": "village", "population": "3230", "population:2015": "2584", "population:date": "2020-05-01", "ref": "103502027", "source:population": "Philippine Statistics Authority"}}, {"type": "node", "id": 9242108051, "lat": 8.189068, "lon": 124.2806107, "tags": {"admin_level": "11", "admin_type:PH": "sitio", "is_in:village": "Tipanoy", "name": "Mibolo", "place": "hamlet", "source:name": "extrapolated from OSMaPaaralan, way/926298857"}}, {"type": "node", "id": 9242108060, "lat": 8.1955564, "lon": 124.2590243, "tags": {"admin_level": "11", "designation": "sitio", "is_in:village": "Tipanoy", "name": "Pindugangan", "place": "hamlet", "source:name": "extrapolated from OSMaPaaralan, relation/13427289"}}, {"type": "node", "id": 9242108061, "lat": 8.1740306, "lon": 124.2749995, "tags": {"admin_level": "10", "admin_type:PH": "sitio", "is_in:city": "Iligan", "is_in:village": "Tipanoy", "name": "Mibala", "place": "hamlet", "source:name": "extrapolated from OSMaPaaralan, way/926302727"}}, {"type": "node", "id": 9242108062, "lat": 8.1669703, "lon": 124.2690872, "tags": {"is_in:village": "Inagongan", "name": "Patag", "place": "neighbourhood"}}, {"type": "node", "id": 9242134570, "lat": 8.1809494, "lon": 124.2502427, "tags": {"admin_level": "11", "admin_type:PH": "purok", "alt_name": "Panuliran", "is_in:barangay": "Abuno", "is_in:city": "Iligan", "name": "Panul-iran", "place": "neighbourhood"}}, {"type": "node", "id": 9242204655, "lat": 8.1763165, "lon": 124.2015003, "tags": {"admin_level": "10", "admin_type:PH": "barangay", "is_in:town": "Balo-i", "name": "Maria Cristina", "place": "village", "population": "7122", "population:2015": "6485", "population:date": "2020-05-01", "ref": "103502015", "source:population": "Philippine Statistics Authority"}}, {"type": "node", "id": 9242331208, "lat": 8.0814786, "lon": 124.1620061, "tags": {"admin_level": "10", "admin_type:PH": "barangay", "is_in:town": "Pantao Ragat", "name": "Bobonga Radapan", "place": "village", "population": "949", "population:2015": "868", "population:date": "2020-05-01", "ref": "103516005", "source:name": "extrapolated from OSMaPaaralan, way/923732760", "source:population": "Philippine Statistics Authority"}}, {"type": "node", "id": 9242331209, "lat": 8.0745422, "lon": 124.1630977, "tags": {"admin_level": "10", "admin_type:PH": "barangay", "is_in:town": "Pantao Ragat", "name": "Matampay", "place": "village", "population": "1215", "population:2015": "1186", "population:date": "2020-05-01", "ref": "103516017", "source:name": "extrapolated from OSMaPaaralan, way/923732427", "source:population": "Philippine Statistics Authority"}}, {"type": "node", "id": 9242356476, "lat": 8.0860196, "lon": 124.2272294, "tags": {"name": "Bubong Paco", "note": "Verify settlement name.", "place": "neighbourhood"}}, {"type": "node", "id": 9242384637, "lat": 8.15364, "lon": 124.2035669, "tags": {"admin_level": "11", "admin_type:PH": "sitio", "is_in:quarter": "Maria Cristina", "is_in:town": "Balo-i", "name": "Pendulunan", "place": "village", "source:name": "extrapolated from OSMaPaaralan, way/1001309399"}}, {"type": "node", "id": 9242460233, "lat": 8.1311852, "lon": 124.2539817, "tags": {"fixme": "name", "place": "neighbourhood"}}, {"type": "node", "id": 9242460268, "lat": 8.1345348, "lon": 124.2432193, "tags": {"admin_level": "10", "admin_type:PH": "barangay", "is_in:town": "Balo-i", "name": "Sigayan", "place": "village", "source:name": "extrapolated from OSMaPaaralan, way/1001313209"}}, {"type": "node", "id": 9242460269, "lat": 8.1404652, "lon": 124.2352331, "tags": {"admin_level": "10", "admin_type:PH": "barangay", "is_in:town": "Balo-i", "name": "Buenavista", "place": "village", "population": "1686", "population:2015": "1512", "population:date": "2020-05-01", "ref": "103502007", "source:name": "extrapolated from OSMaPaaralan, way/926312381", "source:population": "Philippine Statistics Authority"}}, {"type": "node", "id": 9242460274, "lat": 8.1433434, "lon": 124.2216718, "tags": {"admin_level": "10", "admin_type:PH": "barangay", "is_in:town": "Balo-i", "name": "Abaga", "place": "village", "population": "3907", "population:2015": "2990", "population:date": "2020-05-01", "ref": "103502001", "source:name": "extrapolated from OSMaPaaralan, way/926307542", "source:population": "Philippine Statistics Authority"}}, {"type": "node", "id": 9242460279, "lat": 8.1241036, "lon": 124.2270362, "tags": {"admin_level": "10", "admin_type:PH": "barangay", "is_in:town": "Balo-i", "name": "Cadayonan", "place": "village", "population": "2170", "population:2015": "1811", "population:date": "2020-05-01", "ref": "103502009", "source:population": "Philippine Statistics Authority"}}, {"type": "node", "id": 9242467909, "lat": 8.085045, "lon": 124.1897026, "tags": {"admin_level": "10", "admin_type:PH": "barangay", "is_in:town": "Balo-i", "name": "Sandor", "place": "village", "population": "1963", "population:2015": "1519", "population:date": "2020-05-01", "ref": "103502025", "source:name": "extrapolated from OSMaPaaralan, way/925495909", "source:population": "Philippine Statistics Authority"}}, {"type": "node", "id": 9242495377, "lat": 8.1069872, "lon": 124.1916981, "tags": {"admin_level": "10", "admin_type:PH": "barangay", "is_in:municipality": "Balo-i", "name": "Angandog", "official_name": "Barangay Angandog", "old_name": "Bulao", "place": "village", "population": "1516", "population:date": "2020-05-01", "postal_code": "9217", "ref": "103502003"}}, {"type": "node", "id": 9242495379, "lat": 8.1018888, "lon": 124.1803604, "tags": {"admin_level": "10", "admin_type:PH": "barangay", "is_in:town": "Matungao", "name": "Batangan", "place": "village", "population": "2086", "population:2015": "1943", "population:date": "2020-05-01", "ref": "103513004", "source:population": "Philippine Statistics Authority"}}, {"type": "node", "id": 9242495380, "lat": 8.0939118, "lon": 124.1805053, "tags": {"admin_level": "10", "admin_type:PH": "barangay", "is_in:town": "Balo-i", "name": "Bangko", "place": "village", "population": "2072", "population:2015": "1780", "population:date": "2020-05-01", "ref": "103502005", "source:name": "extrapolated from OSMaPaaralan, way/925496963", "source:population": "Philippine Statistics Authority"}}, {"type": "node", "id": 9242513054, "lat": 8.080196, "lon": 124.214285, "tags": {"admin_level": "10", "admin_type:PH": "barangay", "alt_name": "Mamaanum", "is_in:town": "Balo-i", "name": "Mamaa-nun", "place": "village", "population": "2612", "population:2015": "2517", "population:date": "2020-05-01", "ref": "103502014", "source:name": "extrapolated from OSMaPaaralan, way/923151902", "source:population": "Philippine Statistics Authority"}}, {"type": "node", "id": 9242513055, "lat": 8.1011613, "lon": 124.2166185, "tags": {"admin_level": "10", "admin_type:PH": "barangay", "is_in:municipality": "Balo-i", "name": "Batolacongan", "old_name": "Basagad", "old_ref": "103502006", "place": "village", "population": "2502", "population:date": "2020-05-01"}}, {"type": "node", "id": 9242524484, "lat": 8.1302107, "lon": 124.2343587, "tags": {"admin_level": "10", "admin_type:PH": "barangay", "is_in:town": "Balo-i", "name": "Sangcad", "old_name": "Cormatan", "place": "village", "population": "1754", "population:2015": "1555", "population:date": "2020-05-01", "ref": "103502026", "source:name": "extrapolated from OSMaPaaralan, way/1001325211", "source:population": "Philippine Statistics Authority"}}, {"type": "node", "id": 9242527542, "lat": 8.0759789, "lon": 124.2288306, "tags": {"name": "Bubong Olango", "note": "Verify settlement name.", "place": "neighbourhood"}}, {"type": "node", "id": 9242527563, "lat": 8.0784088, "lon": 124.2239141, "tags": {"admin_level": "10", "admin_type:PH": "barangay", "is_in:town": "Balo-i", "name": "Angayen", "old_name": "Balut", "place": "village", "population": "2298", "population:2015": "2035", "population:date": "2020-05-01", "ref": "103502004", "source:name": "extrapolated from OSMaPaaralan, way/925508968", "source:population": "Philippine Statistics Authority"}}, {"type": "node", "id": 9243114391, "lat": 8.0618003, "lon": 124.1874146, "tags": {"admin_level": "10", "admin_type:PH": "barangay", "is_in:municipality": "Pantao Ragat", "name": "Calawe", "official_name": "Barangay Calawe", "old_ref": "103516008", "place": "village", "population": "1082", "population:date": "2020-05-01", "postal_code": "9208"}}, {"type": "node", "id": 9243114392, "lat": 8.0554797, "lon": 124.1757497, "tags": {"admin_level": "10", "admin_type:PH": "barangay", "is_in:municipality": "Pantao Ragat", "name": "Bobonga Pantao Ragat", "official_name": "Barangay Bobonga Pantao Ragat", "old_ref": "103516004", "place": "village", "population": "1493", "population:date": "2020-05-01", "postal_code": "9208", "ref": "1003516004", "short_name": "Bobonga"}}, {"type": "node", "id": 9243134842, "lat": 8.0414333, "lon": 124.1956115, "tags": {"admin_level": "10", "admin_type:PH": "barangay", "is_in:town": "Pantao Ragat", "name": "Pansor", "place": "village", "population": "1425", "population:2015": "1317", "population:date": "2020-05-01", "ref": "103516019", "source:name": "extrapolated from OSMaPaaralan, way/1001396568", "source:population": "Philippine Statistics Authority"}}, {"type": "node", "id": 9243157402, "lat": 8.0346144, "lon": 124.1418466, "tags": {"admin_level": "10", "admin_type:PH": "barangay", "is_in:town": "Pantao Ragat", "name": "Culubun", "place": "village", "population": "1423", "population:2015": "1308", "population:date": "2020-05-01", "ref": "103516009", "source:population": "Philippine Statistics Authority"}}, {"type": "node", "id": 9243218977, "lat": 8.052083, "lon": 124.1924009, "tags": {"admin_level": "10", "admin_type:PH": "barangay", "is_in:municipality": "Pantao Ragat", "name": "Dimayon", "official_name": "Barangay Dimayon", "old_ref": "103516011", "place": "village", "population": "1447", "population:date": "2020-05-01", "postal_code": "9208", "ref": "1003516011"}}, {"type": "node", "id": 9244676115, "lat": 8.0740164, "lon": 124.2824051, "tags": {"admin_level": "10", "admin_type:PH": "barangay", "is_in:town": "Pantar", "name": "Lumba-Punod", "old_ref": "103523031", "place": "village", "population": "2141", "population:2015": "1870", "population:date": "2020-05-01", "ref": "1003523031", "source:population": "Philippine Statistics Authority"}}, {"type": "node", "id": 9244684431, "lat": 8.0842019, "lon": 124.2867764, "tags": {"admin_level": "10", "admin_type:PH": "barangay", "is_in:town": "Pantar", "name": "Bowi", "place": "hamlet", "population": "976", "population:2015": "787", "population:date": "2020-05-01", "ref": "103523005", "source:name": "extrapolated from OSMaPaaralan, way/1001578389", "source:population": "Philippine Statistics Authority"}}, {"type": "node", "id": 9244696443, "lat": 8.0949767, "lon": 124.2666364, "tags": {"admin_level": "10", "admin_type:PH": "barangay", "is_in:town": "Pantar", "name": "Cadayonan", "place": "hamlet", "population": "888", "population:2015": "780", "population:date": "2020-05-01", "ref": "103523007", "source:name": "extrapolated from OSMaPaaralan, way/1001581085", "source:population": "Philippine Statistics Authority"}}, {"type": "node", "id": 9244696474, "lat": 8.090218, "lon": 124.2600301, "tags": {"admin_level": "10", "admin_type:PH": "barangay", "is_in:town": "Pantar", "name": "Tawanan", "place": "hamlet", "source:name": "extrapolated from OSMaPaaralan, way/1001581100"}}, {"type": "node", "id": 9244737559, "lat": 8.0640577, "lon": 124.2831092, "tags": {"admin_level": "10", "admin_type:PH": "barangay", "is_in:town": "Pantar", "name": "Cabasagan", "place": "village", "population": "1388", "population:2015": "1008", "population:date": "2020-05-01", "ref": "103523006", "source:name": "extrapolated from OSMaPaaralan, way/1001585864", "source:population": "Philippine Statistics Authority"}}, {"type": "node", "id": 9244746171, "lat": 8.0656883, "lon": 124.2877963, "tags": {"admin_level": "10", "admin_type:PH": "barangay", "is_in:town": "Pantar", "name": "Dibarosan", "place": "hamlet", "population": "851", "population:2015": "725", "population:date": "2020-05-01", "ref": "103523010", "source:name": "extrapolated from OSMaPaaralan, way/1001586688", "source:population": "Philippine Statistics Authority"}}, {"type": "node", "id": 9244762203, "lat": 8.0988245, "lon": 124.2452431, "tags": {"admin_level": "10", "admin_type:PH": "barangay", "is_in:town": "Pantar", "name": "Kalilangan", "place": "village", "population": "525", "population:2015": "482", "population:date": "2020-05-01", "ref": "103523014", "source:name": "extrapolated from OSMaPaaralan, way/1001587577", "source:population": "Philippine Statistics Authority"}}, {"type": "node", "id": 9244806699, "lat": 8.0661291, "lon": 124.2549205, "tags": {"admin_level": "10", "admin_type:PH": "barangay", "is_in:town": "Pantar", "name": "West Pantar", "place": "village", "population": "1020", "population:2015": "873", "population:date": "2020-05-01", "ref": "103523030", "source:name": "extrapolated from OSMaPaaralan, way/923157003", "source:population": "Philippine Statistics Authority"}}, {"type": "node", "id": 9244806702, "lat": 8.0598245, "lon": 124.2643163, "tags": {"admin_level": "10", "admin_type:PH": "barangay", "is_in:town": "Pantar", "name": "Campong", "place": "village", "population": "2150", "population:2015": "693", "population:date": "2020-05-01", "ref": "103523008", "source:name": "extrapolated from OSMaPaaralan, way/923158947", "source:population": "Philippine Statistics Authority"}}, {"type": "node", "id": 9244806710, "lat": 8.0738836, "lon": 124.2650378, "tags": {"admin_level": "10", "admin_type:PH": "barangay", "alt_name": "Pantar East", "is_in:town": "Pantar", "name": "East Pantar", "place": "hamlet", "population": "1358", "population:2015": "1461", "population:date": "2020-05-01", "ref": "103523018", "source:population": "Philippine Statistics Authority"}}, {"type": "node", "id": 9244819420, "lat": 8.0737322, "lon": 124.2747112, "tags": {"admin_level": "10", "admin_type:PH": "barangay", "is_in:town": "Pantar", "name": "Pantao Ranao", "place": "village", "population": "1155", "population:2015": "878", "population:date": "2020-05-01", "ref": "103523017", "source:name": "extrapolated from OSMaPaaralan, way/1001594016", "source:population": "Philippine Statistics Authority"}}, {"type": "node", "id": 9338174261, "lat": 8.347534, "lon": 124.5463318, "tags": {"place": "hamlet"}}, {"type": "node", "id": 9653982112, "lat": 7.9972139, "lon": 124.2949927, "tags": {"name": "Pangarungan Village", "place": "neighbourhood"}}, {"type": "node", "id": 9658288727, "lat": 8.3572089, "lon": 124.2609033, "tags": {"admin_level": "10", "admin_type:PH": "barangay", "is_in:town": "Lugait", "name": "Biga", "place": "village", "source:name": "extrapolated from way:389137114"}}, {"type": "node", "id": 9658288732, "lat": 8.3567034, "lon": 124.2614321, "tags": {"admin_level": "11", "admin_type:PH": "purok", "is_in:barangay": "Biga", "is_in:municipality": "Lugait", "name": "Purok 1", "place": "neighbourhood"}}, {"type": "node", "id": 9659830717, "lat": 8.2930385, "lon": 124.2573479, "tags": {"admin_level": "11", "designation": "sitio", "is_in:village": "Dalipuga", "name": "Tag-ibo", "place": "neighbourhood", "source:name": "extrapolated from way:927401479"}}, {"type": "node", "id": 9659876811, "lat": 8.269786, "lon": 124.2586146, "tags": {"admin_level": "11", "admin_type:PH": "purok", "is_in:barangay": "Santa Filomena", "is_in:city": "Iligan", "name": "Talisay", "place": "neighbourhood"}}, {"type": "node", "id": 9660018764, "lat": 8.2665118, "lon": 124.2544473, "tags": {"admin_level": "11", "admin_type:PH": "purok", "is_in:barangay": "Santa Filomena", "is_in:city": "Iligan", "name": "Rosas Pandan-A", "place": "neighbourhood"}}, {"type": "node", "id": 9660018769, "lat": 8.2681978, "lon": 124.2575272, "tags": {"admin_level": "11", "admin_type:PH": "purok", "is_in:barangay": "Santa Filomena", "is_in:city": "Iligan", "name": "San Juan", "place": "neighbourhood"}}, {"type": "node", "id": 9660018771, "lat": 8.270245, "lon": 124.2614721, "tags": {"admin_level": "11", "admin_type:PH": "purok", "is_in:barangay": "Santa Filomena", "is_in:city": "Iligan", "name": "Magbanwag", "place": "neighbourhood"}}, {"type": "node", "id": 9661940746, "lat": 7.9958685, "lon": 124.4060244, "tags": {"admin_level": "10", "admin_type:PH": "barangay", "is_in:municipality": "Bubong", "name": "Bubonga Didagun", "official_name": "Barangay Bubonga Didagun", "old_ref": "153606008", "place": "village", "population": "789", "population:2015": "738", "population:date": "2020-05-01", "ref": "1903606008"}}, {"type": "node", "id": 9662049826, "lat": 7.987491, "lon": 124.3700972, "tags": {"admin_level": "10", "admin_type:PH": "barangay", "is_in:town": "Bubong", "name": "Pindoguan", "not:name": "Pendoguan", "place": "village"}}, {"type": "node", "id": 9664810920, "lat": 8.2094501, "lon": 124.2224922, "tags": {"admin_level": "11", "is_in": "Tomas L. Cabili", "name": "Alita Village", "official_name": "Purok 19 Alita Village", "place": "neighbourhood"}}, {"type": "node", "id": 9665297003, "lat": 8.1936494, "lon": 124.2025525, "tags": {"name": "Pensioner's Village", "place": "neighbourhood", "source_ref": "https://youtu.be/n2v8QyzEWyM?t=538"}}, {"type": "node", "id": 9665299723, "lat": 8.1926536, "lon": 124.1999908, "tags": {"name": "Bethel Hope Village", "place": "neighbourhood", "source_ref": "https://youtu.be/n2v8QyzEWyM?t=543"}}, {"type": "node", "id": 9667102910, "lat": 8.1102812, "lon": 124.2259313, "tags": {"is_in": "Poblacion West;Balo-i", "name": "Purok 8", "place": "neighbourhood", "source:name": "extrapolated from way:503178114"}}, {"type": "node", "id": 9669348679, "lat": 8.0216089, "lon": 124.2155785, "tags": {"admin_level": "10", "admin_type:PH": "barangay", "is_in:municipality": "Piagapo", "name": "Pindolonan", "old_ref": "153621029", "place": "village", "population": "659", "population:2015": "543", "population:date": "2020-05-01", "ref": "1903621029"}}, {"type": "node", "id": 9669520640, "lat": 8.0267851, "lon": 124.2779983, "tags": {"admin_level": "10", "admin_type:PH": "barangay", "is_in:city": "Marawi", "name": "Mipaga Proper", "old_ref": "153617075", "place": "village", "population": "2027", "population:2015": "1896", "population:date": "2020-05-01", "ref": "1903617075"}}, {"type": "node", "id": 9813448275, "lat": 8.0510473, "lon": 124.256961, "tags": {"admin_level": "10", "admin_type:PH": "barangay", "is_in:municipality": "Saguiaran", "name": "Pawak", "old_ref": "153625030", "place": "village", "population": "2430", "population:2015": "2305", "population:date": "2020-05-01", "ref": "1903625030"}}, {"type": "node", "id": 10011348775, "lat": 8.3009461, "lon": 124.2752127, "tags": {"admin_level": "11", "designation": "sitio", "is_in:village": "Dalipuga", "name": "Kalubihon", "place": "hamlet"}}, {"type": "node", "id": 10011348784, "lat": 8.3156734, "lon": 124.320436, "tags": {"admin_level": "11", "designation": "sitio", "is_in:village": "Bunawan", "name": "San Antonio", "place": "hamlet"}}, {"type": "node", "id": 10011348789, "lat": 8.28169, "lon": 124.3679594, "tags": {"admin_level": "11", "designation": "sitio", "is_in:village": "Mainit", "name": "Ampucao", "place": "hamlet"}}, {"type": "node", "id": 10011348805, "lat": 8.3001951, "lon": 124.3367403, "tags": {"admin_level": "11", "designation": "sitio", "is_in:village": "Kabacsanan", "name": "Malinao", "place": "hamlet"}}, {"type": "node", "id": 10011348806, "lat": 8.2882688, "lon": 124.3312428, "tags": {"admin_level": "11", "designation": "sitio", "is_in:village": "Kabacsanan", "name": "Tabunan", "place": "hamlet"}}, {"type": "node", "id": 10017102159, "lat": 8.1727515, "lon": 124.2243245, "tags": {"admin_level": "10", "designation": "barangay", "is_in:city": "Iligan", "name": "Upper Tominobo", "place": "village", "population": "3702", "population:date": "2020-05-01", "ref": "103504029", "source:population": "Philippine Statistics Authority"}}, {"type": "node", "id": 10017106125, "lat": 8.2470487, "lon": 124.2679663, "tags": {"admin_level": "10", "designation": "barangay", "is_in:city": "Iligan", "name": "Luinab", "place": "village", "population": "11108", "population:date": "2020-05-01", "ref": "103504043", "source:population": "Philippine Statistics Authority"}}, {"type": "node", "id": 10561497110, "lat": 8.3153665, "lon": 124.4422553, "tags": {"alt_name": "Sitio Liguiron", "is_in:barangay": "Cauyonan", "is_in:municipality": "Opol", "name": "Liguiron", "place": "hamlet", "postal_code": "9016"}}, {"type": "node", "id": 10580501241, "lat": 8.3125719, "lon": 124.4392701, "tags": {"alt_name": "Sitio Pinatagan", "is_in:barangay": "Mainit", "is_in:city": "Iligan", "name": "Pinatagan", "place": "hamlet", "postal_code": "9200"}}, {"type": "node", "id": 10580501341, "lat": 8.333513, "lon": 124.4290482, "tags": {"alt_name": "Sitio Tulod", "is_in:barangay": "Limonda", "is_in:municipality": "Opol", "name": "Tulod", "place": "hamlet", "postal_code": "9016"}}, {"type": "node", "id": 10580501443, "lat": 8.3441408, "lon": 124.3552166, "tags": {"admin_level": "11", "admin_type:PH": "purok", "is_in:barangay": "Tuod", "is_in:municipality": "Manticao", "name": "Purok 8", "place": "neighbourhood", "postal_code": "9024"}}, {"type": "node", "id": 10580672041, "lat": 8.2491336, "lon": 124.2713332, "tags": {"admin_level": "11", "admin_type:PH": "purok", "alt_name": "Purok 5-C;Deus Caritas Village", "is_in:barangay": "Luinab", "is_in:city": "Iligan", "name": "Deus Caritas", "official_name": "Purok 5-C Deus Caritas Village", "place": "neighbourhood", "postal_code": "9200"}}, {"type": "node", "id": 10600694306, "lat": 8.2693603, "lon": 124.438013, "tags": {"alt_name": "Sitio Upper Katipunan", "is_in:barangay": "Rogongon", "is_in:city": "Iligan", "name": "Upper Katipunan", "place": "hamlet", "postal_code": "9200"}}, {"type": "node", "id": 10600694309, "lat": 8.2239376, "lon": 124.5397419, "tags": {"alt_name": "Sitio Man-ai", "ele": "790", "is_in:barangay": "Tignapoloan", "is_in:city": "Cagayan de Oro", "name": "Man-ai", "place": "village", "postal_code": "9000"}}, {"type": "node", "id": 10600694310, "lat": 8.1843257, "lon": 124.5319323, "tags": {"alt_name": "Sitio Kadayunan", "ele": "1040", "is_in:barangay": "Besigan", "is_in:city": "Cagayan de Oro", "name": "Kadayunan", "place": "hamlet", "postal_code": "9000"}}, {"type": "node", "id": 10600694605, "lat": 8.2249224, "lon": 124.4503662, "tags": {"admin_level": "11", "name": "Kasagpaan", "place": "hamlet"}}, {"type": "node", "id": 10904499908, "lat": 8.2146847, "lon": 124.4838004, "tags": {"admin_level": "11", "admin_type:PH": "purok", "alt_name": "Sitio Salingsing", "is_in:barangay": "Rogongon", "is_in:city": "Iligan", "name": "Salingsing", "official_name": "Purok Salingsing", "place": "hamlet", "postal_code": "9200"}}, {"type": "node", "id": 11039905256, "lat": 8.1693362, "lon": 124.1728066}, {"type": "node", "id": 11199632834, "lat": 8.2626296, "lon": 124.2576073, "tags": {"is_in:barangay": "Santa Filomena", "is_in:city": "Iligan", "name": "Hilda Village", "place": "neighbourhood", "postal_code": "9200"}}, {"type": "node", "id": 11226443276, "lat": 8.2075446, "lon": 124.2469918, "tags": {"admin_level": "11", "admin_type:PH": "purok", "is_in:barangay": "Tubod", "is_in:city": "Iligan", "name": "La Purisma", "official_name": "Purok La Purisma", "place": "neighbourhood", "postal_code": "9200"}}, {"type": "node", "id": 11274627939, "lat": 7.9991366, "lon": 124.2467734, "tags": {"admin_level": "10", "admin_type:PH": "barangay", "name": "Banga", "place": "village", "postal_code": "9700"}}, {"type": "node", "id": 11704323693, "lat": 8.1683569, "lon": 124.5383254, "tags": {"alt_name": "Sitio Naguimba", "ele": "900", "is_in:barangay": "Besigan", "is_in:city": "Cagayan de Oro", "name": "Naguimba", "place": "hamlet", "postal_code": "9000"}}, {"type": "node", "id": 11814666305, "lat": 8.2090058, "lon": 124.2231953, "tags": {"admin_level": "11", "admin_type:PH": "purok", "is_in": "Tomas L. Cabili", "name": "Purok 9 Casa Village", "official_name": "Purok 9 Casa Village", "place": "neighbourhood"}}, {"type": "node", "id": 11814666306, "lat": 8.2100392, "lon": 124.222606, "tags": {"admin_level": "11", "admin_type:PH": "purok", "is_in": "Tomas L. Cabili", "name": "Purok 8 Casa Village", "official_name": "Purok 8 Casa Village", "place": "neighbourhood"}}, {"type": "node", "id": 11814666307, "lat": 8.210118, "lon": 124.2228307, "tags": {"admin_level": "11", "admin_type:PH": "purok", "is_in": "Tomas L. Cabili", "name": "Danao Circle", "official_name": "Purok 7 Danao Circle", "place": "neighbourhood"}}, {"type": "node", "id": 11815078371, "lat": 8.2082908, "lon": 124.2214066, "tags": {"admin_level": "11", "name": "Hilltop", "official_name": "Purok 17 Hilltop", "place": "neighbourhood"}}, {"type": "node", "id": 11815078372, "lat": 8.2064748, "lon": 124.2233163, "tags": {"admin_level": "11", "admin_type:PH": "purok", "is_in": "Tomas L. Cabili", "name": "Mary Hill", "official_name": "Purok 18 Mary Hill", "place": "neighbourhood"}}, {"type": "node", "id": 11815078373, "lat": 8.2082389, "lon": 124.2200264, "tags": {"admin_level": "11", "name": "Masinag Subdivision", "official_name": "Purok 15-A Masinag Subdivision", "place": "neighbourhood"}}, {"type": "node", "id": 11815078374, "lat": 8.2147286, "lon": 124.2257848, "tags": {"admin_level": "11", "name": "Baybay Camague", "place": "neighbourhood"}}, {"type": "node", "id": 11815122000, "lat": 8.2037849, "lon": 124.2071218, "tags": {"admin_level": "11", "name": "Kaugmaran", "official_name": "Zone Kaugmaran", "place": "neighbourhood"}}, {"type": "node", "id": 11815122001, "lat": 8.2022451, "lon": 124.2091978, "tags": {"admin_level": "11", "name": "Villabel Compound", "place": "neighbourhood"}}, {"type": "node", "id": 11815122002, "lat": 8.2012793, "lon": 124.211092, "tags": {"admin_level": "11", "name": "Balite Drive", "official_name": "Zone Balite Drive", "place": "neighbourhood"}}, {"type": "node", "id": 11815122003, "lat": 8.2007787, "lon": 124.2101625, "tags": {"admin_level": "11", "name": "Access", "official_name": "Zone Access", "place": "neighbourhood"}}, {"type": "node", "id": 11815122004, "lat": 8.1992175, "lon": 124.2102682, "tags": {"admin_level": "11", "name": "Family Village", "official_name": "Zone Family Village", "place": "neighbourhood"}}, {"type": "node", "id": 11815122005, "lat": 8.1976401, "lon": 124.2106666, "tags": {"admin_level": "11", "name": "Adelfa", "official_name": "Zone Adelfa", "place": "neighbourhood"}}, {"type": "node", "id": 11815122006, "lat": 8.1972136, "lon": 124.2117073, "tags": {"admin_level": "11", "name": "Riverside", "official_name": "Zone Riverside", "place": "neighbourhood"}}, {"type": "node", "id": 11815122007, "lat": 8.195995, "lon": 124.2135932, "tags": {"admin_level": "11", "name": "Roadside", "official_name": "Zone Roadside", "place": "neighbourhood"}}, {"type": "node", "id": 11815122008, "lat": 8.1968131, "lon": 124.2137753, "tags": {"name": "Mauswagon", "official_name": "Zone Mauswagon", "place": "neighbourhood"}}, {"type": "node", "id": 11815122009, "lat": 8.1975989, "lon": 124.2126171, "tags": {"name": "Begonia", "official_name": "Zone Begonia", "place": "neighbourhood"}}, {"type": "node", "id": 11815122010, "lat": 8.1972199, "lon": 124.2133877, "tags": {"admin_level": "11", "name": "Matinabangon", "official_name": "Zone Matinabangon", "place": "neighbourhood"}}, {"type": "node", "id": 11815122011, "lat": 8.1933937, "lon": 124.2143584, "tags": {"admin_level": "11", "name": "Capricorn", "official_name": "Zone Capricorn", "place": "neighbourhood"}}, {"type": "node", "id": 11815122012, "lat": 8.1933998, "lon": 124.2160776, "tags": {"admin_level": "11", "name": "Leo", "official_name": "Zone Leo", "place": "neighbourhood"}}, {"type": "node", "id": 11815122013, "lat": 8.1925738, "lon": 124.217714, "tags": {"admin_level": "11", "name": "Saturn", "official_name": "Zone Saturn", "place": "neighbourhood"}}, {"type": "node", "id": 11815122014, "lat": 8.188129, "lon": 124.2156921, "tags": {"admin_level": "11", "name": "Aries 1", "official_name": "Zone Aries 1", "place": "neighbourhood"}}, {"type": "node", "id": 11815122015, "lat": 8.1881449, "lon": 124.2170815, "tags": {"admin_level": "11", "name": "Aries 2", "official_name": "Zone Aries 2", "place": "neighbourhood"}}, {"type": "node", "id": 11815122016, "lat": 8.1867962, "lon": 124.2156116, "tags": {"name": "Madasigon 1", "official_name": "Zone Madasigon 1", "place": "neighbourhood"}}, {"type": "node", "id": 11815122017, "lat": 8.185867, "lon": 124.215397, "tags": {"admin_level": "11", "name": "Madasigon 2", "official_name": "Zone Madasigon 2", "place": "neighbourhood"}}, {"type": "node", "id": 11815122018, "lat": 8.1853148, "lon": 124.2160676, "tags": {"admin_level": "11", "name": "Army Village", "official_name": "Zone Army Village", "place": "neighbourhood"}}, {"type": "node", "id": 11815122019, "lat": 8.1824065, "lon": 124.2170762, "tags": {"admin_level": "11", "name": "Tanke", "official_name": "Zone Tanke", "place": "neighbourhood"}}, {"type": "node", "id": 11815122020, "lat": 8.1802906, "lon": 124.2175859, "tags": {"admin_level": "11", "name": "Meteor", "official_name": "Zone Meteor", "place": "neighbourhood"}}, {"type": "node", "id": 11815200214, "lat": 8.2033106, "lon": 124.2046729, "tags": {"admin_level": "11", "name": "Nunucan", "place": "neighbourhood"}}, {"type": "node", "id": 11815200219, "lat": 8.2100085, "lon": 124.2242536, "tags": {"admin_level": "11", "is_in": "Tomas L. Cabili", "name": "Purok 6 Palm Court", "official_name": "Purok 6 Palm Court Subdivision", "place": "neighbourhood"}}, {"type": "node", "id": 11827372293, "lat": 8.2067023, "lon": 124.2192921, "tags": {"admin_level": "11", "name": "Purok 16", "place": "neighbourhood"}}, {"type": "node", "id": 11827372294, "lat": 8.2084832, "lon": 124.2190364, "tags": {"admin_level": "11", "admin_type:PH": "purok", "name": "Purok 14", "place": "neighbourhood"}}, {"type": "node", "id": 11849976253, "lat": 8.2019338, "lon": 124.2307187, "tags": {"admin_level": "11", "name": "Upsurge", "official_name": "Purok 20-A Upsurge", "place": "neighbourhood"}}, {"type": "node", "id": 11861734900, "lat": 8.1962583, "lon": 124.2336038, "tags": {"admin_level": "11", "admin_type:PH": "purok", "is_in": "Santa Elena", "name": "Purok 7", "place": "neighbourhood"}},