{"version": 0.6, "generator": "Overpass API 0.7.62.5 1bd436f1", "osm3s": {"timestamp_osm_base": "2025-05-24T17:58:23Z", "copyright": "The data included in this document is from www.openstreetmap.org. The data is made available under ODbL."}, "elements": [{"type": "node", "id": 198490711, "lat": 11.2566801, "lon": 123.0143933, "tags": {"admin_level": "6", "admin_type:PH": "municipality", "name": "Sara", "name:en": "Sara", "name:hil": "Sara", "official_name:en": "Municipality of Sara", "official_name:hil": "Banwa sang Sara", "old_ref": "063044000", "place": "town", "population": "54637", "population:date": "2020-05-01", "postal_code": "5014", "ref": "0603044000", "source": "GNS", "source:population": "Philippine Statistics Authority", "wikidata": "Q275368", "wikimedia_commons": "Category:Sara, Iloilo", "wikipedia": "en:Sara, Iloilo"}}, {"type": "node", "id": 198491196, "lat": 11.3871513, "lon": 122.7811911, "tags": {"admin_level": "6", "alt_name": "Maayon", "gns_classification": "ADM2", "gns_uni": "-3356283", "is_in:province": "Capiz", "name": "Ma-ayon", "nga:ufi": "-2434795", "place": "town", "place:PH": "municipality", "population": "38416", "population:date": "2015-08-01", "source": "GNS;Bing;USGS, 2013-10-11;NGA", "source:population": "Philippine Statistics Authority", "wikidata": "Q356153", "wikimedia_commons": "Category:Ma-ayon", "wikipedia": "en:Ma-ayon"}}, {"type": "node", "id": 198492650, "lat": 11.225827, "lon": 122.9274305, "tags": {"admin_level": "6", "gns_classification": "ADM2", "gns_uni": "-3353710", "is_in:province": "Iloilo", "name": "Lemery", "name:ka": "\u10da\u10d4\u10db\u10d4\u10e0\u10d8", "place": "town", "place:PH": "municipality", "population": "30851", "population:date": "2015-08-01", "source": "GNS", "source:population": "Philippine Statistics Authority", "wikidata": "Q274961", "wikimedia_commons": "Category:Lemery, Iloilo", "wikipedia": "en:Lemery, Iloilo"}}, {"type": "node", "id": 198494383, "lat": 11.2147066, "lon": 123.1087513, "tags": {"admin_level": "6", "gns_classification": "ADM2", "gns_uni": "-3340845", "is_in:province": "Iloilo", "name": "Concepcion", "name:ka": "\u10d9\u10dd\u10dc\u10e1\u10d4\u10de\u10e1\u10d8\u10dd\u10dc\u10d8", "place": "town", "place:PH": "municipality", "population": "43159", "population:date": "2015-08-01", "source": "GNS", "source:population": "Philippine Statistics Authority", "wikidata": "Q274749", "wikimedia_commons": "Category:Concepcion, Iloilo", "wikipedia": "en:Concepcion, Iloilo"}}, {"type": "node", "id": 198498797, "lat": 11.1801338, "lon": 122.8288492, "tags": {"admin_level": "6", "gns_classification": "ADM2", "gns_uni": "-3375824", "is_in:province": "Iloilo", "name": "San Rafael", "name:ka": "\u10e1\u10d0\u10dc-\u10e0\u10d0\u10e4\u10d0\u10d4\u10da\u10d8", "place": "town", "place:PH": "municipality", "population": "16532", "population:date": "2015-08-01", "source": "GNS", "source:population": "Philippine Statistics Authority", "wikidata": "Q275329", "wikimedia_commons": "Category:San Rafael, Iloilo", "wikipedia": "en:San Rafael, Iloilo"}}, {"type": "node", "id": 198501687, "lat": 11.4560924, "lon": 123.1510998, "tags": {"admin_level": "6", "admin_type:PH": "municipality", "name": "Estancia", "name:fa": "\u0627\u0633\u062a\u0646\u06a9\u06cc\u0627", "name:ka": "\u10d4\u10e1\u10e2\u10d0\u10dc\u10e1\u10d8\u10d0", "old_ref": "063019000", "place": "town", "population": "53200", "population:date": "2020-05-01", "ref": "0603019000", "source:population": "Philippine Statistics Authority", "wikidata": "Q82506", "wikimedia_commons": "Category:Estancia, Iloilo", "wikipedia": "en:Estancia, Iloilo"}}, {"type": "node", "id": 198507807, "lat": 11.4818484, "lon": 122.8327477, "tags": {"admin_level": "6", "admin_type:PH": "municipality", "gns_classification": "ADM2", "gns_uni": "-3370763", "is_in:province": "Capiz", "name": "Pontevedra", "nga:ufi": "-2446654", "old_ref": "061912000", "place": "town", "population": "46428", "population:date": "2015-08-01", "ref": "0601912000", "source": "GNS;Bing;USGS, 2013-10-11;NGA", "source:population": "Philippine Statistics Authority", "wikidata": "Q356292", "wikimedia_commons": "Category:Pontevedra, Capiz", "wikipedia": "en:Pontevedra, Capiz"}}, {"type": "node", "id": 198508428, "lat": 11.4180961, "lon": 123.1099182, "tags": {"admin_level": "6", "admin_type:PH": "municipality", "name": "Batad", "name:ka": "\u10d1\u10d0\u10e2\u10d0\u10d3\u10d8", "old_ref": "063009000", "place": "town", "population": "22157", "population:date": "2020-05-01", "ref": "0603009000", "source:population": "Philippine Statistics Authority", "wikidata": "Q274654", "wikimedia_commons": "Category:Batad, Iloilo", "wikipedia": "en:Batad, Iloilo"}}, {"type": "node", "id": 198513183, "lat": 11.4298506, "lon": 122.9250508, "tags": {"admin_level": "6", "gns_classification": "ADM2", "gns_uni": "-3371025", "is_in:province": "Capiz", "name": "President Roxas", "place": "town", "place:PH": "municipality", "population": "29676", "population:date": "2015-08-01", "ref": "061913000", "source": "GNS", "source:population": "Philippine Statistics Authority", "wikidata": "Q356313", "wikimedia_commons": "Category:President Roxas, Capiz", "wikipedia": "en:President Roxas, Capiz"}}, {"type": "node", "id": 198514485, "lat": 11.4861234, "lon": 122.9963607, "tags": {"admin_level": "6", "gns_classification": "ADM2", "gns_uni": "-3369709", "is_in:province": "Capiz", "name": "Pilar", "place": "town", "place:PH": "municipality", "population": "45287", "population:date": "2015-08-01", "source": "GNS", "source:population": "Philippine Statistics Authority", "wikidata": "Q356266", "wikimedia_commons": "Category:Pilar, Capiz", "wikipedia": "en:Pilar, Capiz"}}, {"type": "node", "id": 198522987, "lat": 11.4631934, "lon": 122.7687618, "tags": {"admin_level": "6", "admin_type:PH": "municipality", "alt_name": "Panitan", "gns_classification": "ADM2", "gns_uni": "-3368184", "is_in": "Capiz", "is_in:province": "Capiz", "name": "Panit-an", "old_ref": "061910000", "place": "town", "population": "40289", "population:date": "2015-08-01", "ref": "0601910000", "source": "GNS", "source:population": "Philippine Statistics Authority", "wikidata": "Q356231", "wikimedia_commons": "Category:Panitan", "wikipedia": "en:Panitan"}}, {"type": "node", "id": 198524090, "lat": 11.2711575, "lon": 123.0949468, "tags": {"admin_level": "6", "gns_classification": "ADM2", "gns_uni": "-3374211", "is_in:province": "Iloilo", "name": "San Dionisio", "name:ka": "\u10e1\u10d0\u10dc-\u10d3\u10d8\u10dd\u10dc\u10d8\u10e1\u10d8\u10dd", "old_ref": "063038000", "place": "town", "place:PH": "municipality", "population": "38775", "population:date": "2015-08-01", "ref": "0603038000", "source": "GNS", "source:population": "Philippine Statistics Authority", "wikidata": "Q275264", "wikimedia_commons": "Category:San Dionisio, Iloilo", "wikipedia": "en:San Dionisio, Iloilo"}}, {"type": "node", "id": 198528164, "lat": 11.1713335, "lon": 123.0199077, "tags": {"admin_level": "6", "gns_classification": "ADM2", "gns_uni": "-3322580", "is_in:province": "Iloilo", "name": "Ajuy", "place": "town", "place:PH": "municipality", "population": "52268", "population:date": "2015-08-01", "source": "GNS", "source:population": "Philippine Statistics Authority", "wikidata": "Q274491", "wikimedia_commons": "Category:Ajuy, Iloilo", "wikipedia": "en:Ajuy, Iloilo"}}, {"type": "node", "id": 1157200951, "lat": 11.1772778, "lon": 122.7503056, "tags": {"is_in:city": "Passi", "is_in:state": "Iloilo", "name": "Dalicanan", "place": "village", "population": "1994"}}, {"type": "node", "id": 1157202109, "lat": 11.2031869, "lon": 122.7754073, "tags": {"admin_level": "10", "admin_type:PH": "barangay", "alt_name": "Gemumua-agahon", "is_in:city": "Passi", "is_in:province": "Iloilo", "name": "Gemumua Agahon", "nat_name": "Barangay Gemumua-agahon", "official_name": "Barangay Gemumua Agahon", "old_ref": "063035021", "place": "village", "population": "3454", "population:2015": "3371", "ref": "0603035021"}}, {"type": "node", "id": 1169479813, "lat": 11.1878889, "lon": 122.75375, "tags": {"is_in:village": "Dalicanan", "name": "Agtugas", "place": "hamlet"}}, {"type": "node", "id": 1169498840, "lat": 11.2175833, "lon": 122.7633889, "tags": {"is_in:village": "Gemumua Agahon", "name": "Batuyanan", "place": "hamlet"}}, {"type": "node", "id": 2006371443, "lat": 11.472018, "lon": 123.0887179, "tags": {"admin_level": "6", "admin_type:PH": "municipality", "name": "Balasan", "name:ka": "\u10d1\u10d0\u10da\u10d0\u10e1\u10d0\u10dc\u10d8", "old_ref": "063005000", "place": "town", "population": "35064", "population:date": "2020-05-01", "ref": "0603005000", "source:population": "Philippine Statistics Authority", "wikidata": "Q274578", "wikimedia_commons": "Category:Balasan", "wikipedia": "en:Balasan"}}, {"type": "node", "id": 2019734576, "lat": 11.5126063, "lon": 122.7662516, "tags": {"name": "Loctugan", "place": "village"}}, {"type": "node", "id": 2321405095, "lat": 11.3937006, "lon": 123.1433265, "tags": {"is_in:town": "Batad", "name": "Binon-an", "place": "village"}}, {"type": "node", "id": 2526991195, "lat": 11.4612815, "lon": 123.1708922, "tags": {"admin_level": "10", "admin_type:PH": "barangay", "alt_name": "Loguingot", "name": "Luguingot", "old_ref": "063019012", "place": "village", "population": "869", "population:2015": "869", "population:date": "2015-08-01", "ref": "0603019012", "source:population": "Philippine Statistics Authority", "wikidata": "Q18350152", "wikipedia": "en:Loguingot"}}, {"type": "node", "id": 2527010052, "lat": 11.4922635, "lon": 123.1194236, "tags": {"FIXME": "location", "name": "Mambot", "nga:ufi": "-2437264", "place": "hamlet", "source": "Bing; USGS, 2013-10-11; NGA"}}, {"type": "node", "id": 2527010053, "lat": 11.466667, "lon": 123.083333, "tags": {"name": "Manacolod", "nga:ufi": "-2437374", "place": "hamlet", "source": "Bing; USGS, 2013-10-11; NGA"}}, {"type": "node", "id": 2527037823, "lat": 11.4413698, "lon": 122.9346187, "tags": {"admin_level": "10", "admin_type:PH": "barangay", "name": "Aranguel", "nga:ufi": "-2409033", "place": "village", "source": "Bing; USGS, 2013-10-11; NGA"}}, {"type": "node", "id": 2527037824, "lat": 11.3874087, "lon": 122.9506348, "tags": {"admin_level": "10", "admin_type:PH": "barangay", "is_in:town": "President Roxas", "name": "Badiangon", "nga:ufi": "-2409906", "old_ref": "061913002", "place": "village", "population": "2183", "ref": "0601913002", "source": "Bing; USGS, 2013-10-11; NGA", "source:population": "Philippine Statistics Authority"}}, {"type": "node", "id": 2527037825, "lat": 11.4491, "lon": 122.9699, "tags": {"FIXME": "location", "name": "Balante", "nga:ufi": "-2410838", "place": "hamlet", "source": "Bing; USGS, 2013-10-11; NGA"}}, {"type": "node", "id": 2527037826, "lat": 11.4475, "lon": 122.913, "tags": {"FIXME": "location", "name": "Balcon", "nga:ufi": "10740240", "place": "hamlet", "source": "Bing; USGS, 2013-10-11; NGA"}}, {"type": "node", "id": 2527037827, "lat": 11.4053125, "lon": 122.89591, "tags": {"name": "Banate", "nga:ufi": "-2411761", "place": "village", "source": "Bing; USGS, 2013-10-11; NGA"}}, {"type": "node", "id": 2527037828, "lat": 11.4181677, "lon": 122.8712202, "tags": {"admin_type:PH": "sitio", "name": "Binutocan", "nga:ufi": "10740253", "place": "neighbourhood", "source": "Bing;USGS, 2013-10-11;NGA"}}, {"type": "node", "id": 2527037829, "lat": 11.4182, "lon": 122.9262, "tags": {"FIXME": "location", "name": "Bo-ac", "nga:ufi": "10740246", "place": "hamlet", "source": "Bing; USGS, 2013-10-11; NGA"}}, {"type": "node", "id": 2527037832, "lat": 11.4203116, "lon": 122.9263845, "tags": {"name": "Cabugcabug", "nga:ufi": "10740244", "place": "village", "source": "Bing; USGS, 2013-10-11; NGA"}}, {"type": "node", "id": 2527037835, "lat": 11.4755, "lon": 122.9344, "tags": {"FIXME": "location", "name": "Cadu-Olan", "nga:ufi": "10740218", "place": "hamlet", "source": "Bing; USGS, 2013-10-11; NGA"}}, {"type": "node", "id": 2527037836, "lat": 11.4162242, "lon": 122.9442019, "tags": {"name": "Carmencita", "nga:ufi": "10740235", "place": "village", "source": "Bing; USGS, 2013-10-11; NGA"}}, {"type": "node", "id": 2527037837, "lat": 11.4088, "lon": 122.9158, "tags": {"FIXME": "location", "name": "Catipayan", "nga:ufi": "10740248", "place": "hamlet", "source": "Bing; USGS, 2013-10-11; NGA"}}, {"type": "node", "id": 2527037838, "lat": 11.423072, "lon": 122.9633827, "tags": {"name": "Cubay", "nga:ufi": "10740227", "place": "village", "source": "Bing; USGS, 2013-10-11; NGA"}}, {"type": "node", "id": 2527037839, "lat": 11.4420459, "lon": 122.948057, "tags": {"name": "Culilang", "nga:ufi": "-2422869", "place": "village", "source": "Bing; USGS, 2013-10-11; NGA"}}, {"type": "node", "id": 2527037840, "lat": 11.4561346, "lon": 122.9561048, "tags": {"name": "Dulangan", "nga:ufi": "-2425173", "place": "village", "source": "Bing; USGS, 2013-10-11; NGA"}}, {"type": "node", "id": 2527037841, "lat": 11.4211446, "lon": 122.9741383, "tags": {"name": "Gose", "nga:ufi": "-2426732", "place": "village", "source": "Bing; USGS, 2013-10-11; NGA"}}, {"type": "node", "id": 2527037842, "lat": 11.4166507, "lon": 122.8810489, "tags": {"admin_level": "10", "admin_type:PH": "barangay", "is_in:town": "Pontevedra", "name": "Hipona", "nga:ufi": "-2427876", "old_ref": "061912012", "place": "village", "population": "2669", "population:2015": "2546", "ref": "0601912012", "source": "Bing;USGS, 2013-10-11;NGA"}}, {"type": "node", "id": 2527037843, "lat": 11.4197346, "lon": 122.892141, "tags": {"admin_level": "10", "admin_type:PH": "barangay", "is_in:town": "Pontevedra", "name": "Intongcan", "nga:ufi": "10740251", "old_ref": "061912013", "place": "village", "population": "1455", "population:2015": "1342", "ref": "0601912013", "source": "Bing;USGS, 2013-10-11;NGA"}}, {"type": "node", "id": 2527037844, "lat": 11.4213852, "lon": 122.9013614, "tags": {"admin_level": "10", "admin_type:PH": "barangay", "is_in:town": "Pontevedra", "is_in:village": "Lantangan", "name": "Lantangan", "nga:ufi": "-2432047", "old_ref": "061912015", "place": "village", "population": "2347", "population:2015": "2279", "ref": "0601912015", "source": "Bing; USGS, 2013-10-11; NGA", "source:name": "extrapolated from way:248896301"}}, {"type": "node", "id": 2527037845, "lat": 11.4712535, "lon": 122.917912, "tags": {"FIXME": "location", "name": "Lanupa", "nga:ufi": "10740221", "place": "hamlet", "source": "Bing; USGS, 2013-10-11; NGA"}}, {"type": "node", "id": 2527037846, "lat": 11.4776, "lon": 122.9167, "tags": {"FIXME": "location", "name": "Looc", "nga:ufi": "10740216", "place": "hamlet", "source": "Bing; USGS, 2013-10-11; NGA"}}, {"type": "node", "id": 2527037848, "lat": 11.4510626, "lon": 122.9140306, "tags": {"name": "Mandulano", "nga:ufi": "10740224", "place": "village", "source": "Bing; USGS, 2013-10-11; NGA"}}, {"type": "node", "id": 2527037849, "lat": 11.441578, "lon": 122.9189449, "tags": {"name": "Marita", "nga:ufi": "10740241", "place": "village", "source": "Bing; USGS, 2013-10-11; NGA"}}, {"type": "node", "id": 2527037850, "lat": 11.4046, "lon": 122.9326, "tags": {"FIXME": "location", "name": "Matnog", "nga:ufi": "10740236", "place": "hamlet", "source": "Bing; USGS, 2013-10-11; NGA"}}, {"type": "node", "id": 2527037851, "lat": 11.4589017, "lon": 122.898396, "tags": {"name": "Manapao", "place": "village"}}, {"type": "node", "id": 2527037852, "lat": 11.4787991, "lon": 122.9998279, "tags": {"name": "Monteflor", "nga:ufi": "-2440317", "place": "village", "source": "Bing; USGS, 2013-10-11; NGA"}}, {"type": "node", "id": 2527037856, "lat": 11.4706, "lon": 122.9255, "tags": {"FIXME": "location", "name": "Naga", "nga:ufi": "10740219", "place": "hamlet", "source": "Bing; USGS, 2013-10-11; NGA"}}, {"type": "node", "id": 2527037858, "lat": 11.4552556, "lon": 122.8818921, "tags": {"name": "Gabuc", "nga:ufi": "-2421691", "not:name": "Oguait", "old_name": "Caugiat", "place": "village", "population": "623", "ref": "061912009", "source": "Bing; USGS, 2013-10-11; NGA", "source:population": "PSA, 2020"}}, {"type": "node", "id": 2527037859, "lat": 11.4450095, "lon": 122.9946175, "tags": {"name": "Olalo", "nga:ufi": "10740226", "place": "village"}}, {"type": "node", "id": 2527037861, "lat": 11.4742, "lon": 122.9164, "tags": {"FIXME": "location", "name": "Pandan", "nga:ufi": "-2444061", "place": "hamlet", "source": "Bing; USGS, 2013-10-11; NGA"}}, {"type": "node", "id": 2527037864, "lat": 11.4373, "lon": 122.9138, "tags": {"FIXME": "location", "name": "Pantalan", "nga:ufi": "10740242", "place": "hamlet", "source": "Bing; USGS, 2013-10-11; NGA"}}, {"type": "node", "id": 2527037866, "lat": 11.4083, "lon": 122.8963, "tags": {"FIXME": "location", "name": "Pardo", "nga:ufi": "-2444920", "place": "hamlet", "source": "Bing; USGS, 2013-10-11; NGA"}}, {"type": "node", "id": 2527037868, "lat": 11.4813126, "lon": 122.9173263, "tags": {"FIXME": "location", "name": "Pinamijagon", "nga:ufi": "-2446026", "place": "hamlet", "source": "Bing; USGS, 2013-10-11; NGA"}}, {"type": "node", "id": 2527037869, "lat": 11.4415273, "lon": 122.9251304, "tags": {"name": "Pondol", "nga:ufi": "10740239", "place": "village", "source": "Bing; USGS, 2013-10-11; NGA"}}, {"type": "node", "id": 2527037870, "lat": 11.4613874, "lon": 122.9158004, "tags": {"name": "Quiajo", "nga:ufi": "10740222", "place": "village", "source": "Bing; USGS, 2013-10-11; NGA"}}, {"type": "node", "id": 2527037871, "lat": 11.4124, "lon": 122.9024, "tags": {"FIXME": "location", "name": "Rosario", "nga:ufi": "-2448153", "place": "hamlet", "source": "Bing; USGS, 2013-10-11; NGA"}}, {"type": "node", "id": 2527037872, "lat": 11.4649, "lon": 122.9764, "tags": {"FIXME": "location", "name": "San Fernando", "nga:ufi": "-2449611", "place": "hamlet", "source": "Bing; USGS, 2013-10-11; NGA"}}, {"type": "node", "id": 2527037873, "lat": 11.4599373, "lon": 122.9249478, "tags": {"name": "Sangcal", "nga:ufi": "10740223", "place": "village", "source": "Bing; USGS, 2013-10-11; NGA"}}, {"type": "node", "id": 2527037874, "lat": 11.4190247, "lon": 122.9516042, "tags": {"name": "Santo Ni\u00f1o", "nga:ufi": "-2452017", "place": "village", "source": "Bing; USGS, 2013-10-11; NGA"}}, {"type": "node", "id": 2527037875, "lat": 11.4095, "lon": 122.9357, "tags": {"FIXME": "location", "name": "Tabao", "nga:ufi": "10740234", "place": "hamlet", "source": "Bing; USGS, 2013-10-11; NGA"}}, {"type": "node", "id": 2527037876, "lat": 11.4711, "lon": 122.9864, "tags": {"FIXME": "location", "name": "Tico", "nga:ufi": "-2457552", "place": "hamlet", "source": "Bing; USGS, 2013-10-11; NGA"}}, {"type": "node", "id": 2527037877, "lat": 11.4627, "lon": 122.9149, "tags": {"FIXME": "location", "name": "Yajo", "nga:ufi": "-2460219", "place": "hamlet", "source": "Bing; USGS, 2013-10-11; NGA"}}, {"type": "node", "id": 2527037878, "lat": 11.4026097, "lon": 122.8776188, "tags": {"name": "Yatingan", "nga:ufi": "-2460247", "place": "village", "source": "Bing; USGS, 2013-10-11; NGA"}}, {"type": "node", "id": 2527110172, "lat": 11.440042, "lon": 123.0541566, "tags": {"name": "Alapasco", "nga:ufi": "-2407612", "place": "hamlet", "source": "Bing; USGS, 2013-10-11; NGA"}}, {"type": "node", "id": 2527110174, "lat": 11.4412104, "lon": 123.0563705, "tags": {"name": "Batuan", "nga:ufi": "-2413271", "place": "village", "source": "Bing;USGS, 2013-10-11;NGA"}}, {"type": "node", "id": 2527110177, "lat": 11.376111, "lon": 123.115556, "tags": {"name": "Madanlog", "nga:ufi": "-2435351", "place": "village", "source": "Bing; USGS, 2013-10-11; NGA"}}, {"type": "node", "id": 2527110179, "lat": 11.4132852, "lon": 123.0027595, "tags": {"name": "Yating", "nga:ufi": "-2460245", "place": "village", "source": "Bing; USGS, 2013-10-11; NGA"}}, {"type": "node", "id": 2527199544, "lat": 11.4686, "lon": 122.8092, "tags": {"name": "Agbabadiang", "nga:ufi": "-2407097", "place": "hamlet", "source": "Bing; USGS, 2013-10-11; NGA"}}, {"type": "node", "id": 2527199546, "lat": 11.4971322, "lon": 122.8202064, "tags": {"name": "Agbalo", "nga:ufi": "-2407112", "place": "hamlet", "source": "Bing; USGS, 2013-10-11; NGA"}}, {"type": "node", "id": 2527199548, "lat": 11.4826605, "lon": 122.804544, "tags": {"FIXME": "location", "name": "Agdalipe", "nga:ufi": "-2407160", "place": "hamlet", "source": "Bing; USGS, 2013-10-11; NGA"}}, {"type": "node", "id": 2527199557, "lat": 11.4569454, "lon": 122.8282707, "tags": {"name": "Bailan", "nga:ufi": "10740259;-2410504", "place": "village", "source": "Bing; USGS, 2013-10-11; NGA"}}, {"type": "node", "id": 2527199560, "lat": 11.4879, "lon": 122.7757, "tags": {"FIXME": "location", "name": "Bajit", "nga:ufi": "-2410487", "place": "hamlet", "source": "Bing; USGS, 2013-10-11; NGA"}}, {"type": "node", "id": 2527199566, "lat": 11.4871, "lon": 122.7914, "tags": {"FIXME": "location", "name": "Binangig", "nga:ufi": "-2414238", "place": "hamlet", "source": "Bing; USGS, 2013-10-11; NGA"}}, {"type": "node", "id": 2527199569, "lat": 11.520833, "lon": 122.911944, "tags": {"FIXME": "location", "name": "Caingin", "nga:ufi": "-2418523", "place": "hamlet", "source": "Bing; USGS, 2013-10-11; NGA"}}, {"type": "node", "id": 2527199577, "lat": 11.4588555, "lon": 122.8158707, "tags": {"name": "Cogon", "nga:ufi": "10740214", "place": "village", "source": "Bing;USGS, 2013-10-11;NGA"}}, {"type": "node", "id": 2527199578, "lat": 11.4641, "lon": 122.803, "tags": {"name": "Cogon", "nga:ufi": "-2422157", "place": "hamlet", "source": "Bing; USGS, 2013-10-11; NGA"}}, {"type": "node", "id": 2527199582, "lat": 11.4661587, "lon": 122.7893159, "tags": {"FIXME": "location", "name": "Conciencia", "nga:ufi": "-2422420", "place": "hamlet", "source": "Bing; USGS, 2013-10-11; NGA"}}, {"type": "node", "id": 2527199584, "lat": 11.4957, "lon": 122.7751, "tags": {"name": "Daga", "nga:ufi": "-2423127", "place": "village", "source": "Bing; USGS, 2013-10-11; NGA"}}, {"type": "node", "id": 2527199588, "lat": 11.492249, "lon": 122.7854247, "tags": {"name": "Linao", "nga:ufi": "-2433243", "place": "village", "source": "Bing; USGS, 2013-10-11; NGA"}}, {"type": "node", "id": 2527199591, "lat": 11.4639516, "lon": 122.8323934, "tags": {"FIXME": "location", "name": "Malagit", "nga:ufi": "-2436292", "place": "hamlet", "source": "Bing; USGS, 2013-10-11; NGA"}}, {"type": "node", "id": 2527199596, "lat": 11.4943, "lon": 122.899, "tags": {"name": "Bantigue", "nga:ufi": "10740215", "place": "village", "source": "Bing; USGS, 2013-10-11; NGA"}}, {"type": "node", "id": 2527199606, "lat": 11.4932629, "lon": 122.7730993, "tags": {"name": "Solocan", "nga:ufi": "-2448813", "place": "village", "source": "Bing;USGS, 2013-10-11;NGA"}}, {"type": "node", "id": 2527199607, "lat": 11.4781511, "lon": 122.8178502, "tags": {"name": "Sublangon", "nga:ufi": "-2454130", "place": "village", "source": "Bing; USGS, 2013-10-11; NGA"}}, {"type": "node", "id": 2527199611, "lat": 11.4973, "lon": 122.8515, "tags": {"FIXME": "location", "name": "Tabuc", "nga:ufi": "-2454771", "place": "hamlet", "source": "Bing; USGS, 2013-10-11; NGA"}}, {"type": "node", "id": 2527199617, "lat": 11.4932, "lon": 122.8275, "tags": {"name": "Tiko", "nga:ufi": "-2457614", "place": "hamlet", "source": "Bing; USGS, 2013-10-11; NGA"}}, {"type": "node", "id": 2527710723, "lat": 11.410106, "lon": 122.8528405, "tags": {"name": "Agbobolo", "nga:ufi": "-2407132", "place": "hamlet", "source": "Bing; USGS, 2013-10-11; NGA"}}, {"type": "node", "id": 2527710732, "lat": 11.3785648, "lon": 122.8150231, "tags": {"name": "Alayonan", "nga:ufi": "-2407638", "place": "village", "source": "Bing; USGS, 2013-10-11; NGA"}}, {"type": "node", "id": 2527710751, "lat": 11.4019121, "lon": 122.8059281, "tags": {"name": "Balighot", "nga:ufi": "-2411138", "place": "hamlet", "source": "Bing; USGS, 2013-10-11; NGA"}}, {"type": "node", "id": 2527710761, "lat": 11.4146341, "lon": 122.8678658, "tags": {"admin_type:PH": "barangay", "is_in:town": "Pontevedra", "name": "Binuntucan", "nga:ufi": "-2414503", "note": "name is not Binantocan", "old_ref": "061912007", "place": "village", "population": "5228", "population:2015": "4737", "ref": "0601912007", "source": "Bing;USGS, 2013-10-11;NGA"}}, {"type": "node", "id": 2527710772, "lat": 11.4469, "lon": 122.8682, "tags": {"name": "Cabugao", "nga:ufi": "10740243", "place": "village", "source": "Bing; USGS, 2013-10-11; NGA"}}, {"type": "node", "id": 2527710781, "lat": 11.4180923, "lon": 122.8510678, "tags": {"name": "EnseNagan", "nga:ufi": "-2425585", "place": "hamlet", "source": "Bing; USGS, 2013-10-11; NGA"}}, {"type": "node", "id": 2527710790, "lat": 11.4204609, "lon": 122.8498098, "tags": {"admin_level": "10", "admin_type:PH": "barangay", "is_in:town": "Pontevedra", "name": "Jolongajog", "nga:ufi": "-2429338", "not:name": "Holongahog", "old_ref": "061912014", "place": "village", "population": "2198", "population:2015": "2056", "ref": "0601912014", "source": "Bing;USGS, 2013-10-11;NGA"}}, {"type": "node", "id": 2527710800, "lat": 11.386, "lon": 122.8887, "tags": {"FIXME": "location", "name": "Lantangan", "nga:ufi": "-2432046", "place": "hamlet", "source": "Bing; USGS, 2013-10-11; NGA"}}, {"type": "node", "id": 2527710814, "lat": 11.4447, "lon": 122.8361, "tags": {"name": "Malaguit", "nga:ufi": "-2436291", "place": "hamlet", "source": "Bing; USGS, 2013-10-11; NGA"}}, {"type": "node", "id": 2527710825, "lat": 11.4362386, "lon": 122.8394385, "tags": {"admin_level": "10", "admin_type:PH": "barangay", "is_in:town": "Pontevedra", "name": "Rizal", "nga:ufi": "10740260", "old_ref": "061912021", "place": "village", "population": "4285", "population:2015": "2478", "ref": "0601912021", "source": "Bing; USGS, 2013-10-11; NGA"}}, {"type": "node", "id": 2527710836, "lat": 11.4454, "lon": 122.8607, "tags": {"name": "Rizal", "nga:ufi": "-2448003", "place": "hamlet", "source": "Bing; USGS, 2013-10-11; NGA"}}, {"type": "node", "id": 2527710847, "lat": 11.4323479, "lon": 122.7949799, "tags": {"name": "Tincupon", "nga:ufi": "-2457854", "place": "hamlet", "source": "Bing; USGS, 2013-10-11; NGA"}}, {"type": "node", "id": 2527710858, "lat": 11.4349, "lon": 122.7907, "tags": {"name": "Tinigban", "nga:ufi": "-2457902", "place": "hamlet", "source": "Bing; USGS, 2013-10-11; NGA"}}, {"type": "node", "id": 2527717464, "lat": 11.4813, "lon": 122.7434, "tags": {"name": "Intampilan", "nga:ufi": "-2428808", "place": "hamlet", "source": "Bing; USGS, 2013-10-11; NGA"}}, {"type": "node", "id": 2528077184, "lat": 11.3953153, "lon": 122.7537791, "tags": {"name": "Ambilay", "nga:ufi": "-2408155", "place": "village", "source": "Bing; USGS, 2013-10-11; NGA"}}, {"type": "node", "id": 2528077220, "lat": 11.4322, "lon": 122.7451, "tags": {"FIXME": "location", "name": "Balucuan", "nga:ufi": "-2410937", "place": "hamlet", "source": "Bing; USGS, 2013-10-11; NGA"}}, {"type": "node", "id": 2528077242, "lat": 11.4436206, "lon": 122.7679469, "tags": {"name": "Bangaan", "place": "village"}}, {"type": "node", "id": 2528077273, "lat": 11.3700747, "lon": 122.75206, "tags": {"admin_level": "10", "designation": "barangay", "is_in:town": "Panitan", "name": "Cabangahan", "place": "village", "source": "Bing;USGS, 2013-10-11;NGA;DepEd", "source:name": "extrapolated from OSMaPaaralan"}}, {"type": "node", "id": 2528077279, "lat": 11.3850498, "lon": 122.7497871, "tags": {"name": "Cabugao", "nga:ufi": "-2417921", "place": "village", "source": "Bing; USGS, 2013-10-11; NGA"}}, {"type": "node", "id": 2528077284, "lat": 11.3477, "lon": 122.7531, "tags": {"FIXME": "location", "name": "Cabuq cabug", "nga:ufi": "-2417966", "place": "hamlet", "source": "Bing; USGS, 2013-10-11; NGA"}}, {"type": "node", "id": 2528077291, "lat": 11.4211237, "lon": 122.7660531, "tags": {"name": "Cadio", "place": "village"}}, {"type": "node", "id": 2528077308, "lat": 11.4379, "lon": 122.7479, "tags": {"FIXME": "location", "name": "Capaga", "nga:ufi": "-2420612", "place": "hamlet", "source": "Bing; USGS, 2013-10-11; NGA"}}, {"type": "node", "id": 2528077322, "lat": 11.3441556, "lon": 122.7421218, "tags": {"admin_level": "10", "designation": "barangay", "is_in:town": "Dao", "name": "Centro", "place": "village"}}, {"type": "node", "id": 2528077384, "lat": 11.3790735, "lon": 122.7624624, "tags": {"name": "Fernandez", "nga:ufi": "-2425792", "place": "village", "source": "Bing; USGS, 2013-10-11; NGA"}}, {"type": "node", "id": 2528077386, "lat": 11.3694, "lon": 122.8363, "tags": {"FIXME": "location", "name": "Guia", "nga:ufi": "-2426882", "place": "hamlet", "source": "Bing; USGS, 2013-10-11; NGA"}}, {"type": "node", "id": 2528077416, "lat": 11.422, "lon": 122.7422, "tags": {"name": "Cala-an", "place": "village"}}, {"type": "node", "id": 2528077501, "lat": 11.3591002, "lon": 122.7654492, "tags": {"name": "Pi\u00f1a", "nga:ufi": "-2445885", "place": "village", "source": "Bing; USGS, 2013-10-11; NGA"}}, {"type": "node", "id": 2528077514, "lat": 11.3748, "lon": 122.7963, "tags": {"FIXME": "location", "name": "Rallano", "nga:ufi": "-2447719", "place": "hamlet", "source": "Bing; USGS, 2013-10-11; NGA"}}, {"type": "node", "id": 2528077521, "lat": 11.3435, "lon": 122.7876, "tags": {"FIXME": "location", "name": "Sal-agan", "nga:ufi": "-2448748", "place": "hamlet", "source": "Bing; USGS, 2013-10-11; NGA"}}, {"type": "node", "id": 2528077647, "lat": 11.3374, "lon": 122.8129, "tags": {"FIXME": "location", "name": "Sinabsaban", "nga:ufi": "-2453347", "place": "hamlet", "source": "Bing; USGS, 2013-10-11; NGA"}}, {"type": "node", "id": 2528077672, "lat": 11.3363, "lon": 122.836, "tags": {"FIXME": "location", "name": "Villa Flores", "nga:ufi": "-2459814", "place": "hamlet", "source": "Bing; USGS, 2013-10-11; NGA"}}, {"type": "node", "id": 2528089161, "lat": 11.3399236, "lon": 122.9201317, "tags": {"name": "Aglimocon", "nga:ufi": "-2407211", "place": "village", "source": "Bing; USGS, 2013-10-11; NGA"}}, {"type": "node", "id": 2528089163, "lat": 11.3744451, "lon": 122.9179406, "tags": {"admin_level": "10", "designation": "barangay", "is_in:town": "Ma-ayon", "is_in:village": "Alasaging", "name": "Alasaging", "place": "village", "source": "Bing;USGS, 2013-10-11;NGA;DepEd"}}, {"type": "node", "id": 2528089167, "lat": 11.3446, "lon": 122.8736, "tags": {"FIXME": "location", "name": "Bungabungan", "nga:ufi": "-2416680", "place": "hamlet", "source": "Bing; USGS, 2013-10-11; NGA"}}, {"type": "node", "id": 2528089171, "lat": 11.3563, "lon": 122.8986, "tags": {"FIXME": "location", "name": "Cabugao", "nga:ufi": "-2417922", "place": "hamlet", "source": "Bing; USGS, 2013-10-11; NGA"}}, {"type": "node", "id": 2528089173, "lat": 11.3435, "lon": 122.9862, "tags": {"FIXME": "location", "name": "Cobadonga", "nga:ufi": "-2422079", "place": "hamlet", "source": "Bing; USGS, 2013-10-11; NGA"}}, {"type": "node", "id": 2528089177, "lat": 11.3575795, "lon": 122.9148603, "tags": {"name": "Duluan", "nga:ufi": "-2425211", "place": "village", "source": "Bing; USGS, 2013-10-11; NGA"}}, {"type": "node", "id": 2528089179, "lat": 11.3568215, "lon": 122.9034651, "tags": {"name": "Manayupit", "nga:ufi": "10740275", "place": "village", "source": "Bing; USGS, 2013-10-11; NGA"}}, {"type": "node", "id": 2528089181, "lat": 11.3709, "lon": 122.9006, "tags": {"FIXME": "location", "name": "Ngalan", "nga:ufi": "-2441869", "place": "hamlet", "source": "Bing; USGS, 2013-10-11; NGA"}}, {"type": "node", "id": 2528089183, "lat": 11.3504691, "lon": 122.9328072, "tags": {"name": "Parallan", "nga:ufi": "-2444833", "place": "village", "source": "Bing; USGS, 2013-10-11; NGA"}}, {"type": "node", "id": 2528089185, "lat": 11.3686577, "lon": 122.8825673, "tags": {"name": "Tuburan", "nga:ufi": "-2458671", "place": "village", "source": "Bing; USGS, 2013-10-11; NGA"}}, {"type": "node", "id": 2528091949, "lat": 11.297222, "lon": 123.103611, "tags": {"FIXME": "location", "alt_name": "Agdaleran", "name": "Agdaliran", "nga:ufi": "-2407161", "place": "village", "source": "Bing; USGS, 2013-10-11; NGA"}}, {"type": "node", "id": 2528091954, "lat": 11.266667, "lon": 123.033333, "tags": {"FIXME": "location", "name": "Asue-Pabriaga", "nga:ufi": "-2409248", "place": "hamlet", "source": "Bing; USGS, 2013-10-11; NGA"}}, {"type": "node", "id": 2528091959, "lat": 11.316667, "lon": 123.033333, "tags": {"FIXME": "location", "name": "Cudonian", "nga:ufi": "-2422779", "place": "hamlet", "source": "Bing; USGS, 2013-10-11; NGA"}}, {"type": "node", "id": 2528091964, "lat": 11.3, "lon": 123.066667, "tags": {"FIXME": "location", "name": "Mamaod", "nga:ufi": "-2437167", "place": "hamlet", "source": "Bing; USGS, 2013-10-11; NGA"}}, {"type": "node", "id": 2528091968, "lat": 11.2836053, "lon": 123.0983365, "tags": {"name": "Pantalan", "nga:ufi": "-2444644", "place": "hamlet", "source": "Bing; USGS, 2013-10-11; NGA"}}, {"type": "node", "id": 2528169895, "lat": 11.4532555, "lon": 122.7511426, "tags": {"name": "Balatucan", "place": "village"}}, {"type": "node", "id": 2528965706, "lat": 11.2993088, "lon": 123.1571683, "tags": {"name": "Isleta", "nga:ufi": "-2440657", "place": "hamlet", "source": "Bing; USGS, 2013-10-11; NGA"}}, {"type": "node", "id": 2528965707, "lat": 11.3015381, "lon": 123.1832447, "tags": {"admin_level": "10", "admin_type:PH": "barangay", "name": "Macatunao", "nga:ufi": "-2435233", "place": "village", "source": "Bing;USGS, 2013-10-11;NGA"}}, {"type": "node", "id": 2528972851, "lat": 11.2179823, "lon": 123.1, "tags": {"name": "Bacjauan Sur", "nga:ufi": "-2409662", "place": "hamlet", "source": "Bing; USGS, 2013-10-11; NGA"}}, {"type": "node", "id": 2528972852, "lat": 11.1724939, "lon": 123.0589743, "tags": {"admin_level": "10", "admin_type:PH": "barangay", "is_in:town": "Concepcion", "name": "Bucana Bunglas", "nga:ufi": "-2414839", "old_ref": "063001007", "place": "village", "population": "361", "population:2015": "343", "ref": "0603001007", "source": "Bing;USGS, 2013-10-11;NGA"}}, {"type": "node", "id": 2528972853, "lat": 11.1987914, "lon": 123.0236072, "tags": {"admin_level": "10", "admin_type:PH": "barangay", "name": "Central", "nga:ufi": "-2421912", "place": "village", "population": "1378", "population:2015": "1883", "ref": "063001008", "source": "Bing;USGS, 2013-10-11;NGA"}}, {"type": "node", "id": 2528972854, "lat": 11.2150044, "lon": 123.019537, "tags": {"name": "Navitasan", "nga:ufi": "-2441741", "place": "hamlet", "source": "Bing; USGS, 2013-10-11; NGA"}}, {"type": "node", "id": 2528972855, "lat": 11.2, "lon": 123.033333, "tags": {"FIXME": "location", "name": "Pinantan", "nga:ufi": "-2446086", "place": "hamlet", "source": "Bing; USGS, 2013-10-11; NGA"}}, {"type": "node", "id": 2528972856, "lat": 11.2263765, "lon": 123.0219789, "tags": {"name": "Zerrudo", "nga:ufi": "-2460377", "place": "hamlet", "source": "Bing; USGS, 2013-10-11; NGA"}}, {"type": "node", "id": 2535705777, "lat": 11.2500594, "lon": 123.0333369, "tags": {"FIXME": "location approximate. check name and location", "name": "Agsinapot", "nga:ufi": "-2407331", "place": "hamlet", "source": "Bing; USGS, 2013-10-11; NGA"}}, {"type": "node", "id": 2535705778, "lat": 11.2499974, "lon": 123.0333264, "tags": {"FIXME": "location approximate. check name and location", "name": "Alauihao", "nga:ufi": "-2407629", "place": "hamlet", "source": "Bing; USGS, 2013-10-11; NGA"}}, {"type": "node", "id": 2535705779, "lat": 11.2500568, "lon": 123.0332685, "tags": {"FIXME": "location approximate. check name and location", "name": "Anoring", "nga:ufi": "-2408712", "place": "hamlet", "source": "Bing; USGS, 2013-10-11; NGA"}}, {"type": "node", "id": 2535705781, "lat": 11.2129596, "lon": 122.8758077, "tags": {"admin_level": "10", "admin_type:PH": "barangay", "is_in:municipality": "Lemery", "name": "Bankal", "official_name": "Barangay Bankal", "place": "village"}}, {"type": "node", "id": 2535705785, "lat": 11.2656494, "lon": 123.0179825, "tags": {"FIXME": "location approximate. check name and location", "name": "Cabangtohan", "nga:ufi": "-2417509", "place": "hamlet", "source": "Bing; USGS, 2013-10-11; NGA"}}, {"type": "node", "id": 2535705792, "lat": 11.301111, "lon": 122.946111, "tags": {"FIXME": "location approximate", "name": "Muyco", "nga:ufi": "-2440561", "place": "hamlet", "source": "Bing; USGS, 2013-10-11; NGA"}}, {"type": "node", "id": 2535705793, "lat": 11.2347053, "lon": 122.9161014, "tags": {"FIXME": "location approximate. check name and location", "name": "Nasapahan", "nga:ufi": "-2441519", "place": "hamlet", "source": "Bing; USGS, 2013-10-11; NGA"}}, {"type": "node", "id": 2535705794, "lat": 11.2674949, "lon": 123.0162295, "tags": {"FIXME": "location approximate. check name and location", "name": "Pacuan", "nga:ufi": "-2442816", "place": "hamlet", "source": "Bing; USGS, 2013-10-11; NGA"}}, {"type": "node", "id": 2535705795, "lat": 11.2681847, "lon": 123.018101, "tags": {"FIXME": "location approximate. check name and location", "name": "Pasig", "nga:ufi": "-2445038", "place": "hamlet", "source": "Bing; USGS, 2013-10-11; NGA"}}, {"type": "node", "id": 2535705798, "lat": 11.2347929, "lon": 122.9176494, "tags": {"FIXME": "location approximate. check name and location", "name": "Singcua", "nga:ufi": "-2453475", "place": "hamlet", "source": "Bing; USGS, 2013-10-11; NGA"}}, {"type": "node", "id": 2535705800, "lat": 11.2665758, "lon": 123.0166, "tags": {"FIXME": "location approximate. check name and location", "name": "Tugas", "nga:ufi": "-2458744", "place": "hamlet", "source": "Bing; USGS, 2013-10-11; NGA"}}, {"type": "node", "id": 2535723232, "lat": 11.2347136, "lon": 122.8671879, "tags": {"name": "Alcantara", "nga:ufi": "-2407671", "place": "hamlet", "source": "Bing; USGS, 2013-10-11; NGA"}}, {"type": "node", "id": 2535723237, "lat": 11.283333, "lon": 122.766667, "tags": {"FIXME": "location approximate", "name": "Lawa-an", "nga:ufi": "-2432483", "place": "hamlet", "source": "Bing; USGS, 2013-10-11; NGA"}}, {"type": "node", "id": 2535723239, "lat": 11.2, "lon": 122.75, "tags": {"FIXME": "location approximate", "name": "Tagobong", "nga:ufi": "-2455320", "place": "hamlet", "source": "Bing; USGS, 2013-10-11; NGA"}}, {"type": "node", "id": 2536625671, "lat": 11.5068845, "lon": 123.0862498}, {"type": "node", "id": 2540059497, "lat": 11.1018347, "lon": 122.8866284, "tags": {"name": "Nueva Invencion", "place": "village"}}, {"type": "node", "id": 2556111698, "lat": 11.4197511, "lon": 122.9153611}, {"type": "node", "id": 2561259069, "lat": 11.1614243, "lon": 123.0047232}, {"type": "node", "id": 2562548582, "lat": 11.1740982, "lon": 122.7613814, "tags": {"is_in:village": "Dalicanan", "name": "Mabangsapa", "place": "hamlet"}}, {"type": "node", "id": 2562548583, "lat": 11.1932776, "lon": 122.7492821, "tags": {"is_in:village": "Dalicanan", "name": "Tinigban", "place": "hamlet"}}, {"type": "node", "id": 2563415789, "lat": 11.4711308, "lon": 122.8636805, "tags": {"name": "Agbanog", "place": "village"}}, {"type": "node", "id": 2563475608, "lat": 11.4329221, "lon": 122.8534962, "tags": {"name": "San Pedro", "place": "village"}}, {"type": "node", "id": 2563515946, "lat": 11.4576462, "lon": 122.8424993, "tags": {"name": "Solo", "place": "village"}}, {"type": "node", "id": 2563901806, "lat": 11.2355121, "lon": 122.8447172}, {"type": "node", "id": 2563901807, "lat": 11.2356185, "lon": 122.8448769}, {"type": "node", "id": 2563901808, "lat": 11.2361464, "lon": 122.8442036}, {"type": "node", "id": 2563901809, "lat": 11.2361725, "lon": 122.8442506}, {"type": "node", "id": 2563901810, "lat": 11.2362227, "lon": 122.8443304}, {"type": "node", "id": 2563948159, "lat": 11.2366418, "lon": 122.8575296}, {"type": "node", "id": 2563948161, "lat": 11.236699, "lon": 122.8573986}, {"type": "node", "id": 2563948163, "lat": 11.2367984, "lon": 122.8576462}, {"type": "node", "id": 2563948164, "lat": 11.2368616, "lon": 122.8573116}, {"type": "node", "id": 2563948170, "lat": 11.2369329, "lon": 122.8577137}, {"type": "node", "id": 2563948172, "lat": 11.2370101, "lon": 122.8573065}, {"type": "node", "id": 2563948177, "lat": 11.2371035, "lon": 122.8573699}, {"type": "node", "id": 2563948178, "lat": 11.2371045, "lon": 122.8574344}, {"type": "node", "id": 2563948179, "lat": 11.2371075, "lon": 122.8576503}, {"type": "node", "id": 2567133519, "lat": 11.3142842, "lon": 122.8786465, "tags": {"name": "Guinbi-alan", "place": "village"}}, {"type": "node", "id": 2567134816, "lat": 11.3069803, "lon": 122.9068003, "tags": {"name": "Quinabonglan", "place": "village"}}, {"type": "node", "id": 2580088310, "lat": 11.3461502, "lon": 122.7590413, "tags": {"name": "Tapulang", "place": "village"}}, {"type": "node", "id": 2624028299, "lat": 11.4344702, "lon": 122.9424647, "tags": {"admin_level": "10", "admin_type:PH": "barangay", "name": "Ibaca", "place": "village"}}, {"type": "node", "id": 2624028300, "lat": 11.4118439, "lon": 122.9880433, "tags": {"name": "Manoling", "place": "village"}}, {"type": "node", "id": 2626497994, "lat": 11.385216, "lon": 122.8250363, "tags": {"name": "Carataya", "place": "village"}}, {"type": "node", "id": 2626497995, "lat": 11.4062241, "lon": 122.7696487, "tags": {"is_in:town": "Ma-ayon", "name": "Palaguian", "place": "village"}}, {"type": "node", "id": 2627203968, "lat": 11.3206157, "lon": 122.8155263, "tags": {"name": "San Antonio", "place": "village"}}, {"type": "node", "id": 2646070243, "lat": 11.3058949, "lon": 123.1508678, "tags": {"admin_level": "10", "name": "Naborot", "place": "hamlet", "place:PH": "barangay", "ref": "063038016"}}, {"type": "node", "id": 2775909969, "lat": 11.3541221, "lon": 123.1283042, "tags": {"name": "Agdaliran", "place": "village"}}, {"type": "node", "id": 2775909973, "lat": 11.4016405, "lon": 123.1437443, "tags": {"name": "Alinsolong", "place": "village"}}, {"type": "node", "id": 2775909975, "lat": 11.4097363, "lon": 123.1377198, "tags": {"name": "Banban", "place": "village"}}, {"type": "node", "id": 2775909976, "lat": 11.3398152, "lon": 123.1212833, "tags": {"name": "Boro\u00f1gon", "place": "village"}}, {"type": "node", "id": 2775909978, "lat": 11.3641851, "lon": 123.1307465, "tags": {"name": "Odiongan", "place": "village"}}, {"type": "node", "id": 2776091930, "lat": 11.430462, "lon": 123.0181118, "tags": {"name": "San Silvestre", "place": "village"}}, {"type": "node", "id": 2803967201, "lat": 11.2250987, "lon": 122.984645, "tags": {"name": "San Luis", "place": "village"}}, {"type": "node", "id": 3059903547, "lat": 11.3735713, "lon": 123.0839414, "tags": {"name": "Batuan", "place": "village"}}, {"type": "node", "id": 3059903548, "lat": 11.3929263, "lon": 123.0825758, "tags": {"name": "Bulak Sur", "place": "village"}}, {"type": "node", "id": 3059903549, "lat": 11.3771684, "lon": 123.1042729, "tags": {"name": "Canas", "place": "village"}}, {"type": "node", "id": 3059903550, "lat": 11.4127608, "lon": 123.0707537, "tags": {"name": "Zaragosa", "place": "village"}}, {"type": "node", "id": 3116616756, "lat": 11.2053514, "lon": 123.1127927, "tags": {"name": "GK Village", "place": "neighbourhood"}}, {"type": "node", "id": 3702016007, "lat": 11.4037611, "lon": 122.9677144, "tags": {"name": "Bayuyan", "place": "village"}}, {"type": "node", "id": 3708596763, "lat": 11.3099656, "lon": 122.9244502, "tags": {"name": "Canapian", "place": "village"}}, {"type": "node", "id": 4646364269, "lat": 11.4675481, "lon": 122.7718288, "tags": {"name": "Poblacion Ilawod", "place": "village"}}, {"type": "node", "id": 4646364270, "lat": 11.4672412, "lon": 122.7779358, "tags": {"name": "Tabuc Norte", "place": "village"}}, {"type": "node", "id": 4646378265, "lat": 11.462354, "lon": 122.7703854, "tags": {"description": "Barangay", "name": "Tabuc Sur", "place": "village"}}, {"type": "node", "id": 4776814389, "lat": 11.4120284, "lon": 123.0242215, "tags": {"name": "Tabun-acan", "place": "village"}}, {"type": "node", "id": 5261436846, "lat": 11.2478052, "lon": 122.8161295, "tags": {"admin_level": "10", "designation": "barangay", "is_in:town": "Dumarao", "name": "Sibariwan", "place": "village"}}, {"type": "node", "id": 5362611020, "lat": 11.0890968, "lon": 122.8269868, "tags": {"name": "Lipata", "place": "village"}}, {"type": "node", "id": 5362614793, "lat": 11.1085936, "lon": 122.825854, "tags": {"name": "Sitio Nagpana", "place": "hamlet"}}, {"type": "node", "id": 5362621947, "lat": 11.0811387, "lon": 122.8396245, "tags": {"name": "San Miguel", "place": "village"}}, {"type": "node", "id": 5362634905, "lat": 11.087246, "lon": 122.7884152, "tags": {"name": "Ugasan", "place": "village"}}, {"type": "node", "id": 5421530170, "lat": 11.107938, "lon": 122.7415661, "tags": {"name": "Mapili", "place": "village"}}, {"type": "node", "id": 5421530171, "lat": 11.1298752, "lon": 122.7733805, "tags": {"name": "San Antonio", "place": "village"}}, {"type": "node", "id": 5446913600, "lat": 11.0780706, "lon": 122.8213717, "tags": {"name": "De la Pe\u00f1a", "place": "village"}}, {"type": "node", "id": 5446915160, "lat": 11.0940185, "lon": 122.7620711, "tags": {"name": "Managopaya", "place": "village"}}, {"type": "node", "id": 5446915161, "lat": 11.0792407, "lon": 122.7777066, "tags": {"name": "Juanico", "place": "village"}}, {"type": "node", "id": 5446931133, "lat": 11.093428, "lon": 122.8459618, "tags": {"name": "San Geronimo", "place": "village"}}, {"type": "node", "id": 5446931134, "lat": 11.1072198, "lon": 122.8564332, "tags": {"name": "Rizal", "place": "village"}}, {"type": "node", "id": 5446931141, "lat": 11.1325293, "lon": 122.8435763, "tags": {"name": "Aripdip", "place": "village"}}, {"type": "node", "id": 5446944576, "lat": 11.080368, "lon": 122.939916, "tags": {"name": "Luca", "place": "village"}}, {"type": "node", "id": 5446944578, "lat": 11.0816028, "lon": 122.9642341, "tags": {"admin_level": "10", "admin_type:PH": "barangay", "is_in:municipality": "Ajuy", "name": "Santo Rosario", "place": "village", "short_name": "Sto. Rosario"}}, {"type": "node", "id": 5446944579, "lat": 11.0845972, "lon": 122.9917176, "tags": {"name": "Barrido", "place": "village"}}, {"type": "node", "id": 5446944580, "lat": 11.1013015, "lon": 123.0083835, "tags": {"admin_level": "10", "admin_type:PH": "barangay", "is_in:district": "Malayu-an", "is_in:town": "Ajuy", "name": "Malayu-an", "place": "village", "population": "2631", "population:2015": "3335", "ref": "063001012"}}, {"type": "node", "id": 5446944581, "lat": 11.1208042, "lon": 123.0083038, "tags": {"name": "Pili", "place": "village"}}, {"type": "node", "id": 5447669697, "lat": 11.1244739, "lon": 122.7415759, "tags": {"name": "Catan-Agan", "place": "village"}}, {"type": "node", "id": 5447669699, "lat": 11.1544685, "lon": 122.7590706, "tags": {"name": "Iprog", "place": "village"}}, {"type": "node", "id": 5447669700, "lat": 11.1507048, "lon": 122.7722024, "tags": {"name": "Madarag", "place": "village"}}, {"type": "node", "id": 5447669701, "lat": 11.1698403, "lon": 122.8025392, "tags": {"admin_level": "10", "admin_type:PH": "barangay", "is_in:town": "San Rafael", "name": "San Andres", "place": "village"}}, {"type": "node", "id": 5447669702, "lat": 11.1331784, "lon": 122.7887694, "tags": {"name": "San Florentino", "place": "village"}}, {"type": "node", "id": 5447669703, "lat": 11.13987, "lon": 122.8230315, "tags": {"name": "Ilongbukid", "place": "village"}}, {"type": "node", "id": 5447669704, "lat": 11.1588515, "lon": 122.8461659, "tags": {"name": "Poscolon", "place": "village"}}, {"type": "node", "id": 5447669705, "lat": 11.1820968, "lon": 122.8429816, "tags": {"name": "Calalgang", "place": "village"}}, {"type": "node", "id": 5447669706, "lat": 11.1562272, "lon": 122.8655117, "tags": {"name": "San Dionisio", "place": "village"}}, {"type": "node", "id": 5447669707, "lat": 11.187536, "lon": 122.8694679, "tags": {"name": "Omio", "place": "village"}}, {"type": "node", "id": 5447669708, "lat": 11.1970947, "lon": 122.8843802, "tags": {"admin_level": "10", "admin_type:PH": "barangay", "name": "Gerongan", "place": "village", "population": "1016", "population:2015": "960", "ref": "063027011"}}, {"type": "node", "id": 5447669710, "lat": 11.2241573, "lon": 122.8690112, "tags": {"name": "San Antonio", "place": "village"}}, {"type": "node", "id": 5447669711, "lat": 11.2398519, "lon": 122.8871054, "tags": {"name": "San Diego", "place": "village"}}, {"type": "node", "id": 5447669712, "lat": 11.2527949, "lon": 122.8888113, "tags": {"name": "Marapal", "place": "village"}}, {"type": "node", "id": 5447669713, "lat": 11.2794433, "lon": 122.8817196, "tags": {"name": "Layogbato", "place": "village"}}, {"type": "node", "id": 5447669714, "lat": 11.2771652, "lon": 122.8990617, "tags": {"name": "Yawyawan", "place": "village"}}, {"type": "node", "id": 5447669715, "lat": 11.2689546, "lon": 122.9145421, "tags": {"name": "Agpipili", "place": "village"}}, {"type": "node", "id": 5447669716, "lat": 11.1182902, "lon": 122.9065668, "tags": {"name": "Del Pilar", "place": "village"}}, {"type": "node", "id": 5447669717, "lat": 11.143395, "lon": 122.9072895, "tags": {"name": "General Luna", "place": "village"}}, {"type": "node", "id": 5447669718, "lat": 11.1779435, "lon": 122.8999419, "tags": {"name": "Nasapahan", "place": "village"}}, {"type": "node", "id": 5447669719, "lat": 11.1628134, "lon": 122.9238164, "tags": {"name": "San Jose Moto", "place": "village"}}, {"type": "node", "id": 5447669720, "lat": 11.1876351, "lon": 122.9201741, "tags": {"name": "Dalipe", "place": "village"}}, {"type": "node", "id": 5447674221, "lat": 11.2052702, "lon": 122.9060377, "tags": {"admin_level": "10", "admin_type:PH": "barangay", "name": "Anabo", "place": "village", "population": "1548", "population:2015": "1405", "ref": "063027004"}}, {"type": "node", "id": 5447674222, "lat": 11.2134658, "lon": 122.9096264, "tags": {"name": "Imbaulan", "place": "village"}}, {"type": "node", "id": 5447674223, "lat": 11.2286594, "lon": 122.9112745, "tags": {"name": "Capi\u00f1ahan", "place": "village"}}, {"type": "node", "id": 5447872620, "lat": 11.497114, "lon": 123.081495, "tags": {"name": "Nalumsan", "place": "village"}}, {"type": "node", "id": 5447873121, "lat": 11.5087208, "lon": 123.0836408, "tags": {"name": "Bolo", "place": "village"}}, {"type": "node", "id": 5447873122, "lat": 11.5058466, "lon": 123.1016041, "tags": {"name": "Tupaz", "place": "village"}}, {"type": "node", "id": 5447955900, "lat": 11.4865274, "lon": 123.0885654, "tags": {"name": "Balanti-an", "place": "village"}}, {"type": "node", "id": 5447955901, "lat": 11.4825482, "lon": 123.0720921, "tags": {"name": "Kinalkalan", "place": "village"}}, {"type": "node", "id": 5447955902, "lat": 11.4868684, "lon": 123.0984869, "tags": {"name": "Mamhut Norte", "place": "village"}}, {"type": "node", "id": 5447955903, "lat": 11.4810471, "lon": 123.1158219, "tags": {"name": "Lawis", "place": "village"}}, {"type": "node", "id": 5447955904, "lat": 11.4787542, "lon": 123.0908896, "tags": {"name": "Mamhut Sur", "place": "village"}}, {"type": "node", "id": 5447955905, "lat": 11.4736863, "lon": 123.086169, "tags": {"name": "Poblacion Norte", "place": "village"}}, {"type": "node", "id": 5447955906, "lat": 11.4743857, "lon": 123.0729833, "tags": {"name": "Camambugan", "place": "village"}}, {"type": "node", "id": 5447955908, "lat": 11.5227129, "lon": 123.1743933, "tags": {"name": "Binuluangan", "place": "village"}}, {"type": "node", "id": 5447955909, "lat": 11.4999657, "lon": 123.1653235, "tags": {"admin_level": "10", "admin_type:PH": "barangay", "is_in:town": "Carles", "name": "Pantalan", "place": "village", "population": "2500", "population:2015": "2465", "ref": "063014027"}}, {"type": "node", "id": 5447955914, "lat": 11.4876382, "lon": 123.1890363, "tags": {"name": "Manlot", "place": "village"}}, {"type": "node", "id": 5463264214, "lat": 11.4638481, "lon": 123.0690176, "tags": {"name": "Aranjuez", "place": "village"}}, {"type": "node", "id": 5463264215, "lat": 11.465236, "lon": 123.0945523, "tags": {"admin_level": "10", "admin_type:PH": "barangay", "name": "Maya", "place": "village"}}, {"type": "node", "id": 5463264216, "lat": 11.4655725, "lon": 123.1022126, "tags": {"name": "Ipil", "place": "village"}}, {"type": "node", "id": 5463264217, "lat": 11.4620185, "lon": 123.1081993, "tags": {"name": "Pani-an", "place": "village"}}, {"type": "node", "id": 5463264218, "lat": 11.4654884, "lon": 123.1182415, "tags": {"name": "Villa Pani-an", "place": "village"}}, {"type": "node", "id": 5463264219, "lat": 11.4593898, "lon": 123.1195075, "tags": {"admin_level": "10", "admin_type:PH": "barangay", "name": "Tabu-an", "place": "village"}}, {"type": "node", "id": 5463264220, "lat": 11.4651819, "lon": 123.1251337, "tags": {"name": "Cano-an", "place": "village"}}, {"type": "node", "id": 5463265821, "lat": 11.4685676, "lon": 123.1357338, "tags": {"name": "Bayuyan", "place": "village"}}, {"type": "node", "id": 5463265822, "lat": 11.4773577, "lon": 123.1407764, "tags": {"name": "San Roque", "place": "village"}}, {"type": "node", "id": 5463265823, "lat": 11.480491, "lon": 123.1497457, "tags": {"name": "Gogo", "place": "village"}}, {"type": "node", "id": 5463265824, "lat": 11.4718375, "lon": 123.158302, "tags": {"name": "Daculan", "place": "village"}}, {"type": "node", "id": 5463265826, "lat": 11.4685107, "lon": 123.1448122, "tags": {"name": "Tacbuyan", "place": "village"}}, {"type": "node", "id": 5463265827, "lat": 11.4612243, "lon": 123.1509423, "tags": {"name": "Bulaque\u00f1a", "place": "village"}}, {"type": "node", "id": 5463265829, "lat": 11.4552521, "lon": 123.1497673, "tags": {"is_in:town": "Estancia", "name": "Poblacion \u2161", "place": "village"}}, {"type": "node", "id": 5463265831, "lat": 11.446142, "lon": 123.1483867, "tags": {"name": "Botongon", "place": "village"}}, {"type": "node", "id": 5463265832, "lat": 11.4490897, "lon": 123.1405972, "tags": {"name": "Daan Banwa", "place": "village"}}, {"type": "node", "id": 5463265833, "lat": 11.4372602, "lon": 123.1369154, "tags": {"name": "Tanza", "place": "village"}}, {"type": "node", "id": 5463265834, "lat": 11.427922, "lon": 123.1352203, "tags": {"name": "Jolog", "place": "village"}}, {"type": "node", "id": 5463265835, "lat": 11.4438009, "lon": 123.120334, "tags": {"admin_level": "10", "admin_type:PH": "barangay", "is_in:municipality": "Estancia", "name": "Lumbia", "old_name": "Ana Cuenca", "place": "village"}}, {"type": "node", "id": 5463265836, "lat": 11.4387609, "lon": 123.1039793, "tags": {"name": "Sta. Ana", "place": "village"}}, {"type": "node", "id": 5463265837, "lat": 11.4469631, "lon": 123.1083567, "tags": {"name": "Malbog", "place": "village"}}, {"type": "node", "id": 5463265838, "lat": 11.4512602, "lon": 123.0965472, "tags": {"name": "Tingui-an", "place": "village"}}, {"type": "node", "id": 5463275329, "lat": 11.4499369, "lon": 123.055666, "tags": {"admin_level": "10", "admin_type:PH": "barangay", "name": "Salong", "old_ref": "063005020", "place": "village", "population": "1208", "ref": "0603005020", "source:population": "Philippine Statistics Authority"}}, {"type": "node", "id": 5463275330, "lat": 11.4335525, "lon": 123.0523635, "tags": {"name": "Batu-an", "place": "village"}}, {"type": "node", "id": 5463275331, "lat": 11.4510597, "lon": 123.0693175, "tags": {"name": "Bacolod", "place": "village"}}, {"type": "node", "id": 5463275332, "lat": 11.4539199, "lon": 123.0768706, "tags": {"name": "Malapoc", "place": "village"}}, {"type": "node", "id": 5463275333, "lat": 11.4583152, "lon": 123.0832006, "tags": {"name": "Dolores", "place": "village"}}, {"type": "node", "id": 5463275334, "lat": 11.4410725, "lon": 123.0713511, "tags": {"name": "Cabalic", "place": "village"}}, {"type": "node", "id": 5463275335, "lat": 11.426426, "lon": 123.0666752, "tags": {"name": "Salvacion", "place": "village"}}, {"type": "node", "id": 5463275336, "lat": 11.4200175, "lon": 123.0660401, "tags": {"name": "Gimamanay", "place": "village"}}, {"type": "node", "id": 5463275337, "lat": 11.4391219, "lon": 123.0866104, "tags": {"name": "Quiasan", "place": "village"}}, {"type": "node", "id": 5463275338, "lat": 11.4265251, "lon": 123.0848358, "tags": {"name": "Quiasan Florete", "place": "village"}}, {"type": "node", "id": 5463275339, "lat": 11.4309194, "lon": 123.0943626, "tags": {"name": "Malico", "place": "village"}}, {"type": "node", "id": 5479318707, "lat": 11.4007334, "lon": 123.0618554, "tags": {"name": "Nangka", "place": "village"}}, {"type": "node", "id": 5479318708, "lat": 11.4040048, "lon": 123.0808246, "tags": {"name": "Bulak Norte", "place": "village"}}, {"type": "node", "id": 5479318709, "lat": 11.3979657, "lon": 123.0915653, "tags": {"name": "Pasayan", "place": "village"}}, {"type": "node", "id": 5479318710, "lat": 11.3895908, "lon": 123.1065609, "tags": {"name": "Caw-i", "place": "village"}}, {"type": "node", "id": 5479318711, "lat": 11.3881387, "lon": 123.1286089, "tags": {"name": "Tapi-an", "place": "village"}}, {"type": "node", "id": 5479318712, "lat": 11.3834898, "lon": 123.1416337, "tags": {"name": "Tanao", "place": "village"}}, {"type": "node", "id": 5479318713, "lat": 11.3992099, "lon": 123.1112839, "tags": {"name": "Cabagohan", "place": "village"}}, {"type": "node", "id": 5479318714, "lat": 11.4087655, "lon": 123.1238927, "tags": {"name": "Salong", "place": "village"}}, {"type": "node", "id": 5479318715, "lat": 11.4232973, "lon": 123.1184537, "tags": {"name": "Embarcadero", "place": "village"}}, {"type": "node", "id": 5479318716, "lat": 11.411306, "lon": 123.1138599, "tags": {"name": "Hamod", "place": "village"}}, {"type": "node", "id": 5479318717, "lat": 11.4169167, "lon": 123.1107888, "tags": {"admin_level": "10", "admin_type:PH": "barangay", "is_in:town": "Batad", "name": "Poblacion", "old_ref": "063009019", "place": "neighbourhood", "place:PH": "barangay", "population": "1728", "population:2015": "1849", "ref": "0603009019", "source:population": "Philippine Statistics Authority"}}, {"type": "node", "id": 5479318718, "lat": 11.4186101, "lon": 123.1013528, "tags": {"name": "Bolhog", "place": "village"}}, {"type": "node", "id": 5479318719, "lat": 11.4246229, "lon": 123.1091205, "tags": {"admin_level": "10", "admin_type:PH": "barangay", "name": "Batad Viejo", "old_ref": "063009004", "place": "village", "population": "1189", "population:2015": "1069", "ref": "0603009004", "source:population": "Philippine Statistics Authority"}}, {"type": "node", "id": 5479318720, "lat": 11.4225049, "lon": 123.0943723, "tags": {"name": "Drancalan", "place": "village"}}, {"type": "node", "id": 5479318721, "lat": 11.415556, "lon": 123.0864136, "tags": {"name": "Quiazazn lopez", "place": "village"}}, {"type": "node", "id": 5481989904, "lat": 11.4096485, "lon": 123.101081, "tags": {"name": "Cala\u00f1gag", "place": "village"}}, {"type": "node", "id": 5487606221, "lat": 11.3847323, "lon": 123.079526, "tags": {"name": "Amayong", "place": "village"}}, {"type": "node", "id": 5487606222, "lat": 11.3654486, "lon": 123.1020329, "tags": {"name": "Tamangi", "place": "village"}}, {"type": "node", "id": 5487606223, "lat": 11.367612, "lon": 123.0193765, "tags": {"name": "Tady", "place": "village"}}, {"type": "node", "id": 5487606224, "lat": 11.3721974, "lon": 123.0477815, "tags": {"name": "Talo-ato", "place": "village"}}, {"type": "node", "id": 5487606225, "lat": 11.3550212, "lon": 123.0671673, "tags": {"name": "Mandu-awak", "place": "village"}}, {"type": "node", "id": 5487606226, "lat": 11.3435196, "lon": 123.0945895, "tags": {"name": "Cubay", "place": "village"}}, {"type": "node", "id": 5487606227, "lat": 11.330717, "lon": 123.0861275, "tags": {"name": "Hacienda Conchita", "place": "village"}}, {"type": "node", "id": 5487606228, "lat": 11.3170184, "lon": 123.0788079, "tags": {"admin_level": "10", "admin_type:PH": "barangay", "is_in:town": "San Dionisio", "name": "Cudionan", "not:name": "Cudionan", "old_ref": "063038010", "place": "village", "population": "1658", "population:2015": "1671", "ref": "0603038010", "source:name": "extrapolated from way:1040803874"}}, {"type": "node", "id": 5487606229, "lat": 11.3050166, "lon": 123.0777161, "tags": {"name": "San Nicolas", "place": "village"}}, {"type": "node", "id": 5487606230, "lat": 11.3132146, "lon": 123.0975608, "tags": {"name": "Suha", "place": "village"}}, {"type": "node", "id": 5487606231, "lat": 11.3015022, "lon": 123.0627795, "tags": {"name": "Tuble", "place": "village"}}, {"type": "node", "id": 5487606232, "lat": 11.295358, "lon": 123.0746242, "tags": {"name": "Capinang", "place": "village"}}, {"type": "node", "id": 5487606233, "lat": 11.2828377, "lon": 123.0865761, "tags": {"name": "Pase", "place": "village"}}, {"type": "node", "id": 5487606234, "lat": 11.3258842, "lon": 123.0478928, "tags": {"name": "Pangi", "place": "village"}}, {"type": "node", "id": 5487606235, "lat": 11.2850223, "lon": 123.0528796, "tags": {"name": "Dugman", "place": "village"}}, {"type": "node", "id": 5487606236, "lat": 11.26552, "lon": 123.0587722, "tags": {"name": "Moto", "place": "village"}}, {"type": "node", "id": 5487606237, "lat": 11.2723459, "lon": 123.0637483, "tags": {"name": "Santol", "place": "village"}}, {"type": "node", "id": 5487606238, "lat": 11.2682791, "lon": 123.0754406, "tags": {"name": "Bondulan", "place": "village"}}, {"type": "node", "id": 5487606239, "lat": 11.2436269, "lon": 123.0924797, "tags": {"admin_level": "10", "admin_type:PH": "barangay", "name": "Nipa", "old_ref": "063038017", "place": "village", "population": "527", "population:2015": "525", "ref": "0603038017"}}, {"type": "node", "id": 5489960837, "lat": 11.1714833, "lon": 123.1231784, "tags": {"name": "Nipa", "place": "village"}}, {"type": "node", "id": 5489960838, "lat": 11.1756896, "lon": 123.0868417, "tags": {"name": "Plandico", "place": "village"}}, {"type": "node", "id": 5489960839, "lat": 11.1859684, "lon": 123.070341, "tags": {"name": "Tamis-ac", "place": "village"}}, {"type": "node", "id": 5489960840, "lat": 11.1814847, "lon": 123.0768856, "tags": {"name": "Ni\u00f1o", "place": "village"}}, {"type": "node", "id": 5489960841, "lat": 11.1979549, "lon": 123.0862024, "tags": {"admin_level": "10", "admin_type:PH": "barangay", "is_in:town": "Concepcion", "name": "Macalbang", "place": "village"}}, {"type": "node", "id": 5489960842, "lat": 11.197138, "lon": 123.1052382, "tags": {"admin_level": "10", "admin_type:PH": "barangay", "is_in:town": "Concepcion", "name": "Lo-ong", "place": "village"}}, {"type": "node", "id": 5489960843, "lat": 11.2111693, "lon": 123.0774707, "tags": {"admin_level": "10", "admin_type:PH": "barangay", "is_in:town": "Concepcion", "name": "Batiti", "place": "village"}}, {"type": "node", "id": 5489960844, "lat": 11.2090628, "lon": 123.0541983, "tags": {"name": "Agnaga", "place": "village"}}, {"type": "node", "id": 5489960845, "lat": 11.224365, "lon": 123.0627971, "tags": {"admin_level": "10", "admin_type:PH": "barangay", "name": "Calamigan", "place": "village"}}, {"type": "node", "id": 5489960846, "lat": 11.2216389, "lon": 123.0737, "tags": {"admin_level": "10", "admin_type:PH": "barangay", "name": "Jamul -Awon", "place": "village"}}, {"type": "node", "id": 5489960847, "lat": 11.2179544, "lon": 123.0881347, "tags": {"name": "Bacjawan Sur", "place": "village"}}, {"type": "node", "id": 5489960848, "lat": 11.2318797, "lon": 123.0878358, "tags": {"name": "Bacjawan Norte", "place": "village"}}, {"type": "node", "id": 5489960849, "lat": 11.2435463, "lon": 123.0732182, "tags": {"name": "Aglosong", "place": "village"}}, {"type": "node", "id": 5489960850, "lat": 11.2510238, "lon": 123.0520354, "tags": {"admin_level": "10", "admin_type:PH": "barangay", "name": "Crespo", "place": "village"}}, {"type": "node", "id": 5489995089, "lat": 11.1446186, "lon": 123.0083332, "tags": {"name": "Mangorocoro", "place": "village"}}, {"type": "node", "id": 5489995090, "lat": 11.1503301, "lon": 122.9983386, "tags": {"admin_level": "10", "admin_type:PH": "barangay", "is_in:town": "Ajuy", "name": "Progreso", "place": "village"}}, {"type": "node", "id": 5489995091, "lat": 11.1613025, "lon": 122.9632694, "tags": {"name": "Badiangan", "place": "village"}}, {"type": "node", "id": 5489995092, "lat": 11.1585882, "lon": 123.0106258, "tags": {"admin_level": "10", "admin_type:PH": "barangay", "name": "San Antonio", "place": "village", "population": "3151", "population:2015": "2608", "ref": "063001027"}}, {"type": "node", "id": 5489995093, "lat": 11.1572782, "lon": 123.0181863, "tags": {"name": "Bato Biasong", "place": "village"}}, {"type": "node", "id": 5489995094, "lat": 11.1946243, "lon": 122.971501, "tags": {"name": "Agbobolo", "place": "village"}}, {"type": "node", "id": 5489995095, "lat": 11.209913, "lon": 122.9911296, "tags": {"name": "Tubogan", "place": "village"}}, {"type": "node", "id": 5489995096, "lat": 11.2150008, "lon": 123.0029344, "tags": {"name": "Tanduan", "place": "village"}}, {"type": "node", "id": 5489995097, "lat": 11.2121979, "lon": 123.0091613, "tags": {"name": "Adcadarao", "place": "village"}}, {"type": "node", "id": 5489995098, "lat": 11.2178996, "lon": 123.0288157, "tags": {"name": "Pinay Espinosa", "place": "village"}}, {"type": "node", "id": 5489995099, "lat": 11.213669, "lon": 123.0253396, "tags": {"name": "Pinantan Diel", "place": "village"}}, {"type": "node", "id": 5489995100, "lat": 11.2052496, "lon": 123.037549, "tags": {"name": "Pinantan Elizalde", "place": "village"}}, {"type": "node", "id": 5489995101, "lat": 11.195327, "lon": 123.0106738, "tags": {"name": "Tipacia", "place": "village"}}, {"type": "node", "id": 5489995102, "lat": 11.1932642, "lon": 123.0252076, "tags": {"name": "Central", "place": "village"}}, {"type": "node", "id": 5489995103, "lat": 11.1870608, "lon": 123.0358461, "tags": {"name": "Lanjagan", "place": "village"}}, {"type": "node", "id": 5489995104, "lat": 11.1668811, "lon": 123.0265867, "tags": {"name": "Pantalan Nabaye", "place": "village"}}, {"type": "node", "id": 5489995105, "lat": 11.1758732, "lon": 123.0549277, "tags": {"admin_level": "10", "admin_type:PH": "barangay", "is_in:town": "Ajuy", "name": "Rojas", "old_ref": "063001026", "place": "village", "population": "494", "population:2015": "486", "ref": "0603001026"}}, {"type": "node", "id": 5489995106, "lat": 11.1837303, "lon": 123.0537125, "tags": {"name": "Pantalan Navarro", "place": "village"}}, {"type": "node", "id": 5489995107, "lat": 11.1559164, "lon": 123.0801889, "tags": {"admin_level": "10", "admin_type:PH": "barangay", "is_in:town": "Ajuy", "name": "Silagon", "old_ref": "063001028", "place": "village", "population": "955", "population:2015": "912", "ref": "0603001028"}}, {"type": "node", "id": 5558071790, "lat": 11.5110439, "lon": 122.7721485, "tags": {"name": "Villa Bago Grande", "place": "neighbourhood"}}, {"type": "node", "id": 5589539147, "lat": 11.2380534, "lon": 123.089614}, {"type": "node", "id": 5589539148, "lat": 11.2377711, "lon": 123.0900232}, {"type": "node", "id": 5589539149, "lat": 11.2376457, "lon": 123.0903941}, {"type": "node", "id": 5589539150, "lat": 11.2376582, "lon": 123.0906243}, {"type": "node", "id": 5589539151, "lat": 11.2378213, "lon": 123.0908481}, {"type": "node", "id": 5589539152, "lat": 11.238022, "lon": 123.0910783}, {"type": "node", "id": 5589539153, "lat": 11.2379969, "lon": 123.0912126}, {"type": "node", "id": 5589539154, "lat": 11.2373572, "lon": 123.0917497}, {"type": "node", "id": 5589539155, "lat": 11.2369056, "lon": 123.0921334}, {"type": "node", "id": 5589539156, "lat": 11.2363223, "lon": 123.0922741}, {"type": "node", "id": 5589539157, "lat": 11.2353502, "lon": 123.0924083}, {"type": "node", "id": 5589539158, "lat": 11.2339767, "lon": 123.0919991}, {"type": "node", "id": 5589539159, "lat": 11.234077, "lon": 123.0915195}, {"type": "node", "id": 5589539160, "lat": 11.2347523, "lon": 123.0912983}, {"type": "node", "id": 5589539161, "lat": 11.2346199, "lon": 123.0900381}, {"type": "node", "id": 5589539162, "lat": 11.2343028, "lon": 123.0896111}, {"type": "node", "id": 5589539163, "lat": 11.2344094, "lon": 123.0894298}, {"type": "node", "id": 5589539164, "lat": 11.2346917, "lon": 123.0897739}, {"type": "node", "id": 5589539165, "lat": 11.2348547, "lon": 123.0903174}, {"type": "node", "id": 5589539166, "lat": 11.2353, "lon": 123.090701}, {"type": "node", "id": 5589539167, "lat": 11.2356011, "lon": 123.0908609}, {"type": "node", "id": 5589539168, "lat": 11.2359711, "lon": 123.0909696}, {"type": "node", "id": 5589539169, "lat": 11.2362659, "lon": 123.0910016}, {"type": "node", "id": 5589539170, "lat": 11.2366359, "lon": 123.0908289}, {"type": "node", "id": 5589539171, "lat": 11.2369119, "lon": 123.0903813}, {"type": "node", "id": 5589539172, "lat": 11.2372255, "lon": 123.0901703}, {"type": "node", "id": 5589539173, "lat": 11.2374262, "lon": 123.089857}, {"type": "node", "id": 5589539174, "lat": 11.2376018, "lon": 123.0896012}, {"type": "node", "id": 5589539175, "lat": 11.2377586, "lon": 123.0893326}, {"type": "node", "id": 5589539351, "lat": 11.2346552, "lon": 123.0897713}, {"type": "node", "id": 5627974322, "lat": 11.2433004, "lon": 122.7948449, "tags": {"admin_level": "10", "designation": "barangay", "name": "Dacuton", "place": "village", "postal_code": "5812"}}, {"type": "node", "id": 5688694779, "lat": 11.4867936, "lon": 122.7420578, "tags": {"name": "Angel Ville Subdivision", "place": "neighbourhood"}}, {"type": "node", "id": 5691962126, "lat": 11.4145768, "lon": 122.7540206, "tags": {"name": "Pasugue", "place": "village"}}, {"type": "node", "id": 5692470474, "lat": 11.48973, "lon": 122.74677, "tags": {"name": "NHA Housing Project", "place": "neighbourhood"}}, {"type": "node", "id": 5756812714, "lat": 11.4855648, "lon": 122.8159939, "tags": {"name": "Guba", "place": "village"}}, {"type": "node", "id": 5898454467, "lat": 11.4129591, "lon": 123.1138731}, {"type": "node", "id": 5898454468, "lat": 11.4136386, "lon": 123.114138}, {"type": "node", "id": 5898454469, "lat": 11.4136539, "lon": 123.1145352}, {"type": "node", "id": 5898454470, "lat": 11.4136692, "lon": 123.1148234}, {"type": "node", "id": 5898454471, "lat": 11.4133943, "lon": 123.1150571}, {"type": "node", "id": 5898454472, "lat": 11.4132569, "lon": 123.1152986}, {"type": "node", "id": 5898454473, "lat": 11.413066, "lon": 123.1154388}, {"type": "node", "id": 5898454474, "lat": 11.4127682, "lon": 123.115431}, {"type": "node", "id": 5898454475, "lat": 11.4125544, "lon": 123.1155244}, {"type": "node", "id": 5898454476, "lat": 11.4123559, "lon": 123.1157036}, {"type": "node", "id": 5898454477, "lat": 11.4121345, "lon": 123.1162255}, {"type": "node", "id": 5898454478, "lat": 11.4119818, "lon": 123.1164046}, {"type": "node", "id": 5898454479, "lat": 11.4116611, "lon": 123.1165137}, {"type": "node", "id": 5898454480, "lat": 11.4114703, "lon": 123.1166617}, {"type": "node", "id": 5898454481, "lat": 11.4113863, "lon": 123.1170044}, {"type": "node", "id": 5898454482, "lat": 11.4111954, "lon": 123.117277}, {"type": "node", "id": 5898454483, "lat": 11.4109892, "lon": 123.1173549}, {"type": "node", "id": 5898454484, "lat": 11.4107755, "lon": 123.1171368}, {"type": "node", "id": 5898459585, "lat": 11.4107296, "lon": 123.1168408}, {"type": "node", "id": 5898459586, "lat": 11.4106991, "lon": 123.114839}, {"type": "node", "id": 5898459587, "lat": 11.4108442, "lon": 123.1148156}, {"type": "node", "id": 5898459588, "lat": 11.41089, "lon": 123.1146365}, {"type": "node", "id": 5898459589, "lat": 11.4122414, "lon": 123.114099}, {"type": "node", "id": 5898459590, "lat": 11.4135546, "lon": 123.1150181}, {"type": "node", "id": 5898459591, "lat": 11.4135126, "lon": 123.1139316}, {"type": "node", "id": 5898459592, "lat": 11.4133199, "lon": 123.1138673}, {"type": "node", "id": 5965367797, "lat": 11.161167, "lon": 123.005784}, {"type": "node", "id": 5965367798, "lat": 11.1618726, "lon": 123.0045247}, {"type": "node", "id": 5965367799, "lat": 11.1624046, "lon": 123.0046726}, {"type": "node", "id": 5965367800, "lat": 11.1627674, "lon": 123.0049314}, {"type": "node", "id": 5965367801, "lat": 11.1630092, "lon": 123.0057078}, {"type": "node", "id": 5965367802, "lat": 11.1631361, "lon": 123.006589}, {"type": "node", "id": 5965367803, "lat": 11.1631543, "lon": 123.0068539}, {"type": "node", "id": 5965367804, "lat": 11.1627401, "lon": 123.0072627}, {"type": "node", "id": 5965367805, "lat": 11.1626324, "lon": 123.0068398}, {"type": "node", "id": 5965367806, "lat": 11.1625846, "lon": 123.0066406}, {"type": "node", "id": 5965367807, "lat": 11.162098, "lon": 123.0065471}, {"type": "node", "id": 5965367808, "lat": 11.1620022, "lon": 123.0065187}, {"type": "node", "id": 5965367809, "lat": 11.1621219, "lon": 123.0059942}, {"type": "node", "id": 5965618256, "lat": 11.0975266, "lon": 123.0068521, "tags": {"name": "Yapson Ville", "place": "neighbourhood"}}, {"type": "node", "id": 6060086051, "lat": 11.3561098, "lon": 122.9830339, "tags": {"name": "Del Castillo", "place": "village"}}, {"type": "node", "id": 6060086052, "lat": 11.354097, "lon": 122.9545677, "tags": {"name": "Lantawan", "place": "village"}}, {"type": "node", "id": 6060086054, "lat": 11.3123441, "lon": 122.9899678, "tags": {"name": "Ardemil", "place": "village"}}, {"type": "node", "id": 6060086055, "lat": 11.311089, "lon": 123.0155817, "tags": {"name": "Juaneza", "place": "village"}}, {"type": "node", "id": 6060095375, "lat": 11.2959221, "lon": 122.9286659, "tags": {"name": "Pacuan", "place": "village"}}, {"type": "node", "id": 6060095376, "lat": 11.2787656, "lon": 122.9342983, "tags": {"name": "Sincua", "place": "village"}}, {"type": "node", "id": 6060095377, "lat": 11.2741584, "lon": 122.9694319, "tags": {"name": "Domingo", "place": "village"}}, {"type": "node", "id": 6060114587, "lat": 11.2513183, "lon": 122.9954874, "tags": {"name": "Alibayog", "place": "village"}}, {"type": "node", "id": 6186096085, "lat": 11.2265673, "lon": 122.9919354, "tags": {"is_in:town": "Sara", "name": "Tentay", "place": "village"}}, {"type": "node", "id": 6332246749, "lat": 11.3403211, "lon": 122.9194429}, {"type": "node", "id": 6332246750, "lat": 11.3405204, "lon": 122.9198188}, {"type": "node", "id": 6332246751, "lat": 11.3406111, "lon": 122.9204597}, {"type": "node", "id": 6332246752, "lat": 11.3404298, "lon": 122.9209527}, {"type": "node", "id": 6332246753, "lat": 11.3400733, "lon": 122.9210882}, {"type": "node", "id": 6332246754, "lat": 11.3399586, "lon": 122.9208541}, {"type": "node", "id": 6332246755, "lat": 11.3396323, "lon": 122.9206877}, {"type": "node", "id": 6332246756, "lat": 11.3391671, "lon": 122.9205275}, {"type": "node", "id": 6332246757, "lat": 11.3389919, "lon": 122.9202317}, {"type": "node", "id": 6332246759, "lat": 11.3394916, "lon": 122.9192676}, {"type": "node", "id": 6332246760, "lat": 11.3393864, "lon": 122.9197759}, {"type": "node", "id": 6332246761, "lat": 11.3388778, "lon": 122.9199198}, {"type": "node", "id": 6332296178, "lat": 11.5095627, "lon": 123.0865046}, {"type": "node", "id": 6332296180, "lat": 11.5094156, "lon": 123.0881381}, {"type": "node", "id": 6332296181, "lat": 11.5064219, "lon": 123.0878511}, {"type": "node", "id": 6332296182, "lat": 11.5065113, "lon": 123.0870733}, {"type": "node", "id": 6332296183, "lat": 11.5074855, "lon": 123.0864022}, {"type": "node", "id": 6332296184, "lat": 11.5074706, "lon": 123.086113}, {"type": "node", "id": 6332296185, "lat": 11.5070028, "lon": 123.0867648}, {"type": "node", "id": 6332296186, "lat": 11.5065034, "lon": 123.087151}, {"type": "node", "id": 6332296187, "lat": 11.507949, "lon": 123.0880094}, {"type": "node", "id": 6481783114, "lat": 11.4801037, "lon": 123.1533658}, {"type": "node", "id": 6481783115, "lat": 11.4782817, "lon": 123.1508727}, {"type": "node", "id": 6481783116, "lat": 11.4767804, "lon": 123.1533021}, {"type": "node", "id": 6481783117, "lat": 11.4774474, "lon": 123.1540226}, {"type": "node", "id": 6481783118, "lat": 11.4776152, "lon": 123.1540531}, {"type": "node", "id": 6481783119, "lat": 11.4783995, "lon": 123.1531352}, {"type": "node", "id": 6481783120, "lat": 11.478606, "lon": 123.1529949}, {"type": "node", "id": 6481783121, "lat": 11.4789678, "lon": 123.1528679}, {"type": "node", "id": 6481783122, "lat": 11.4794134, "lon": 123.1529262}, {"type": "node", "id": 6481783123, "lat": 11.4797041, "lon": 123.1532942}, {"type": "node", "id": 6481792398, "lat": 11.4452472, "lon": 123.1230422}, {"type": "node", "id": 6481792399, "lat": 11.4454163, "lon": 123.1236708}, {"type": "node", "id": 6481792400, "lat": 11.4457183, "lon": 123.1241761}, {"type": "node", "id": 6481792401, "lat": 11.4455492, "lon": 123.1249771}, {"type": "node", "id": 6481792402, "lat": 11.4453801, "lon": 123.1252976}, {"type": "node", "id": 6481792403, "lat": 11.4450872, "lon": 123.1253328}, {"type": "node", "id": 6481792404, "lat": 11.4448236, "lon": 123.1253682}, {"type": "node", "id": 6481792405, "lat": 11.4445461, "lon": 123.1250285}, {"type": "node", "id": 6481792406, "lat": 11.4442894, "lon": 123.1250356}, {"type": "node", "id": 6481792407, "lat": 11.4440466, "lon": 123.1252337}, {"type": "node", "id": 6481792408, "lat": 11.4439078, "lon": 123.1256726}, {"type": "node", "id": 6481792409, "lat": 11.4436789, "lon": 123.1258991}, {"type": "node", "id": 6481792410, "lat": 11.4431933, "lon": 123.1259062}, {"type": "node", "id": 6481792411, "lat": 11.4427839, "lon": 123.1259345}, {"type": "node", "id": 6481792412, "lat": 11.4425619, "lon": 123.1261539}, {"type": "node", "id": 6481792413, "lat": 11.4424509, "lon": 123.1265645}, {"type": "node", "id": 6481792414, "lat": 11.4424232, "lon": 123.1269538}, {"type": "node", "id": 6481792415, "lat": 11.4423607, "lon": 123.1271095}, {"type": "node", "id": 6481792416, "lat": 11.4420347, "lon": 123.1273077}, {"type": "node", "id": 6481792417, "lat": 11.441216, "lon": 123.1264795}, {"type": "node", "id": 6481792418, "lat": 11.4416739, "lon": 123.1258071}, {"type": "node", "id": 6481792419, "lat": 11.4419514, "lon": 123.1252337}, {"type": "node", "id": 6481792420, "lat": 11.4419445, "lon": 123.1249577}, {"type": "node", "id": 6481792421, "lat": 11.4417849, "lon": 123.1245259}, {"type": "node", "id": 6481792422, "lat": 11.443998, "lon": 123.1226714}, {"type": "node", "id": 6481792423, "lat": 11.4445322, "lon": 123.1225723}, {"type": "node", "id": 6481792424, "lat": 11.4446918, "lon": 123.122997}, {"type": "node", "id": 6635620625, "lat": 11.4365057, "lon": 123.1758772, "tags": {"admin_level": "10", "designation": "barangay", "name": "Manipulon", "place": "village", "population": "425", "population:date": "2015-08-01", "ref": "063019014", "source:population": "Philippine Statistics Authority", "wikidata": "Q18356359", "wikipedia": "en:Manipulon"}}, {"type": "node", "id": 6635620626, "lat": 11.4336112, "lon": 123.181652, "tags": {"admin_level": "10", "admin_type:PH": "barangay", "name": "Bayas", "old_ref": "063019002", "place": "village", "population": "2616", "population:2015": "2828", "population:date": "2015-08-01", "ref": "0603019002", "source:population": "Philippine Statistics Authority", "wikidata": "Q31492459", "wikipedia": "en:Bayas, Estancia"}}, {"type": "node", "id": 6640324831, "lat": 11.231997, "lon": 123.1552711, "tags": {"admin_level": "10", "name": "Botlog", "place": "hamlet", "place:PH": "barangay", "ref": "063015008", "wikidata": "Q65906872"}}, {"type": "node", "id": 6647074351, "lat": 11.0781128, "lon": 123.0139321, "tags": {"admin_level": "10", "admin_type:PH": "barangay", "name": "Nasidman", "old_ref": "063001014", "place": "village", "population": "596", "population:2015": "576", "ref": "0603001014", "source:population": "Philippine Statistics Authority"}}, {"type": "node", "id": 6673316616, "lat": 11.0811676, "lon": 122.8653305}, {"type": "node", "id": 6673316617, "lat": 11.081609, "lon": 122.8662425}, {"type": "node", "id": 6673316618, "lat": 11.0819053, "lon": 122.8666061}, {"type": "node", "id": 6673316619, "lat": 11.0820587, "lon": 122.8671391}, {"type": "node", "id": 6673316620, "lat": 11.0815933, "lon": 122.8677514}, {"type": "node", "id": 6673316621, "lat": 11.080982, "lon": 122.8686786}, {"type": "node", "id": 6673316622, "lat": 11.0794775, "lon": 122.8674972}, {"type": "node", "id": 6673352541, "lat": 11.2631475, "lon": 123.0071928}, {"type": "node", "id": 6673352542, "lat": 11.2637167, "lon": 123.0081413}, {"type": "node", "id": 6673352543, "lat": 11.2628003, "lon": 123.0089058}, {"type": "node", "id": 6673352544, "lat": 11.2625574, "lon": 123.0089979}, {"type": "node", "id": 6673352545, "lat": 11.2623769, "lon": 123.0090828}, {"type": "node", "id": 6673352546, "lat": 11.2622033, "lon": 123.0090616}, {"type": "node", "id": 6673352547, "lat": 11.262002, "lon": 123.0087501}, {"type": "node", "id": 6673352548, "lat": 11.2619326, "lon": 123.0085165}, {"type": "node", "id": 6673352549, "lat": 11.2620298, "lon": 123.0080352}, {"type": "node", "id": 6673352550, "lat": 11.2623977, "lon": 123.0076529}, {"type": "node", "id": 6673352551, "lat": 11.2626268, "lon": 123.0095217}, {"type": "node", "id": 6673352552, "lat": 11.2630294, "lon": 123.01018}, {"type": "node", "id": 6673352553, "lat": 11.2631961, "lon": 123.0106896}, {"type": "node", "id": 6673352554, "lat": 11.2632169, "lon": 123.0110011}, {"type": "node", "id": 6673352555, "lat": 11.262842, "lon": 123.0113055}, {"type": "node", "id": 6673352556, "lat": 11.2627726, "lon": 123.0115461}, {"type": "node", "id": 6673352557, "lat": 11.262356, "lon": 123.0114895}, {"type": "node", "id": 6673352558, "lat": 11.2621339, "lon": 123.0113409}, {"type": "node", "id": 6673352559, "lat": 11.2620436, "lon": 123.0111214}, {"type": "node", "id": 6673352560, "lat": 11.2621061, "lon": 123.0107109}, {"type": "node", "id": 6673352561, "lat": 11.2619603, "lon": 123.0104419}, {"type": "node", "id": 6673352562, "lat": 11.2619603, "lon": 123.010088}, {"type": "node", "id": 6673352563, "lat": 11.2621478, "lon": 123.0097623}, {"type": "node", "id": 6673366584, "lat": 11.2105926, "lon": 123.0264341}, {"type": "node", "id": 6673375124, "lat": 11.214983, "lon": 123.0136894}, {"type": "node", "id": 6673375125, "lat": 11.2141851, "lon": 123.0155319}, {"type": "node", "id": 6673375126, "lat": 11.2141851, "lon": 123.0157599}, {"type": "node", "id": 6673375127, "lat": 11.2139615, "lon": 123.0159879}, {"type": "node", "id": 6673375128, "lat": 11.2137922, "lon": 123.0161112}, {"type": "node", "id": 6673375129, "lat": 11.2135323, "lon": 123.0159941}, {"type": "node", "id": 6673375130, "lat": 11.2131999, "lon": 123.0156983}, {"type": "node", "id": 6673375131, "lat": 11.2129823, "lon": 123.0153039}, {"type": "node", "id": 6673375132, "lat": 11.2122992, "lon": 123.0151005}, {"type": "node", "id": 6673375133, "lat": 11.2124564, "lon": 123.0147431}, {"type": "node", "id": 6673375134, "lat": 11.212694, "lon": 123.0141017}, {"type": "node", "id": 6673375135, "lat": 11.2133812, "lon": 123.0135908}, {"type": "node", "id": 6673375136, "lat": 11.2137016, "lon": 123.0131348}, {"type": "node", "id": 6673434485, "lat": 11.2106531, "lon": 123.0276173}, {"type": "node", "id": 6673434486, "lat": 11.2103448, "lon": 123.0282828}, {"type": "node", "id": 6673434487, "lat": 11.2098431, "lon": 123.0288251}, {"type": "node", "id": 6673434488, "lat": 11.2095469, "lon": 123.0295091}, {"type": "node", "id": 6673434489, "lat": 11.2090694, "lon": 123.0293304}, {"type": "node", "id": 6673434490, "lat": 11.2073708, "lon": 123.0281719}, {"type": "node", "id": 6673434491, "lat": 11.2082231, "lon": 123.0262616}, {"type": "node", "id": 6673434492, "lat": 11.2077214, "lon": 123.0260459}, {"type": "node", "id": 6673434493, "lat": 11.2064399, "lon": 123.0262}, {"type": "node", "id": 6673434494, "lat": 11.2064399, "lon": 123.0260521}, {"type": "node", "id": 6673434495, "lat": 11.2063734, "lon": 123.0260028}, {"type": "node", "id": 6673434496, "lat": 11.2070323, "lon": 123.0242342}, {"type": "node", "id": 6673434497, "lat": 11.2066394, "lon": 123.0231373}, {"type": "node", "id": 6673434498, "lat": 11.2072015, "lon": 123.0231743}, {"type": "node", "id": 6673434499, "lat": 11.2072801, "lon": 123.0216152}, {"type": "node", "id": 6673434500, "lat": 11.2074853, "lon": 123.0215658}, {"type": "node", "id": 6673434501, "lat": 11.2073889, "lon": 123.0231989}, {"type": "node", "id": 6673434502, "lat": 11.2080418, "lon": 123.0232359}, {"type": "node", "id": 6673434503, "lat": 11.2079269, "lon": 123.0255159}, {"type": "node", "id": 6673445303, "lat": 11.137342, "lon": 123.0094754}, {"type": "node", "id": 6673445304, "lat": 11.1367647, "lon": 123.0112127}, {"type": "node", "id": 6673445305, "lat": 11.1381302, "lon": 123.011661}, {"type": "node", "id": 6673445306, "lat": 11.138011, "lon": 123.0123802}, {"type": "node", "id": 6673445307, "lat": 11.1381118, "lon": 123.0126698}, {"type": "node", "id": 6673445308, "lat": 11.1373237, "lon": 123.0127165}, {"type": "node", "id": 6673445309, "lat": 11.1372871, "lon": 123.012539}, {"type": "node", "id": 6673445310, "lat": 11.1369846, "lon": 123.0124363}, {"type": "node", "id": 6673445311, "lat": 11.1369663, "lon": 123.0119879}, {"type": "node", "id": 6673445312, "lat": 11.1358024, "lon": 123.0118478}, {"type": "node", "id": 6673445313, "lat": 11.1358941, "lon": 123.010755}, {"type": "node", "id": 6673445314, "lat": 11.1348402, "lon": 123.0105122}, {"type": "node", "id": 6673445315, "lat": 11.1343904, "lon": 123.0105072}, {"type": "node", "id": 6673445316, "lat": 11.1340433, "lon": 123.0104096}, {"type": "node", "id": 6673445317, "lat": 11.1341032, "lon": 123.0101901}, {"type": "node", "id": 6673445318, "lat": 11.1336883, "lon": 123.0099299}, {"type": "node", "id": 6673445319, "lat": 11.1333811, "lon": 123.0098404}, {"type": "node", "id": 6673445320, "lat": 11.1332974, "lon": 123.0096615}, {"type": "node", "id": 6673445321, "lat": 11.1335646, "lon": 123.0092306}, {"type": "node", "id": 6673445322, "lat": 11.1334848, "lon": 123.0091452}, {"type": "node", "id": 6673445323, "lat": 11.1335247, "lon": 123.0088118}, {"type": "node", "id": 6673445324, "lat": 11.1333093, "lon": 123.0084703}, {"type": "node", "id": 6673445325, "lat": 11.1330301, "lon": 123.008267}, {"type": "node", "id": 6673445326, "lat": 11.1329936, "lon": 123.0081765}, {"type": "node", "id": 6673445327, "lat": 11.1357187, "lon": 123.0080556}, {"type": "node", "id": 6673445328, "lat": 11.1360817, "lon": 123.0086817}, {"type": "node", "id": 6673445329, "lat": 11.1356757, "lon": 123.0096422}, {"type": "node", "id": 6673445330, "lat": 11.1358703, "lon": 123.0097794}, {"type": "node", "id": 6673445331, "lat": 11.1358823, "lon": 123.0098607}, {"type": "node", "id": 6673445332, "lat": 11.1360618, "lon": 123.0099339}, {"type": "node", "id": 6673445333, "lat": 11.1364037, "lon": 123.0092414}, {"type": "node", "id": 6678021408, "lat": 11.4228051, "lon": 122.914998}, {"type": "node", "id": 6678021409, "lat": 11.4230123, "lon": 122.9163965}, {"type": "node", "id": 6678021410, "lat": 11.4198323, "lon": 122.9170226}, {"type": "node", "id": 6678021411, "lat": 11.4201272, "lon": 122.9148679}, {"type": "node", "id": 6678021412, "lat": 11.4223429, "lon": 122.9150712}, {"type": "node", "id": 7308449217, "lat": 11.2243122, "lon": 122.8003371, "tags": {"name": "Gibato", "place": "village"}}, {"type": "node", "id": 7477439193, "lat": 11.4760634, "lon": 123.1551021}, {"type": "node", "id": 7489844709, "lat": 11.2316971, "lon": 123.0296445, "tags": {"is_in:town": "Sara", "name": "Zerrudo", "place": "village"}}, {"type": "node", "id": 7489844710, "lat": 11.238032, "lon": 123.0421543, "tags": {"is_in:town": "Sara", "name": "Salcedo", "place": "village"}}, {"type": "node", "id": 7489844711, "lat": 11.2281875, "lon": 123.0518639, "tags": {"alt_name": "Bacabac", "is_in:town": "Sara", "name": "Bakabak", "place": "village"}}, {"type": "node", "id": 7608028234, "lat": 11.1358628, "lon": 122.9039276, "tags": {"name": "Dalakitan", "place": "neighbourhood"}}, {"type": "node", "id": 7608305961, "lat": 11.2381925, "lon": 123.0118167, "tags": {"admin_level": "10", "admin_type:PH": "barangay", "is_in:town": "Sara", "name": "Labigan", "place": "village", "population": "1356", "population:2015": "1300", "ref": "063044026"}}, {"type": "node", "id": 7608331988, "lat": 11.2864149, "lon": 122.9884213, "tags": {"name": "Malapaya", "place": "village"}}, {"type": "node", "id": 7608364802, "lat": 11.2051208, "lon": 123.1618002, "tags": {"alt_name": "Polopina", "name": "Polopi\u00f1a", "place": "village"}}, {"type": "node", "id": 7624713348, "lat": 11.2117928, "lon": 123.0902302, "tags": {"name": "Batiti", "place": "neighbourhood"}}, {"type": "node", "id": 7631875186, "lat": 11.1594768, "lon": 122.8126001, "tags": {"is_in:town": "San Rafael", "name": "San Florentino", "place": "village"}}, {"type": "node", "id": 7633632748, "lat": 11.2506174, "lon": 122.9345011, "tags": {"is_in:town": "Lemery", "name": "Pontoc", "place": "village"}}, {"type": "node", "id": 7633632749, "lat": 11.2586882, "lon": 122.9429609, "tags": {"is_in:town": "Lemery", "name": "Alme\u00f1ana", "place": "village"}}, {"type": "node", "id": 7633645781, "lat": 11.2437356, "lon": 122.9585552, "tags": {"is_in:town": "Lemery", "name": "Velasco", "place": "village"}}, {"type": "node", "id": 7633645782, "lat": 11.2435251, "lon": 122.9491138, "tags": {"is_in:town": "Lemery", "name": "Nagsulang", "place": "village"}}, {"type": "node", "id": 7633645783, "lat": 11.2448825, "lon": 122.9229784, "tags": {"is_in:town": "Lemery", "name": "Buenavista", "place": "village"}}, {"type": "node", "id": 7633694529, "lat": 11.2385582, "lon": 122.9128504, "tags": {"is_in:town": "Lemery", "name": "Tugas", "place": "village"}}, {"type": "node", "id": 7633694530, "lat": 11.2472086, "lon": 122.9047577, "tags": {"is_in:town": "Lemery", "name": "Milan", "place": "village"}}, {"type": "node", "id": 8459673725, "lat": 11.3917758, "lon": 122.7810627, "tags": {"admin_level": "10", "designation": "barangay", "is_in:town": "Ma-ayon", "name": "Tabuc", "place": "village", "source:name": "extrapolated from OSMaPaaralan, way/248555471"}}, {"type": "node", "id": 8459673726, "lat": 11.3899588, "lon": 122.782495, "tags": {"description": "poblacion", "is_in:town": "Ma-ayon", "name": "Poblacion", "place": "suburb", "source:name": "extrapolated from OSMaPaaralan, way/248555468"}}, {"type": "node", "id": 8459740370, "lat": 11.4041125, "lon": 122.799688, "tags": {"admin_level": "10", "designation": "barangay", "is_in:town": "Ma-ayon", "name": "Indayagan", "place": "village", "source:name": "extrapolated from OSMaPaaralan, way/911071481"}}, {"type": "node", "id": 8459910001, "lat": 11.3922306, "lon": 122.8325692, "tags": {"admin_level": "10", "designation": "barangay", "is_in:town": "Ma-ayon", "name": "Cabungahan", "place": "village", "source:name": "extrapolated from OSMaPaaralan"}}, {"type": "node", "id": 8484707765, "lat": 11.3379725, "lon": 122.8695716, "tags": {"admin_level": "10", "designation": "barangay", "is_in:town": "Ma-ayon", "name": "Bongbongan", "place": "village", "source:name": "extrapolated from OSMaPaaralan"}}, {"type": "node", "id": 8484707769, "lat": 11.3425747, "lon": 122.8799517, "tags": {"admin_level": "10", "designation": "barangay", "is_in:town": "Ma-ayon", "name": "Maalan", "place": "village", "source:name": "extrapolated from OSMaPaaralan"}}, {"type": "node", "id": 8567017899, "lat": 11.4954598, "lon": 122.847363, "tags": {"name": "Ameligan", "place": "village", "source:name": "deped"}}, {"type": "node", "id": 8822908553, "lat": 11.4306353, "lon": 122.7441037, "tags": {"name": "Capagao", "place": "village"}}, {"type": "node", "id": 8822916571, "lat": 11.4631869, "lon": 122.7854736, "tags": {"name": "Agkilo", "place": "village"}}, {"type": "node", "id": 8830750059, "lat": 11.3840932, "lon": 123.0581312, "tags": {"name": "Alapasco", "place": "village"}}, {"type": "node", "id": 8830772453, "lat": 11.4541278, "lon": 123.0169539, "tags": {"name": "Blasco", "place": "village"}}, {"type": "node", "id": 8830783220, "lat": 11.3293738, "lon": 122.8276257, "tags": {"name": "East Villaflores", "place": "village"}}, {"type": "node", "id": 8830785530, "lat": 11.2968856, "lon": 122.8170889, "tags": {"name": "Putian", "place": "village"}}, {"type": "node", "id": 9311471712, "lat": 11.4318707, "lon": 122.9191294, "tags": {"name": "Pantalan Cabugcabug", "place": "village", "population": "2021", "ref": "061913015", "short_name": "Pantalan", "source:population": "PSA, 2020"}}, {"type": "node", "id": 9311637923, "lat": 11.5016134, "lon": 122.751873, "tags": {"name": "Loctugan", "place": "neighbourhood"}}, {"type": "node", "id": 9311637924, "lat": 11.4965635, "lon": 122.7484791, "tags": {"name": "Jumaguicjic", "place": "village", "population": "2778", "ref": "061914031", "source:population": "PSA, 2020"}}, {"type": "node", "id": 9326251526, "lat": 11.4361087, "lon": 123.0688235, "tags": {"admin_level": "10", "admin_type:PH": "barangay", "is_in:town": "Balasan", "name": "Salvacion", "place": "village", "population": "836", "population:2015": "797", "ref": "063005021", "source:population": "Philippine Statistics Authority"}}, {"type": "node", "id": 9329168677, "lat": 11.474849, "lon": 123.1938332, "tags": {"admin_level": "12", "admin_type:PH": "purok", "is_in:town": "Carles", "is_in:village": "Talingting", "name": "Purok 1-B", "place": "neighbourhood", "source:name": "extrapolated from OSMaPaaralan, way/1011182160"}}, {"type": "node", "id": 9329290576, "lat": 11.2807435, "lon": 123.1769782, "tags": {"admin_level": "10", "admin_type:PH": "sitio", "alt_name": "Ponting", "is_in:district": "Tabaliza", "is_in:town": "Concepcion", "name": "Punting", "place": "hamlet"}}, {"type": "node", "id": 9329290577, "lat": 11.2837882, "lon": 123.182281, "tags": {"fixme": "name", "place": "neighbourhood"}}, {"type": "node", "id": 9329312068, "lat": 11.3109816, "lon": 123.1660462, "tags": {"admin_level": "10", "admin_type:PH": "barangay", "alt_name": "Taloto-an", "is_in:town": "Concepcion", "name": "Talotu-an", "place": "village", "population": "2457", "population:2015": "2771", "ref": "063015025"}}, {"type": "node", "id": 9329313390, "lat": 11.2903561, "lon": 123.1559363, "tags": {"admin_level": "11", "admin_type:PH": "sitio", "is_in:district": "Talotu-an", "is_in:town": "Concepcion", "name": "Guinmisahan", "place": "hamlet"}}, {"type": "node", "id": 9329317723, "lat": 11.2895749, "lon": 123.1899628, "tags": {"admin_level": "10", "admin_type:PH": "sitio", "name": "Bagotao", "place": "hamlet"}}, {"type": "node", "id": 9329342162, "lat": 11.2988151, "lon": 123.1713912, "tags": {"admin_level": "11", "admin_type:PH": "sitio", "name": "Looc", "place": "hamlet"}}, {"type": "node", "id": 9334163710, "lat": 11.2125518, "lon": 122.9316929, "tags": {"fixme": "name", "place": "neighbourhood"}}, {"type": "node", "id": 9334196351, "lat": 11.219837, "lon": 122.9205349, "tags": {"admin_level": "11", "admin_type:PH": "sitio", "is_in:district": "Poblacion Southeast Zone", "is_in:town": "Lemery", "name": "Talaytay", "place": "neighbourhood"}}, {"type": "node", "id": 9336566094, "lat": 11.2462415, "lon": 122.9858891, "tags": {"admin_level": "10", "admin_type:PH": "barangay", "is_in:town": "Sara", "name": "Villahermoso", "place": "village", "population": "1071", "population:2015": "954", "ref": "063044042"}}, {"type": "node", "id": 9336566099, "lat": 11.2390617, "lon": 122.9946714, "tags": {"admin_level": "10", "admin_type:PH": "barangay", "is_in:town": "Sara", "name": "Bagaygay", "place": "village", "population": "1290", "population:2015": "1175", "ref": "063044012", "source:population": "Philippine Statistics Authority"}}, {"type": "node", "id": 9676103499, "lat": 11.349545, "lon": 123.1039041, "tags": {"admin_level": "10", "admin_type:PH": "barangay", "is_in:town": "San Dionisio", "name": "Bagacay", "old_ref": "063038003", "place": "village", "population": "2424", "population:2015": "2188", "ref": "0603038003", "source:population": "Philippine Statistics Authority", "way": "690831259"}}, {"type": "node", "id": 9920794229, "lat": 11.1755295, "lon": 123.0154329}, {"type": "node", "id": 9920794230, "lat": 11.1746823, "lon": 123.0179386}, {"type": "node", "id": 9920794231, "lat": 11.1730713, "lon": 123.0173794}, {"type": "node", "id": 9920794232, "lat": 11.1736893, "lon": 123.0155391}, {"type": "node", "id": 9920794233, "lat": 11.1742101, "lon": 123.015716}, {"type": "node", "id": 9920794234, "lat": 11.1747726, "lon": 123.0151497}, {"type": "node", "id": 10100513139, "lat": 11.2578017, "lon": 122.7984837, "tags": {"admin_level": "10", "designation": "barangay", "is_in:town": "Dumarao", "name": "Astorga", "place": "village"}}, {"type": "node", "id": 10100531389, "lat": 11.3040413, "lon": 122.7673674, "tags": {"admin_level": "10", "designation": "barangay", "is_in:town": "Cuartero", "name": "Agnaga", "place": "village"}}, {"type": "node", "id": 10100532578, "lat": 11.3237617, "lon": 122.7461886, "tags": {"admin_level": "10", "designation": "barangay", "is_in:town": "Cuartero", "name": "Balingasag", "place": "village"}}, {"type": "node", "id": 10100533859, "lat": 11.2400683, "lon": 122.8402832, "tags": {"admin_level": "10", "designation": "barangay", "is_in:town": "Dumarao", "name": "Aglanot", "place": "village"}}, {"type": "node", "id": 10100534273, "lat": 11.3316095, "lon": 122.757116, "tags": {"admin_level": "10", "designation": "barangay", "is_in:town": "Cuartero", "name": "Sinabsaban", "place": "village"}}, {"type": "node", "id": 10100539864, "lat": 11.277228, "lon": 122.7761234, "tags": {"admin_level": "10", "designation": "barangay", "is_in:town": "Dumarao", "name": "Nagsulang", "place": "village"}}, {"type": "node", "id": 10844894742, "lat": 11.1674187, "lon": 122.8421501}, {"type": "node", "id": 10844894743, "lat": 11.1675116, "lon": 122.8414648}, {"type": "node", "id": 10844894744, "lat": 11.1676307, "lon": 122.8411696}, {"type": "node", "id": 10844894745, "lat": 11.1677222, "lon": 122.8400483}, {"type": "node", "id": 10844894746, "lat": 11.1614863, "lon": 122.8399746}, {"type": "node", "id": 10844894747, "lat": 11.1614442, "lon": 122.8402808}, {"type": "node", "id": 10844894748, "lat": 11.1630692, "lon": 122.8409891}, {"type": "node", "id": 10844894749, "lat": 11.1633437, "lon": 122.841299}, {"type": "node", "id": 10844894750, "lat": 11.1634902, "lon": 122.8412822}, {"type": "node", "id": 10844894751, "lat": 11.1641154, "lon": 122.8422913}, {"type": "node", "id": 10844894752, "lat": 11.1652769, "lon": 122.8421742}, {"type": "node", "id": 10844894753, "lat": 11.1644745, "lon": 122.8423531}, {"type": "node", "id": 10844894754, "lat": 11.1649988, "lon": 122.8425858}, {"type": "node", "id": 10844894755, "lat": 11.1646064, "lon": 122.8427482}, {"type": "node", "id": 10858971848, "lat": 11.2272906, "lon": 122.8963332}, {"type": "node", "id": 10858971849, "lat": 11.2276016, "lon": 122.8971463}, {"type": "node", "id": 10858971850, "lat": 11.2272029, "lon": 122.8973414}, {"type": "node", "id": 10858971851, "lat": 11.2269676, "lon": 122.897374}, {"type": "node", "id": 10858971852, "lat": 11.2269756, "lon": 122.8974065}, {"type": "node", "id": 10858971853, "lat": 11.2271829, "lon": 122.8975}, {"type": "node", "id": 10858971854, "lat": 11.2273145, "lon": 122.8976057}, {"type": "node", "id": 10858971855, "lat": 11.2273903, "lon": 122.8977317}, {"type": "node", "id": 10858971856, "lat": 11.2266925, "lon": 122.8982155}, {"type": "node", "id": 10858971857, "lat": 11.2259428, "lon": 122.8983537}, {"type": "node", "id": 10858971858, "lat": 11.2258431, "lon": 122.8979716}, {"type": "node", "id": 10858971859, "lat": 11.2258391, "lon": 122.897622}, {"type": "node", "id": 10858971860, "lat": 11.2259508, "lon": 122.8974715}, {"type": "node", "id": 10858971861, "lat": 11.226198, "lon": 122.8972805}, {"type": "node", "id": 10858971862, "lat": 11.2263017, "lon": 122.8972073}, {"type": "node", "id": 10858971863, "lat": 11.2262897, "lon": 122.8971585}, {"type": "node", "id": 10858971864, "lat": 11.2261103, "lon": 122.8970731}, {"type": "node", "id": 10858971865, "lat": 11.2259428, "lon": 122.8969999}, {"type": "node", "id": 10858971866, "lat": 11.2258271, "lon": 122.8968414}, {"type": "node", "id": 10858971867, "lat": 11.2257195, "lon": 122.8966828}, {"type": "node", "id": 10858971868, "lat": 11.2257075, "lon": 122.8964714}, {"type": "node", "id": 10858971869, "lat": 11.2257593, "lon": 122.8964389}, {"type": "node", "id": 10858971870, "lat": 11.225871, "lon": 122.8964552}, {"type": "node", "id": 10858971871, "lat": 11.2260784, "lon": 122.8964755}, {"type": "node", "id": 10858971872, "lat": 11.2264213, "lon": 122.8964104},