{"version": 0.6, "generator": "Overpass API 0.7.62.5 1bd436f1", "osm3s": {"timestamp_osm_base": "2025-05-24T18:07:29Z", "copyright": "The data included in this document is from www.openstreetmap.org. The data is made available under ODbL."}, "elements": [{"type": "node", "id": 198529002, "lat": 6.9753153, "lon": 118.513887, "tags": {"admin_level": "6", "admin_type:PH": "municipality", "alt_name": "Cagayan de Tawi-Tawi;Cagayan de Sulu", "name": "Mapun", "old_ref": "157003000", "place": "town", "population": "30038", "population:date": "2020-05-01", "ref": "1907003000", "wikidata": "Q155241", "wikimedia_commons": "Category:Mapun", "wikipedia": "en:Mapun"}}, {"type": "node", "id": 4893076278, "lat": 7.0357313, "lon": 118.5193918, "tags": {"admin_level": "10", "name": "Liyubud", "place": "village", "place:PH": "barangay", "ref": "157003014"}}, {"type": "node", "id": 4893076279, "lat": 7.0376054, "lon": 118.5018824, "tags": {"admin_level": "10", "name": "Duhul Batu", "place": "village", "place:PH": "barangay", "ref": "157003002"}}, {"type": "node", "id": 4893076280, "lat": 7.0301091, "lon": 118.4597395, "tags": {"admin_level": "10", "name": "Umus Mataha", "place": "village", "place:PH": "barangay", "ref": "157003012"}}, {"type": "node", "id": 4893076281, "lat": 7.0209942, "lon": 118.4469508, "tags": {"admin_level": "10", "name": "Kompang", "place": "village", "place:PH": "barangay", "ref": "157003003"}}, {"type": "node", "id": 4893076282, "lat": 7.0161386, "lon": 118.4305571, "tags": {"admin_level": "10", "name": "Sikub", "place": "village", "place:PH": "barangay", "ref": "157003008"}}, {"type": "node", "id": 4893076283, "lat": 7.0019971, "lon": 118.4334753, "tags": {"admin_level": "10", "name": "Tanduan", "place": "village", "place:PH": "barangay", "ref": "157003010"}}, {"type": "node", "id": 4893076284, "lat": 6.992729, "lon": 118.4408805, "tags": {"admin_level": "10", "designation": "barangay", "name": "Erok-Erok", "old_ref": "157003013", "place": "village", "population": "2149", "population:date": "2020-05-01", "ref": "1907003013", "source:population": "Philippine Statistics Authority"}}, {"type": "node", "id": 4893076285, "lat": 6.9883691, "lon": 118.449468, "tags": {"admin_level": "10", "name": "Pawan", "place": "village", "place:PH": "barangay", "ref": "157003007"}}, {"type": "node", "id": 4893076286, "lat": 7.0072789, "lon": 118.4712408, "tags": {"admin_level": "10", "name": "Tabulian", "place": "village", "place:PH": "barangay", "ref": "157003009"}}, {"type": "node", "id": 4893076287, "lat": 7.0214201, "lon": 118.4852313, "tags": {"admin_level": "10", "name": "Sapa", "place": "village", "place:PH": "barangay", "ref": "157003016"}}, {"type": "node", "id": 4893076288, "lat": 7.0216757, "lon": 118.5104655, "tags": {"admin_level": "10", "name": "Guppah", "place": "village", "place:PH": "barangay", "ref": "157003005"}}, {"type": "node", "id": 4893076289, "lat": 7.0027638, "lon": 118.4961318, "tags": {"admin_level": "10", "name": "Lubbak Parang", "place": "village", "place:PH": "barangay", "ref": "157003015"}}, {"type": "node", "id": 4893076290, "lat": 6.9906254, "lon": 118.4961355, "tags": {"admin_level": "10", "name": "Mahalo", "place": "village", "place:PH": "barangay", "ref": "157003006"}}, {"type": "node", "id": 4893076291, "lat": 6.9756725, "lon": 118.5026549, "tags": {"admin_level": "10", "name": "Lupa Pula", "place": "village", "place:PH": "barangay", "poblacion": "yes", "ref": "157003004"}}, {"type": "node", "id": 4893076292, "lat": 6.9858958, "lon": 118.4684942, "tags": {"admin_level": "10", "name": "Boki", "place": "village", "place:PH": "barangay", "ref": "157003001"}}]}