{"version": 0.6, "generator": "Overpass API 0.7.62.5 1bd436f1", "osm3s": {"timestamp_osm_base": "2025-05-24T18:10:44Z", "copyright": "The data included in this document is from www.openstreetmap.org. The data is made available under ODbL."}, "elements": [{"type": "node", "id": 369490648, "lat": 7.2888051, "lon": 117.0679083, "tags": {"is_in": "Sabah, Malaysia", "name": "Kampung Menyangit", "name:en": "Menyangit Village", "name:ms": "Kampung Menyangit", "place": "village"}}, {"type": "node", "id": 369490748, "lat": 7.2550643, "lon": 116.9266558, "tags": {"is_in": "Sabah, Malaysia", "name": "Kampung Selamat", "name:en": "Selamat Village", "name:ms": "Kampung Selamat", "place": "village"}}, {"type": "node", "id": 369490787, "lat": 7.3464873, "lon": 117.2784103, "tags": {"name": "Kampung Dogoton", "name:en": "Dogoton Island", "name:ms": "Kampung Dogoton", "place": "village"}}, {"type": "node", "id": 369490940, "lat": 7.1101449, "lon": 117.0841255, "tags": {"name": "Karakit", "name:en": "Karakit", "name:ms": "Karakit", "place": "town"}}, {"type": "node", "id": 4603651869, "lat": 7.2318714, "lon": 117.317854, "tags": {"place": "hamlet"}}, {"type": "node", "id": 4603651870, "lat": 7.2333988, "lon": 117.3195224, "tags": {"place": "hamlet"}}, {"type": "node", "id": 4603651871, "lat": 7.2367248, "lon": 117.3219578, "tags": {"place": "hamlet"}}, {"type": "node", "id": 4603651872, "lat": 7.2213103, "lon": 117.3236288, "tags": {"place": "hamlet"}}, {"type": "node", "id": 4603651873, "lat": 7.2204003, "lon": 117.3146756, "tags": {"place": "hamlet"}}, {"type": "node", "id": 4603651874, "lat": 7.2175584, "lon": 117.3133989, "tags": {"place": "hamlet"}}, {"type": "node", "id": 4603651875, "lat": 7.2083514, "lon": 117.3112692, "tags": {"place": "hamlet"}}, {"type": "node", "id": 7902093872, "lat": 7.0451884, "lon": 117.3025683, "tags": {"name": "Tanjung Malawali", "name:en": "Malawali Cape", "name:ms": "Tanjung Malawali", "place": "village"}}, {"type": "node", "id": 12262960412, "lat": 7.3278736, "lon": 117.1329206, "tags": {"GNS:id": "14493248", "name": "Kampung Nusa-Nusa", "name:ms": "Kampung Nusa-Nusa", "place": "hamlet", "postal_code": "89058", "short_name": "Kg Nusa-Nusa;Kg. Nusa-Nusa"}}]}