{"version": 0.6, "generator": "Overpass API 0.7.62.5 1bd436f1", "osm3s": {"timestamp_osm_base": "2025-05-24T17:48:14Z", "copyright": "The data included in this document is from www.openstreetmap.org. The data is made available under ODbL."}, "elements": [{"type": "node", "id": 198494492, "lat": 11.4911664, "lon": 119.8680499, "tags": {"admin_level": "6", "admin_type:PH": "municipality", "name": "Linapacan", "name:en": "Linapacan", "name:es": "Linapacan", "name:tl": "Linapacan", "old_ref": "175313000", "place": "town", "population": "16424", "population:date": "2020-05-01", "postal_code": "5314", "ref": "1705313000", "wikidata": "Q111506", "wikimedia_commons": "Category:Linapacan", "wikipedia": "en:Linapacan"}}, {"type": "node", "id": 1437177211, "lat": 11.2642042, "lon": 119.5636324, "tags": {"admin_level": "10", "admin_type:PH": "barangay", "name": "Sibaltan", "old_ref": "175312013", "place": "village", "population": "2007", "population:date": "2020-05-01", "ref": "1705312013", "source:population": "Philippine Statistics Authority", "wikidata": "Q18654710"}}, {"type": "node", "id": 4118451231, "lat": 11.3257014, "lon": 119.552106, "tags": {"is_in:village": "San Fernando", "name": "Guinleng", "place": "neighbourhood"}}, {"type": "node", "id": 6026445807, "lat": 11.3854139, "lon": 119.8121303, "tags": {"name": "San Nicolas", "place": "village"}}, {"type": "node", "id": 6026445808, "lat": 11.4720402, "lon": 119.7733214, "tags": {"admin_level": "10", "admin_type:PH": "barangay", "is_in:town": "Linapacan", "name": "Maroyogroyog", "old_ref": "175313006", "place": "village", "population": "1830", "population:2015": "1853", "ref": "1705313006", "source:population": "Philippine Statistics Authority"}}, {"type": "node", "id": 6026445809, "lat": 11.3443055, "lon": 119.7012802, "tags": {"admin_level": "10", "admin_type:PH": "barangay", "alt_name": "Iloc", "name": "Barangonan", "old_name": "Iloc", "old_ref": "175313001", "place": "village", "population": "1028", "population:date": "2020-05-01", "ref": "1705313001", "source:population": "Philippine Statistics Authority", "wikidata": "Q18603566"}}, {"type": "node", "id": 6026446045, "lat": 11.423359, "lon": 119.7591149, "tags": {"name": "New Culaylayan", "place": "village"}}, {"type": "node", "id": 6195534546, "lat": 11.4010891, "lon": 119.6566463, "tags": {"admin_level": "10", "admin_type:PH": "barangay", "name": "Calibangbangan", "old_ref": "175313003", "place": "village", "population": "1276", "population:date": "2020-05-01", "ref": "1705313003", "source:population": "Philippine Statistics Authority", "wikidata": "Q18608347"}}, {"type": "node", "id": 6195534561, "lat": 11.2657285, "lon": 119.6737859, "tags": {"admin_level": "10", "admin_type:PH": "barangay", "name": "Pical", "old_ref": "175313009", "place": "village", "population": "1500", "population:date": "2020-05-01", "ref": "1705313009", "source:population": "Philippine Statistics Authority", "wikidata": "Q18608363"}}, {"type": "node", "id": 6195580933, "lat": 11.4924344, "lon": 119.8704443, "tags": {"admin_level": "10", "admin_type:PH": "barangay", "is_in:town": "Linapacan", "name": "San Miguel", "official_name": "San Miguel Poblacion", "old_ref": "175313010", "place": "village", "population": "4327", "population:2015": "4103", "ref": "1705313010"}}, {"type": "node", "id": 6393364108, "lat": 11.30506, "lon": 119.5572824, "tags": {"name": "Santa Monica", "place": "hamlet"}}, {"type": "node", "id": 6395724713, "lat": 11.1528728, "lon": 119.6069216, "tags": {"admin_type:PH": "barangay", "name": "Batas", "place": "village", "population": "1220", "ref": "175320004", "source:population": "PSA, 2020 Census"}}, {"type": "node", "id": 6395861169, "lat": 11.0865001, "lon": 119.5812956, "tags": {"name": "Dipla", "place": "village"}}, {"type": "node", "id": 8419677377, "lat": 11.1050708, "lon": 119.684321, "tags": {"alt_name": "Calabugdong", "is_in:town": "Taytay", "is_in:village": "Casian", "name": "Calabugtong", "place": "neighbourhood", "source:name": "extrapolated from OSMaPaaralan, way/813549551"}}, {"type": "node", "id": 9416951843, "lat": 11.273064, "lon": 119.5607838, "tags": {"admin_level": "12", "admin_type:PH": "purok", "is_in:town": "El Nido", "is_in:village": "Sibaltan", "name": "Purok 3", "place": "neighbourhood"}}]}