{"version": 0.6, "generator": "Overpass API 0.7.62.5 1bd436f1", "osm3s": {"timestamp_osm_base": "2025-05-24T18:04:28Z", "copyright": "The data included in this document is from www.openstreetmap.org. The data is made available under ODbL."}, "elements": [{"type": "node", "id": 198517085, "lat": 5.4122469, "lon": 125.4217427, "tags": {"admin_level": "6", "admin_subdivisions": "12 barangays", "admin_type:PH": "municipality", "alt_name": "Sarangani Islands", "contact:facebook": "https://www.facebook.com/saranganiinformationoffice", "ele": "40", "is_in:province": "Davao Occidental", "name": "Sarangani", "name:etymology": "Sarangani Island", "name:etymology:wikidata": "Q1407195", "official_name": "Municipality of Sarangani", "old_ref": "118605000", "place": "town", "population": "22515", "population:date": "2020-05-01", "postal_code": "8015", "ref": "1108605000", "related_law": "Presidential Decree No. 1550 s. 1978", "start_date": "1978-06-11", "was_in:municipality": "Jose Abad Santos", "wikidata": "Q314999", "wikimedia_commons": "Category:Sarangani, Davao Occidental", "wikipedia": "en:Sarangani, Davao Occidental"}}, {"type": "node", "id": 2618700342, "lat": 5.4038225, "lon": 125.3493347, "tags": {"admin_level": "10", "admin_type:PH": "barangay", "ele": "5", "is_in:municipality": "Sarangani", "name": "Lipol", "official_name": "Barangay Lipol", "old_ref": "118605003", "place": "village", "population": "1625", "population:date": "2020-05-01", "postal_code": "8015", "ref": "1108605003", "wikidata": "Q110899065"}}, {"type": "node", "id": 2618700349, "lat": 5.3917593, "lon": 125.4237713, "tags": {"admin_level": "10", "admin_type:PH": "barangay", "ele": "10", "is_in:municipality": "Sarangani", "name": "Batuganding", "official_name": "Barangay Batuganding", "old_ref": "118605001", "place": "village", "population": "2209", "population:date": "2020-05-01", "postal_code": "8015", "ref": "1108605001", "wikidata": "Q110899063"}}, {"type": "node", "id": 2618950002, "lat": 5.4297142, "lon": 125.4092797, "tags": {"admin_level": "10", "admin_type:PH": "barangay", "ele": "5", "is_in:municipality": "Sarangani", "name": "Tucal", "official_name": "Barangay Tucal", "old_ref": "118605012", "place": "village", "population": "885", "population:date": "2020-05-01", "postal_code": "8015", "ref": "1108605012", "wikidata": "Q110899074"}}, {"type": "node", "id": 2618950003, "lat": 5.4338135, "lon": 125.3940294, "tags": {"admin_level": "10", "admin_type:PH": "barangay", "ele": "20", "is_in:municipality": "Sarangani", "name": "Konel", "official_name": "Barangay Konel", "old_ref": "118605002", "place": "village", "population": "2142", "population:date": "2020-05-01", "postal_code": "8015", "ref": "1108605002", "wikidata": "Q110899064"}}, {"type": "node", "id": 3332681693, "lat": 5.5705429, "lon": 125.3543645, "tags": {"admin_level": "10", "admin_type:PH": "barangay", "is_in:municipality": "Jose Abad Santos", "name": "Balangonan", "official_name": "Barangay Balangonan", "place": "village", "postal_code": "8014"}}, {"type": "node", "id": 3332765272, "lat": 5.5833385, "lon": 125.4157798, "tags": {"admin_level": "10", "admin_type:PH": "barangay", "is_in:municipality": "Jose Abad Santos", "name": "Camalian", "official_name": "Barangay Camalian", "place": "village", "postal_code": "8014"}}, {"type": "node", "id": 5739459734, "lat": 5.7149822, "lon": 125.2768694, "tags": {"is_in:city": "General Santos", "is_in:village": "Burlas", "name": "Punsad", "place": "village"}}, {"type": "node", "id": 6503681885, "lat": 5.6109149, "lon": 125.4289164, "tags": {"admin_level": "10", "admin_type:PH": "barangay", "alt_name": "Butolan", "is_in:municipality": "Jose Abad Santos", "name": "Butulan", "official_name": "Barangay Butulan", "place": "village", "postal_code": "8014"}}, {"type": "node", "id": 7126875011, "lat": 5.3924999, "lon": 125.4049987, "tags": {"place": "hamlet"}}, {"type": "node", "id": 7126875032, "lat": 5.3776645, "lon": 125.4055185, "tags": {"place": "hamlet"}}, {"type": "node", "id": 8752588865, "lat": 5.4251215, "lon": 125.4073209, "tags": {"place": "hamlet"}}, {"type": "node", "id": 8752588866, "lat": 5.4337035, "lon": 125.4019886, "tags": {"place": "hamlet"}}, {"type": "node", "id": 8752588867, "lat": 5.4307422, "lon": 125.3767732, "tags": {"place": "hamlet"}}, {"type": "node", "id": 8752588868, "lat": 5.430299, "lon": 125.3852141, "tags": {"place": "hamlet"}}, {"type": "node", "id": 8752588898, "lat": 5.4289959, "lon": 125.372825, "tags": {"alt_name": "Sitio Kababa", "is_in:municipality": "Sarangani", "name": "Kababa", "place": "hamlet", "postal_code": "8015"}}, {"type": "node", "id": 8754522923, "lat": 5.3895909, "lon": 125.3483927, "tags": {"place": "hamlet"}}, {"type": "node", "id": 8754522926, "lat": 5.3917559, "lon": 125.3919665, "tags": {"admin_level": "10", "admin_type:PH": "barangay", "ele": "360", "is_in:municipality": "Sarangani", "name": "Gomtago", "official_name": "Barangay Gomtago", "old_ref": "118605010", "place": "village", "population": "895", "population:date": "2020-05-01", "postal_code": "8015", "ref": "1108605010", "wikidata": "Q110899072"}}, {"type": "node", "id": 8754522927, "lat": 5.3778679, "lon": 125.3540186, "tags": {"admin_level": "10", "admin_type:PH": "barangay", "ele": "5", "is_in:municipality": "Sarangani", "name": "Tagen", "official_name": "Barangay Tagen", "old_ref": "118605011", "place": "village", "population": "1397", "population:date": "2020-05-01", "postal_code": "8015", "ref": "1108605011", "wikidata": "Q110899073"}}, {"type": "node", "id": 8754522928, "lat": 5.376311, "lon": 125.3967932, "tags": {"admin_level": "10", "admin_type:PH": "barangay", "ele": "10", "is_in:municipality": "Sarangani", "name": "Tinina", "official_name": "Barangay Tinina", "old_ref": "118605007", "place": "village", "population": "1439", "population:date": "2020-05-01", "postal_code": "8015", "ref": "1108605007", "wikidata": "Q110899069"}}, {"type": "node", "id": 8756971686, "lat": 5.5648471, "lon": 125.342508, "tags": {"admin_level": "10", "admin_type:PH": "barangay", "is_in:municipality": "Jose Abad Santos", "name": "Kitayo", "official_name": "Barangay Kitayo", "place": "village", "postal_code": "8014"}}, {"type": "node", "id": 8757027268, "lat": 5.5708777, "lon": 125.406028, "tags": {"admin_level": "10", "admin_type:PH": "barangay", "is_in:municipality": "Jose Abad Santos", "name": "Bukid", "official_name": "Barangay Bukid", "place": "village", "postal_code": "8014"}}, {"type": "node", "id": 8757071633, "lat": 5.6250562, "lon": 125.4392526, "tags": {"admin_level": "10", "admin_type:PH": "barangay", "is_in:municipality": "Jose Abad Santos", "name": "Nuing", "official_name": "Barangay Nuing", "place": "village", "postal_code": "8014"}}, {"type": "node", "id": 8757075926, "lat": 5.6639438, "lon": 125.4091582, "tags": {"admin_level": "10", "admin_type:PH": "barangay", "ele": "80", "is_in:municipality": "Jose Abad Santos", "name": "San Isidro", "official_name": "Barangay San Isidro", "place": "village", "postal_code": "8014"}}, {"type": "node", "id": 8757096017, "lat": 5.618834, "lon": 125.4393303, "tags": {"is_in:barangay": "Nuing", "is_in:municipality": "Jose Abad Santos", "name": "Nuing del Sur", "place": "neighbourhood", "postal_code": "8014"}}, {"type": "node", "id": 8757096018, "lat": 5.6288198, "lon": 125.4402181, "tags": {"is_in:barangay": "Nuing", "is_in:municipality": "Jose Abad Santos", "name": "Nuing del Norte", "place": "neighbourhood", "postal_code": "8014"}}, {"type": "node", "id": 8757111439, "lat": 5.6996087, "lon": 125.4113697, "tags": {"admin_level": "10", "admin_type:PH": "barangay", "ele": "170", "is_in:municipality": "Jose Abad Santos", "name": "Quiapo", "official_name": "Barangay Quiapo", "place": "village", "postal_code": "8014"}}, {"type": "node", "id": 8757115713, "lat": 5.7151028, "lon": 125.4299558, "tags": {"alt_name": "Sitio Kibayo", "ele": "510", "is_in:barangay": "Sugal", "is_in:municipality": "Jose Abad Santos", "name": "Kibayo", "place": "hamlet", "postal_code": "8014"}}, {"type": "node", "id": 8757626787, "lat": 5.6257395, "lon": 125.4212791, "tags": {"place": "hamlet"}}, {"type": "node", "id": 8757626788, "lat": 5.598731, "lon": 125.3517133, "tags": {"place": "hamlet"}}, {"type": "node", "id": 8757626789, "lat": 5.63517, "lon": 125.3998858, "tags": {"place": "hamlet"}}, {"type": "node", "id": 8757626790, "lat": 5.6009199, "lon": 125.3858471, "tags": {"place": "hamlet"}}, {"type": "node", "id": 8757626791, "lat": 5.5872551, "lon": 125.3814456, "tags": {"place": "hamlet"}}, {"type": "node", "id": 8757626792, "lat": 5.607596, "lon": 125.3831461, "tags": {"place": "hamlet"}}, {"type": "node", "id": 8757626793, "lat": 5.6300557, "lon": 125.4088229, "tags": {"place": "hamlet"}}, {"type": "node", "id": 8757626794, "lat": 5.6618005, "lon": 125.4324156, "tags": {"place": "hamlet"}}, {"type": "node", "id": 8757626799, "lat": 5.5755226, "lon": 125.350804, "tags": {"place": "hamlet"}}, {"type": "node", "id": 8757626800, "lat": 5.5751703, "lon": 125.3630644, "tags": {"place": "hamlet"}}, {"type": "node", "id": 8757626801, "lat": 5.5655332, "lon": 125.3994459, "tags": {"place": "hamlet"}}, {"type": "node", "id": 8757626802, "lat": 5.5733336, "lon": 125.3896344, "tags": {"place": "hamlet"}}, {"type": "node", "id": 8757626807, "lat": 5.6633753, "lon": 125.3878856, "tags": {"place": "hamlet"}}, {"type": "node", "id": 8757626808, "lat": 5.6511559, "lon": 125.3919518, "tags": {"place": "hamlet"}}, {"type": "node", "id": 8757626809, "lat": 5.717764, "lon": 125.4331076, "tags": {"place": "hamlet"}}, {"type": "node", "id": 8757626810, "lat": 5.7234539, "lon": 125.4355913, "tags": {"place": "hamlet"}}, {"type": "node", "id": 8757626828, "lat": 5.7148576, "lon": 125.4040781, "tags": {"place": "hamlet"}}, {"type": "node", "id": 8757626829, "lat": 5.6894733, "lon": 125.4236555, "tags": {"place": "hamlet"}}, {"type": "node", "id": 8757626830, "lat": 5.6637276, "lon": 125.4390299, "tags": {"place": "hamlet"}}, {"type": "node", "id": 8757626831, "lat": 5.6691005, "lon": 125.4409611, "tags": {"place": "hamlet"}}, {"type": "node", "id": 8757626838, "lat": 5.6977898, "lon": 125.4368412, "tags": {"place": "hamlet"}}, {"type": "node", "id": 8757626839, "lat": 5.6932206, "lon": 125.4355806, "tags": {"place": "hamlet"}}, {"type": "node", "id": 8757626840, "lat": 5.7223083, "lon": 125.4199601, "tags": {"place": "hamlet"}}, {"type": "node", "id": 8757626842, "lat": 5.6910907, "lon": 125.4156733, "tags": {"place": "hamlet"}}, {"type": "node", "id": 8757626843, "lat": 5.6784129, "lon": 125.3879177, "tags": {"place": "hamlet"}}, {"type": "node", "id": 8757626844, "lat": 5.6897455, "lon": 125.3932714, "tags": {"place": "hamlet"}}, {"type": "node", "id": 8757626845, "lat": 5.7073927, "lon": 125.4142195, "tags": {"place": "hamlet"}}, {"type": "node", "id": 8757626846, "lat": 5.6857927, "lon": 125.4081202, "tags": {"place": "hamlet"}}, {"type": "node", "id": 8757626847, "lat": 5.6763257, "lon": 125.4011679, "tags": {"place": "hamlet"}}, {"type": "node", "id": 8757626848, "lat": 5.6712651, "lon": 125.394929, "tags": {"place": "hamlet"}}, {"type": "node", "id": 8757626849, "lat": 5.6698398, "lon": 125.384742, "tags": {"place": "hamlet"}}, {"type": "node", "id": 8757626850, "lat": 5.6394408, "lon": 125.3784656, "tags": {"place": "hamlet"}}, {"type": "node", "id": 8757626851, "lat": 5.6191303, "lon": 125.3829315, "tags": {"place": "hamlet"}}, {"type": "node", "id": 8757626852, "lat": 5.5951593, "lon": 125.3981638, "tags": {"place": "hamlet"}}, {"type": "node", "id": 8757626853, "lat": 5.6946832, "lon": 125.3902513, "tags": {"place": "hamlet"}}, {"type": "node", "id": 8757626854, "lat": 5.6944483, "lon": 125.4065323, "tags": {"place": "hamlet"}}, {"type": "node", "id": 8757626855, "lat": 5.6451823, "lon": 125.4156893, "tags": {"place": "hamlet"}}, {"type": "node", "id": 8757626856, "lat": 5.6388002, "lon": 125.418224, "tags": {"place": "hamlet"}}, {"type": "node", "id": 8757626857, "lat": 5.6355624, "lon": 125.4229796, "tags": {"place": "hamlet"}}, {"type": "node", "id": 8757626858, "lat": 5.6308325, "lon": 125.4333597, "tags": {"place": "hamlet"}}, {"type": "node", "id": 8757626859, "lat": 5.6336299, "lon": 125.4274321, "tags": {"place": "hamlet"}}, {"type": "node", "id": 8757626860, "lat": 5.6499975, "lon": 125.41246, "tags": {"place": "hamlet"}}, {"type": "node", "id": 8757626861, "lat": 5.6551917, "lon": 125.4060924, "tags": {"place": "hamlet"}}, {"type": "node", "id": 8757626862, "lat": 5.6267859, "lon": 125.3750002, "tags": {"place": "hamlet"}}, {"type": "node", "id": 8757626863, "lat": 5.5671243, "lon": 125.3294295, "tags": {"place": "hamlet"}}, {"type": "node", "id": 8757626864, "lat": 5.5630745, "lon": 125.370698, "tags": {"place": "hamlet"}}, {"type": "node", "id": 8757626865, "lat": 5.5691104, "lon": 125.3904229, "tags": {"place": "hamlet"}}, {"type": "node", "id": 8757626866, "lat": 5.6045289, "lon": 125.3688097, "tags": {"place": "hamlet"}}, {"type": "node", "id": 8757626867, "lat": 5.6026924, "lon": 125.4082274, "tags": {"place": "hamlet"}}, {"type": "node", "id": 8757626868, "lat": 5.6063414, "lon": 125.3977051, "tags": {"place": "hamlet"}}, {"type": "node", "id": 8757626869, "lat": 5.5769615, "lon": 125.343444, "tags": {"place": "hamlet"}}, {"type": "node", "id": 8757626870, "lat": 5.567466, "lon": 125.3654516, "tags": {"place": "hamlet"}}, {"type": "node", "id": 8757626871, "lat": 5.5928769, "lon": 125.4241651, "tags": {"place": "hamlet"}}, {"type": "node", "id": 8757626872, "lat": 5.6415148, "lon": 125.4394752, "tags": {"place": "hamlet"}}, {"type": "node", "id": 8827993294, "lat": 5.6960683, "lon": 125.2886197, "tags": {"admin_level": "10", "admin_type:PH": "barangay", "ele": "20", "is_in:municipality": "Glan", "name": "Pangyan", "place": "village", "postal_code": "9517"}}, {"type": "node", "id": 9198127748, "lat": 5.6733844, "lon": 125.3689384, "tags": {"place": "hamlet"}}, {"type": "node", "id": 9208833082, "lat": 5.723139, "lon": 125.3354229, "tags": {"fixme": "name", "place": "neighbourhood"}}, {"type": "node", "id": 9208901269, "lat": 5.7192372, "lon": 125.3146103, "tags": {"fixme": "name", "place": "hamlet"}}, {"type": "node", "id": 9208902361, "lat": 5.6687855, "lon": 125.3464857, "tags": {"admin_level": "11", "admin_type:PH": "purok", "is_in:barangay": "Batotuling", "is_in:municipality": "Glan", "name": "Kabangkalan", "place": "neighbourhood"}}, {"type": "node", "id": 9208902362, "lat": 5.6684839, "lon": 125.3450319, "tags": {"admin_level": "10", "admin_type:PH": "barangay", "is_in:town": "Glan", "name": "Batotuling", "place": "village", "source:name": "extrapolated from OSMaPaaralan, way/997316840"}}, {"type": "node", "id": 9208902405, "lat": 5.6608696, "lon": 125.3100838, "tags": {"admin_level": "10", "admin_type:PH": "barangay", "is_in:municipality": "Glan", "name": "Small Margus", "place": "village", "postal_code": "9517"}}, {"type": "node", "id": 11966113191, "lat": 5.6479908, "lon": 125.315264, "tags": {"admin_level": "10", "admin_type:PH": "barangay", "is_in:municipality": "Glan", "name": "Big Margus", "place": "village", "postal_code": "9517"}}]}