{"version": 0.6, "generator": "Overpass API 0.7.62.5 1bd436f1", "osm3s": {"timestamp_osm_base": "2025-05-24T18:04:28Z", "copyright": "The data included in this document is from www.openstreetmap.org. The data is made available under ODbL."}, "elements": [{"type": "node", "id": 198504950, "lat": 10.3200557, "lon": 125.5589422, "tags": {"admin_level": "6", "gns_classification": "ADM2", "gns_uni": "-3384868", "is_in:province": "Dinagat Islands", "name": "Tubajon", "place": "town", "place:PH": "municipality", "population": "8276", "population:date": "2015-08-01", "source": "GNS", "source:population": "Philippine Statistics Authority", "wikidata": "Q314374", "wikimedia_commons": "Category:Tubajon", "wikipedia": "en:Tubajon"}}, {"type": "node", "id": 198518631, "lat": 10.3595571, "lon": 125.5788866, "tags": {"admin_level": "6", "admin_type:PH": "municipality", "name": "Loreto", "old_ref": "168505000", "place": "town", "population": "9690", "population:date": "2020-05-01", "ref": "1608505000", "source:population": "Philippine Statistics Authority", "wikidata": "Q314356", "wikimedia_commons": "Category:Loreto, Dinagat Islands", "wikipedia": "en:Loreto, Dinagat Islands"}}, {"type": "node", "id": 198531026, "lat": 10.1941944, "lon": 125.5316075, "tags": {"admin_level": "6", "gns_classification": "ADM2", "gns_uni": "-3353964", "is_in:province": "Dinagat Islands", "name": "Libjo", "place": "town", "place:PH": "municipality", "population": "17760", "population:date": "2015-08-01", "source": "GNS", "source:population": "Philippine Statistics Authority", "wikidata": "Q314345", "wikimedia_commons": "Category:Libjo", "wikipedia": "en:Libjo"}}, {"type": "node", "id": 1595816413, "lat": 10.3931781, "lon": 125.6099283, "tags": {"admin_level": "10", "admin_type:PH": "barangay", "name": "Esperanza", "old_ref": "168505002", "place": "village", "population": "1388", "population:date": "2020-05-01", "ref": "1608505002", "source:population": "Philippine Statistics Authority", "wikidata": "Q107133386"}}, {"type": "node", "id": 1595833080, "lat": 10.4448369, "lon": 125.6181181, "tags": {"name": "Campintac", "place": "hamlet"}}, {"type": "node", "id": 4541208286, "lat": 10.3198531, "lon": 125.5846201, "tags": {"admin_level": "10", "is_in": "Loreto,Dinagat Islands,Philippines", "name": "Mabini", "place": "village", "place:PH": "barangay"}}, {"type": "node", "id": 4914963130, "lat": 10.4322676, "lon": 125.4927585, "tags": {"admin_level": "10", "admin_type:PH": "barangay", "alt_name": "Hibuson", "name": "Liberty", "old_name": "Tinago", "old_ref": "168505006", "place": "village", "population": "730", "population:date": "2020-05-01", "ref": "1608505006", "source:population": "Philippine Statistics Authority", "wikidata": "Q107133390"}}, {"type": "node", "id": 6243971732, "lat": 10.4499292, "lon": 125.4954736, "tags": {"admin_level": "10", "admin_type:PH": "barangay", "alt_name": "Dahican", "name": "Helene", "old_ref": "168505004", "place": "village", "population": "295", "population:date": "2020-05-01", "ref": "1608505004", "source:population": "Philippine Statistics Authority", "wikidata": "Q107133389"}}, {"type": "node", "id": 6253525480, "lat": 10.4539563, "lon": 125.4869557, "tags": {"name": "Little Dahican", "place": "hamlet"}}, {"type": "node", "id": 7477621996, "lat": 10.1884141, "lon": 125.6475017, "tags": {"admin_level": "10", "admin_type:PH": "barangay", "is_in:municipality": "Libjo", "name": "Bayanihan", "old_ref": "168504003", "place": "village", "population": "911", "population:date": "2020-05-01"}}, {"type": "node", "id": 7477671045, "lat": 10.4170913, "lon": 125.614925, "tags": {"admin_level": "10", "admin_type:PH": "barangay", "name": "Panamaon", "old_ref": "168505011", "place": "village", "population": "1423", "population:date": "2020-05-01", "ref": "1608505011", "source:population": "Philippine Statistics Authority", "wikidata": "Q107133392"}}, {"type": "node", "id": 7679903448, "lat": 10.279032, "lon": 125.5856428, "tags": {"name": "Navarro", "place": "village"}}, {"type": "node", "id": 7679936338, "lat": 10.3017793, "lon": 125.6023032, "tags": {"name": "Diaz", "old_name": "Romualdez", "place": "village"}}, {"type": "node", "id": 7679984386, "lat": 10.2834044, "lon": 125.5281185, "tags": {"name": "Imelda", "place": "village"}}, {"type": "node", "id": 7682463437, "lat": 10.2203624, "lon": 125.5310897, "tags": {"admin_level": "11", "admin_type:PH": "purok", "name": "Purok 10", "place": "neighbourhood"}}, {"type": "node", "id": 7686255661, "lat": 10.3123165, "lon": 125.5920638, "tags": {"name": "Carac-an", "place": "neighbourhood"}}, {"type": "node", "id": 8806808537, "lat": 10.376313, "lon": 125.5498253, "tags": {"admin_level": "10", "admin_type:PH": "barangay", "name": "Ferdinand", "old_ref": "168505003", "place": "village", "population": "242", "population:date": "2020-05-01", "ref": "1608505003", "source:population": "Philippine Statistics Authority", "wikidata": "Q107133387"}}, {"type": "node", "id": 9242648423, "lat": 10.1886972, "lon": 125.6475247, "tags": {"admin_level": "11", "admin_type:PH": "purok", "is_in:barangay": "Bayanihan", "is_in:municipality": "Libjo", "name": "Purok 1", "place": "neighbourhood"}}, {"type": "node", "id": 9242756093, "lat": 10.1777717, "lon": 125.5621393, "tags": {"admin_level": "10", "admin_type:PH": "barangay", "is_in:town": "Libjo", "name": "San Jose", "old_ref": "168504013", "place": "village", "population": "1736", "population:2015": "1639", "population:date": "2020-05-01", "ref": "1608504013", "source:name": "extrapolated from OSMaPaaralan, way/799532064", "source:population": "Philippine Statistics Authority"}}, {"type": "node", "id": 9243034732, "lat": 10.2556819, "lon": 125.61921, "tags": {"admin_level": "11", "admin_type:PH": "purok", "is_in:barangay": "Malinao", "is_in:municipality": "Tubajon", "name": "Purok 3", "place": "neighbourhood"}}, {"type": "node", "id": 9243034764, "lat": 10.2558369, "lon": 125.6191718, "tags": {"admin_level": "10", "admin_type:PH": "barangay", "is_in:municipality": "Tubajon", "name": "Malinao", "old_ref": "168507003", "place": "village", "population": "1707", "population:2015": "1969", "population:date": "2020-05-01"}}, {"type": "node", "id": 9243081269, "lat": 10.269523, "lon": 125.6519859, "tags": {"admin_level": "11", "admin_type:PH": "sitio", "is_in:quarter": "Santiago", "is_in:town": "Loreto", "name": "Busay", "place": "hamlet", "source:name": "extrapolated from OSMaPaaralan, way/1001390691"}}, {"type": "node", "id": 9356829136, "lat": 10.2571164, "lon": 125.6200884, "tags": {"admin_level": "11", "admin_type:PH": "purok", "is_in:barangay": "Malinao", "is_in:municipality": "Tubajon", "name": "Macapagal", "place": "neighbourhood"}}, {"type": "node", "id": 10872746621, "lat": 10.2005304, "lon": 125.5540967, "tags": {"admin_level": "10", "designation": "barangay", "is_in:town": "Libjo", "name": "General Aguinaldo", "place": "village"}}, {"type": "node", "id": 10941274541, "lat": 10.3641078, "lon": 125.5977483, "tags": {"admin_type:PH": "sitio", "is_in": "Santiago;Loreto", "name": "Cambinliw", "place": "neighbourhood"}}, {"type": "node", "id": 10941274593, "lat": 10.3665998, "lon": 125.598329, "tags": {"admin_level": "10", "admin_type:PH": "barangay", "is_in:town": "Loreto", "name": "Santiago", "old_ref": "168505017", "place": "village", "population": "1707", "population:2015": "1725", "ref": "1608505017", "source:population": "Philippine Statistics Authority"}}]}