{"version": 0.6, "generator": "Overpass API 0.7.62.5 1bd436f1", "osm3s": {"timestamp_osm_base": "2025-05-24T17:53:13Z", "copyright": "The data included in this document is from www.openstreetmap.org. The data is made available under ODbL."}, "elements": [{"type": "node", "id": 198492740, "lat": 16.3402627, "lon": 121.6831159, "tags": {"admin_level": "6", "admin_type:PH": "municipality", "name": "Maddela", "place": "town", "population": "40943", "population:date": "2020-05-01", "ref": "025704000", "source:population": "Philippine Statistics Authority", "website": "http://maddela-quirino.gov.ph/", "wikidata": "Q53072", "wikimedia_commons": "Category:Maddela, Quirino", "wikipedia": "en:Maddela"}}, {"type": "node", "id": 1133983011, "lat": 16.008347, "lon": 121.3397075, "tags": {"admin_level": "10", "admin_type:PH": "barangay", "is_in:town": "Alfonso Casta\u00f1eda", "name": "Pelaway", "place": "village"}}, {"type": "node", "id": 2168979927, "lat": 16.4202991, "lon": 121.6381828, "tags": {"admin_level": "10", "admin_type:PH": "barangay", "is_in:town": "Aglipay", "name": "Villa Santiago", "place": "village"}}, {"type": "node", "id": 2187923643, "lat": 16.3445411, "lon": 121.3929933, "tags": {"is_in:state": "Nueva Viscaya", "is_in:town": "Kasibu", "name": "Catarawan", "place": "village"}}, {"type": "node", "id": 2270445724, "lat": 16.2177804, "lon": 121.6053532, "tags": {"admin_level": "6", "admin_type:PH": "municipality", "name": "Nagtipunan", "place": "town", "population": "25399", "population:date": "2020-05-01", "ref": "025706000", "source:population": "Philippine Statistics Authority", "website": "http://www.nagtipunan-quirino.gov.ph/", "wikidata": "Q53073", "wikimedia_commons": "Category:Nagtipunan", "wikipedia": "en:Nagtipunan"}}, {"type": "node", "id": 2331508246, "lat": 16.3351396, "lon": 121.4581342, "tags": {"is_in:province": "Nueva Viscaya", "is_in:town": "Kasibu", "name": "Didipio", "place": "village"}}, {"type": "node", "id": 3719888423, "lat": 16.088641, "lon": 121.3500939, "tags": {"admin_level": "10", "designation": "barangay", "is_in:town": "Dupax del Norte", "name": "New Gumiad", "place": "village", "postal_code": "3706"}}, {"type": "node", "id": 4393678383, "lat": 16.3488802, "lon": 121.7027889, "tags": {"admin_level": "10", "admin_type:PH": "barangay", "is_in:town": "Maddela", "name": "San Pedro", "place": "village", "population": "1231", "ref": "025704024", "source:population": "PSA Census 2020", "source:ref": "PSA"}}, {"type": "node", "id": 4394262532, "lat": 16.4064158, "lon": 121.8007145, "tags": {"admin_level": "10", "admin_type:PH": "barangay", "is_in:town": "Maddela", "name": "San Dionisio", "official_name": "San Dionisio \u2160", "old_ref": "025704021", "place": "village", "population": "634", "population:2015": "595", "ref": "0205704021", "source:population": "Philippine Statistics Authority"}}, {"type": "node", "id": 4394267901, "lat": 16.3439768, "lon": 121.723865, "tags": {"admin_level": "10", "admin_type:PH": "barangay", "name": "Villa Agullana", "place": "village", "population": "539", "ref": "025704034", "source:population": "PSA Census 2020"}}, {"type": "node", "id": 4394405603, "lat": 16.362015, "lon": 121.7531113, "tags": {"admin_level": "10", "admin_type:PH": "barangay", "name": "Villa Jose Ylanan", "place": "village"}}, {"type": "node", "id": 4394437084, "lat": 16.3172468, "lon": 121.7167186, "tags": {"name": "Kaboa-An", "place": "village"}}, {"type": "node", "id": 4394710807, "lat": 16.0096773, "lon": 121.6684929, "tags": {"admin_level": "10", "admin_type:PH": "barangay", "is_in:town": "Dipaculao", "name": "Dianed", "place": "village"}}, {"type": "node", "id": 4574509151, "lat": 16.1240925, "lon": 121.7892516, "tags": {"fixme": "name", "place": "neighbourhood"}}, {"type": "node", "id": 5243386790, "lat": 16.3649635, "lon": 121.355204, "tags": {"name": "Papaya", "place": "village"}}, {"type": "node", "id": 5243386791, "lat": 16.3513336, "lon": 121.3741063, "tags": {"admin_level": "10", "designation": "barangay", "name": "Malabing", "place": "village"}}, {"type": "node", "id": 5243386793, "lat": 16.3174167, "lon": 121.3793744, "tags": {"name": "Pao", "place": "village"}}, {"type": "node", "id": 5243386794, "lat": 16.3372662, "lon": 121.3939808, "tags": {"name": "Kakiduguen", "place": "village"}}, {"type": "node", "id": 5243386795, "lat": 16.3732836, "lon": 121.3966602, "tags": {"admin_level": "10", "designation": "barangay", "name": "Binogawan", "place": "village"}}, {"type": "node", "id": 5243548698, "lat": 16.4154096, "lon": 121.3756497, "tags": {"name": "Binogawan", "place": "village"}}, {"type": "node", "id": 5243548699, "lat": 16.4004583, "lon": 121.36934, "tags": {"name": "Malabing", "place": "village"}}, {"type": "node", "id": 5243548700, "lat": 16.4113973, "lon": 121.3843445, "tags": {"name": "Wangal", "place": "village"}}, {"type": "node", "id": 5243548701, "lat": 16.37154, "lon": 121.4214486, "tags": {"name": "Camamasi", "place": "village"}}, {"type": "node", "id": 5243548929, "lat": 16.3954208, "lon": 121.418114, "tags": {"name": "Capisanan", "place": "village"}}, {"type": "node", "id": 5247948108, "lat": 16.2706133, "lon": 121.3424028, "tags": {"name": "Paquet", "place": "village"}}, {"type": "node", "id": 5258541759, "lat": 16.0766854, "lon": 121.7692745, "tags": {"name": "Dinadiawan", "place": "village"}}, {"type": "node", "id": 5740760567, "lat": 16.3127732, "lon": 121.7434927, "tags": {"name": "Purok 1", "place": "hamlet"}}, {"type": "node", "id": 5740760575, "lat": 16.3168184, "lon": 121.7566085, "tags": {"admin_level": "10", "admin_type:PH": "barangay", "name": "Villa Gracia", "place": "village", "population": "904", "ref": "025704028", "source": "Schadow1 Expeditions;Philippine Census 2020, PSA"}}, {"type": "node", "id": 5740761447, "lat": 16.25345, "lon": 121.7192961, "tags": {"name": "Purok 2", "place": "hamlet"}}, {"type": "node", "id": 5740761449, "lat": 16.1740765, "lon": 121.7635844, "tags": {"name": "Purok 7", "place": "hamlet"}}, {"type": "node", "id": 5740761452, "lat": 16.1863042, "lon": 121.7631219, "tags": {"name": "Purok 8", "place": "hamlet"}}, {"type": "node", "id": 5740761460, "lat": 16.2182449, "lon": 121.7394858, "tags": {"name": "Purok 9", "place": "neighbourhood"}}, {"type": "node", "id": 5740761463, "lat": 16.2173356, "lon": 121.7248253, "tags": {"name": "Purok 6", "place": "hamlet"}}, {"type": "node", "id": 5740761467, "lat": 16.2503902, "lon": 121.7062035, "tags": {"name": "Purok 1", "place": "hamlet"}}, {"type": "node", "id": 5740761468, "lat": 16.2557047, "lon": 121.6959469, "tags": {"name": "Purok 1", "place": "hamlet"}}, {"type": "node", "id": 5740761478, "lat": 16.1823423, "lon": 121.5852771, "tags": {"name": "Purok 6", "place": "hamlet"}}, {"type": "node", "id": 5740761479, "lat": 16.1980873, "lon": 121.5831566, "tags": {"name": "Purok 5", "place": "hamlet"}}, {"type": "node", "id": 5740761480, "lat": 16.2010034, "lon": 121.581765, "tags": {"name": "Purok 4", "place": "hamlet"}}, {"type": "node", "id": 5740761481, "lat": 16.2019878, "lon": 121.5826808, "tags": {"name": "Purok 3", "place": "hamlet"}}, {"type": "node", "id": 5740761484, "lat": 16.2104106, "lon": 121.5852618, "tags": {"name": "Purok 2", "place": "hamlet"}}, {"type": "node", "id": 5740802687, "lat": 16.3912001, "lon": 121.782018, "tags": {"admin_level": "11", "admin_type:PH": "purok", "name": "Purok 2", "place": "hamlet"}}, {"type": "node", "id": 7106478945, "lat": 15.9854825, "lon": 121.6506174, "tags": {"is_in:province": "Aurora", "is_in:town": "Dipaculao", "name": "Borlongan", "place": "village"}}, {"type": "node", "id": 7469252079, "lat": 16.1296694, "lon": 121.7905696, "tags": {"name": "Calaocan", "place": "village"}}, {"type": "node", "id": 7821561062, "lat": 16.3877683, "lon": 121.5254507, "tags": {"name": "Dingasan", "place": "village", "population": "1573", "ref": "025702014", "source:population": "PSA 2020 Census"}}, {"type": "node", "id": 7821561063, "lat": 16.3985931, "lon": 121.4602979, "tags": {"admin_level": "10", "admin_type:PH": "barangay", "is_in:town": "Cabarroguis", "name": "Tucod", "old_ref": "025702015", "place": "village", "population": "1932", "ref": "0205702015", "source:population": "Philippine Statistics Authority"}}, {"type": "node", "id": 8176923501, "lat": 16.1574177, "lon": 121.5522087, "tags": {"place": "hamlet"}}, {"type": "node", "id": 8176923502, "lat": 16.1369088, "lon": 121.5394856, "tags": {"name": "Wasid", "place": "village", "population": "1444", "ref": "025706015", "source": "Philippine Census 2020, PSA"}}, {"type": "node", "id": 8176923503, "lat": 16.1286954, "lon": 121.490432, "tags": {"place": "hamlet"}}, {"type": "node", "id": 8176923550, "lat": 16.0694188, "lon": 121.4221108, "tags": {"admin_level": "10", "admin_type:PH": "barangay", "name": "Matmad", "place": "village"}}, {"type": "node", "id": 8176923583, "lat": 16.0158066, "lon": 121.4242566, "tags": {"admin_level": "11", "admin_type:PH": "sitio", "is_in:town": "Nagtipunan", "name": "Comgang", "place": "hamlet"}}, {"type": "node", "id": 8176923584, "lat": 16.0037459, "lon": 121.3993871, "tags": {"place": "hamlet"}}, {"type": "node", "id": 8176924529, "lat": 16.028707, "lon": 121.3502008, "tags": {"admin_level": "11", "admin_type:PH": "sitio", "is_in:town": "Alfonso Casta\u00f1eda", "is_in:village": "Pelaway", "name": "Tayug", "place": "hamlet"}}, {"type": "node", "id": 8178885719, "lat": 16.2204231, "lon": 121.7145359, "tags": {"admin_level": "11", "admin_type:PH": "sitio", "is_in:town": "Nagtipunan", "is_in:village": "Disimungal", "name": "Tilitilan", "place": "hamlet"}}, {"type": "node", "id": 8178885720, "lat": 16.2232986, "lon": 121.6572012, "tags": {"admin_level": "10", "admin_type:PH": "barangay", "name": "Anak", "place": "village", "population": "1674", "ref": "025706001", "source": "Philippine Census 2020, PSA"}}, {"type": "node", "id": 8178885784, "lat": 16.170229, "lon": 121.6054586, "tags": {"place": "hamlet"}}, {"type": "node", "id": 8178886757, "lat": 16.1907466, "lon": 121.6088355, "tags": {"admin_level": "10", "admin_type:PH": "barangay", "name": "San Ramos", "place": "village"}}, {"type": "node", "id": 8178887104, "lat": 16.1639587, "lon": 121.5517822, "tags": {"place": "hamlet"}}, {"type": "node", "id": 8178887664, "lat": 16.126593, "lon": 121.3937413, "tags": {"admin_level": "10", "name": "Keat", "place": "village"}}, {"type": "node", "id": 8178888169, "lat": 16.2450221, "lon": 121.3500211, "tags": {"place": "hamlet"}}, {"type": "node", "id": 8195100756, "lat": 16.3900147, "lon": 121.6398257, "tags": {"admin_level": "11", "admin_type:PH": "purok", "is_in:barangay": "Osme\u00f1a", "is_in:municipality": "Aglipay", "name": "Purok 7", "place": "neighbourhood"}}, {"type": "node", "id": 8195100757, "lat": 16.3847087, "lon": 121.6218334, "tags": {"admin_level": "10", "admin_type:PH": "barangay", "name": "San Manuel", "place": "village"}}, {"type": "node", "id": 8195100758, "lat": 16.3694588, "lon": 121.6481674, "tags": {"place": "hamlet"}}, {"type": "node", "id": 8195100759, "lat": 16.3831441, "lon": 121.6934109, "tags": {"admin_level": "11", "admin_type:PH": "sitio", "is_in:barangay": "San Bernabe", "name": "Nibanan", "place": "hamlet"}}, {"type": "node", "id": 8195100786, "lat": 16.3687331, "lon": 121.7001378, "tags": {"admin_level": "10", "admin_type:PH": "barangay", "name": "San Bernabe", "place": "village"}}, {"type": "node", "id": 8195100787, "lat": 16.3969314, "lon": 121.7305487, "tags": {"admin_level": "10", "admin_type:PH": "barangay", "name": "Divisoria Norte", "place": "village"}}, {"type": "node", "id": 8195100788, "lat": 16.3938745, "lon": 121.7165047, "tags": {"admin_level": "10", "admin_type:PH": "barangay", "name": "Cofcaville", "place": "village"}}, {"type": "node", "id": 8195100789, "lat": 16.3738147, "lon": 121.7248793, "tags": {"admin_level": "10", "admin_type:PH": "barangay", "name": "Divisoria Sur", "place": "village", "population": "1461", "ref": "025704013", "source:population": "PSA Census 2020", "source:ref": "PSA"}}, {"type": "node", "id": 8195100909, "lat": 16.2899837, "lon": 121.7656267, "tags": {"alt_name": "Sitio Dialanese", "ele": "260", "is_in:barangay": "Villa Gracia", "is_in:municipality": "Maddela", "name": "Dialanese", "place": "hamlet"}}, {"type": "node", "id": 8195101671, "lat": 16.3650478, "lon": 121.63297, "tags": {"admin_level": "10", "admin_type:PH": "barangay", "name": "Balligui", "place": "village"}}, {"type": "node", "id": 8195101672, "lat": 16.3733447, "lon": 121.6697109, "tags": {"admin_level": "10", "admin_type:PH": "barangay", "name": "Santa Maria", "place": "village"}}, {"type": "node", "id": 8195101673, "lat": 16.3174031, "lon": 121.6559699, "tags": {"place": "village"}}, {"type": "node", "id": 8195101674, "lat": 16.3206543, "lon": 121.6464937, "tags": {"place": "village"}}, {"type": "node", "id": 8195101675, "lat": 16.2913511, "lon": 121.6464071, "tags": {"name": "Cabaruan", "place": "village", "population": "1911", "ref": "025704006", "source:population": "PSA Census 2020", "source:ref": "PSA"}}, {"type": "node", "id": 8195101858, "lat": 16.3303173, "lon": 121.6151494, "tags": {"place": "hamlet"}}, {"type": "node", "id": 8195101859, "lat": 16.3162988, "lon": 121.6003302, "tags": {"place": "hamlet"}}, {"type": "node", "id": 8195101860, "lat": 16.3025651, "lon": 121.59109, "tags": {"place": "hamlet"}}, {"type": "node", "id": 8195102002, "lat": 16.3270535, "lon": 121.6047049, "tags": {"admin_level": "11", "designation": "sitio", "is_in:village": "Jose Ancheta", "name": "Mataga-ay", "place": "hamlet"}}, {"type": "node", "id": 8196349067, "lat": 16.4012593, "lon": 121.6547871, "tags": {"admin_level": "10", "admin_type:PH": "barangay", "name": "Osme\u00f1a", "place": "village"}}, {"type": "node", "id": 8196351980, "lat": 16.4152408, "lon": 121.7455906, "tags": {"admin_level": "10", "admin_type:PH": "barangay", "name": "Palacian", "place": "village"}}, {"type": "node", "id": 8196351981, "lat": 16.4199234, "lon": 121.7356181, "tags": {"admin_level": "10", "admin_type:PH": "barangay", "name": "Panang", "place": "village"}}, {"type": "node", "id": 8196352225, "lat": 16.365089, "lon": 121.6179711, "tags": {"admin_level": "11", "is_in:village": "Balligui", "name": "Nagtim-og", "place": "hamlet"}}, {"type": "node", "id": 8196353302, "lat": 16.3948471, "lon": 121.5433896, "tags": {"place": "hamlet"}}, {"type": "node", "id": 8196353303, "lat": 16.3997488, "lon": 121.5085025, "tags": {"name": "Purok 8", "place": "neighbourhood"}}, {"type": "node", "id": 8215134353, "lat": 16.2804526, "lon": 121.4243638, "tags": {"place": "hamlet"}}, {"type": "node", "id": 8215134437, "lat": 16.2854474, "lon": 121.4093864, "tags": {"place": "hamlet"}}, {"type": "node", "id": 8215134824, "lat": 16.3244846, "lon": 121.392703, "tags": {"admin_level": "10", "designation": "barangay", "name": "Capisaan", "place": "village"}}, {"type": "node", "id": 8215135756, "lat": 16.2847368, "lon": 121.3618898, "tags": {"admin_level": "10", "designation": "barangay", "name": "Dine", "place": "village"}}, {"type": "node", "id": 8220554378, "lat": 16.4188531, "lon": 121.455397, "tags": {"place": "hamlet"}}, {"type": "node", "id": 8220554379, "lat": 16.4142142, "lon": 121.4469346, "tags": {"place": "hamlet"}}, {"type": "node", "id": 9105485459, "lat": 16.0911039, "lon": 121.3457563, "tags": {"admin_level": "10", "designation": "barangay", "is_in:town": "Nagtipunan", "name": "La Conwap", "old_name": "Guingin", "place": "village", "postal_code": "3405"}}, {"type": "node", "id": 9321550079, "lat": 16.2577388, "lon": 121.6270302, "tags": {"admin_level": "10", "admin_type:PH": "barangay", "name": "San Dionisio \u2161", "place": "village", "population": "4037", "ref": "025706011", "source": "Philippine Census 2020, PSA"}}, {"type": "node", "id": 9366407967, "lat": 16.2896762, "lon": 121.4818858, "tags": {"name": "Purok 2", "place": "neighbourhood"}}, {"type": "node", "id": 9366407968, "lat": 16.3259274, "lon": 121.5098156, "tags": {"admin_level": "11", "admin_type:PH": "sitio", "name": "Sitio Tubo", "place": "neighbourhood"}}, {"type": "node", "id": 9366407969, "lat": 16.3400464, "lon": 121.5178324, "tags": {"name": "Upper Dingasan", "place": "neighbourhood"}}, {"type": "node", "id": 9403990166, "lat": 16.3927593, "lon": 121.5284435, "tags": {"admin_level": "12", "admin_type:PH": "purok", "name": "Purok 1", "place": "neighbourhood"}}, {"type": "node", "id": 9403998035, "lat": 16.3612294, "lon": 121.5046002, "tags": {"admin_level": "11", "admin_type:PH": "sitio", "name": "Bantay Grande", "place": "neighbourhood"}}, {"type": "node", "id": 9421940576, "lat": 16.3915295, "lon": 121.7801148, "tags": {"admin_level": "10", "admin_type:PH": "barangay", "is_in:town": "Maddela", "name": "San Martin", "old_ref": "025704023", "place": "village", "population": "1082", "ref": "0205704023", "source:population": "Philippine Statistics Authority", "source:ref": "PSA"}}, {"type": "node", "id": 9421946567, "lat": 16.3378215, "lon": 121.6583681, "tags": {"admin_level": "10", "admin_type:PH": "barangay", "name": "Dumabato Sur", "place": "village", "population": "1461", "ref": "025704013", "source:population": "PSA Census 2020", "source:ref": "PSA"}}, {"type": "node", "id": 9422406160, "lat": 16.259365, "lon": 121.3897473, "tags": {"admin_level": "10", "designation": "barangay", "name": "Catarawan", "place": "village"}}, {"type": "node", "id": 9422426231, "lat": 16.2265319, "lon": 121.382854, "tags": {"admin_level": "10", "admin_type:PH": "barangay", "name": "Kakiduguen", "place": "village"}}, {"type": "node", "id": 9422531673, "lat": 16.2363386, "lon": 121.4079595, "tags": {"admin_level": "10", "admin_type:PH": "barangay", "name": "Biyoy", "place": "village"}}, {"type": "node", "id": 9422551164, "lat": 16.3098221, "lon": 121.472075, "tags": {"admin_level": "10", "admin_type:PH": "barangay", "name": "Alimit", "place": "village"}}, {"type": "node", "id": 9422579674, "lat": 16.3875598, "lon": 121.394704, "tags": {"admin_level": "10", "designation": "barangay", "name": "Tadji", "place": "village"}}, {"type": "node", "id": 9441353114, "lat": 16.2179818, "lon": 121.7395553, "tags": {"admin_level": "11", "name": "Junuan", "place": "hamlet"}}, {"type": "node", "id": 9441390814, "lat": 16.179281, "lon": 121.5838306, "tags": {"admin_level": "10", "admin_type:PH": "barangay", "name": "Landingan", "place": "village"}}, {"type": "node", "id": 9441620668, "lat": 16.2522827, "lon": 121.6676126, "tags": {"admin_level": "10", "admin_type:PH": "barangay", "name": "Sangbay", "place": "village", "population": "2093", "ref": "025706014", "source": "Philippine Census 2020, PSA"}}, {"type": "node", "id": 9441714411, "lat": 16.257147, "lon": 121.6273517, "tags": {"name": "Purok 1", "place": "neighbourhood"}}, {"type": "node", "id": 9476359026, "lat": 16.420968, "lon": 121.7023212, "tags": {"admin_level": "10", "admin_type:PH": "barangay", "name": "Santo Tomas", "place": "village"}}, {"type": "node", "id": 9476560618, "lat": 16.4098429, "lon": 121.6840124, "tags": {"admin_level": "10", "admin_type:PH": "barangay", "name": "San Salvador", "place": "village"}}, {"type": "node", "id": 10982611446, "lat": 16.3178897, "lon": 121.6855037, "tags": {"admin_level": "10", "designation": "barangay", "is_in:town": "Maddela", "name": "Manglad", "place": "village"}}, {"type": "node", "id": 11101063825, "lat": 16.3129831, "lon": 121.4818901, "tags": {"name": "Sitio Pukeg", "place": "neighbourhood"}}, {"type": "node", "id": 11135307854, "lat": 16.293144, "lon": 121.4668396, "tags": {"name": "Sitio Sinihpaten", "place": "neighbourhood"}}, {"type": "node", "id": 11261292945, "lat": 16.0605884, "lon": 121.7336762, "tags": {"admin_level": "11", "admin_type:PH": "sitio", "is_in:town": "Dipaculao", "is_in:village": "Dinadiawan", "name": "Ngasngas", "place": "hamlet"}}, {"type": "node", "id": 12690386706, "lat": 16.3578109, "lon": 121.6821456, "tags": {"admin_level": "10", "admin_type:PH": "barangay", "name": "Villa Hermosa Norte", "place": "village"}}, {"type": "node", "id": 12690386707, "lat": 16.3528848, "lon": 121.6777843, "tags": {"admin_level": "10", "admin_type:PH": "barangay", "name": "Villa Hermosa Sur", "place": "village"}}, {"type": "node", "id": 12690391252, "lat": 16.3760519, "lon": 121.5882039, "tags": {"admin_level": "11", "admin_type:PH": "sitio", "name": "Pinahiw", "place": "hamlet"}}, {"type": "node", "id": 12709636288, "lat": 16.2360039, "lon": 121.6161042, "tags": {"admin_level": "11", "admin_type:PH": "sitio", "is_in:town": "Nagtipunan", "is_in:village": "San Dionisio \u2161", "name": "Tapaw", "place": "hamlet"}}, {"type": "node", "id": 12709636289, "lat": 16.2392023, "lon": 121.5942067, "tags": {"admin_level": "11", "admin_type:PH": "sitio", "is_in:town": "Nagtipunan", "is_in:village": "San Dionisio \u2161", "name": "Tangliyao", "place": "hamlet"}}, {"type": "node", "id": 12709636290, "lat": 16.2038777, "lon": 121.5653515, "tags": {"admin_level": "11", "admin_type:PH": "sitio", "is_in:town": "Nagtipunan", "is_in:village": "Landingan", "name": "Kakidugen", "place": "hamlet"}}, {"type": "node", "id": 12709636291, "lat": 16.203342, "lon": 121.5420699, "tags": {"admin_level": "11", "admin_type:PH": "sitio", "is_in:town": "Nagtipunan", "is_in:village": "San Dionisio \u2161", "name": "Tamsi", "place": "hamlet"}}, {"type": "node", "id": 12709636299, "lat": 16.2730065, "lon": 121.6064912, "tags": {"admin_level": "10", "admin_type:PH": "barangay", "name": "Asaclat", "nat_name": "Asaklat", "place": "village"}}, {"type": "node", "id": 12709665140, "lat": 16.2204952, "lon": 121.6060272, "tags": {"admin_level": "10", "admin_type:PH": "barangay", "name": "Ponggo", "place": "village"}}, {"type": "node", "id": 12709680046, "lat": 16.3640801, "lon": 121.5298283, "tags": {"admin_level": "10", "admin_type:PH": "barangay", "is_in:town": "Aglipay", "name": "Alicia", "place": "village"}}, {"type": "node", "id": 12709698237, "lat": 16.2715518, "lon": 121.6553396, "tags": {"admin_level": "10", "admin_type:PH": "barangay", "name": "Abbag", "place": "village"}}, {"type": "node", "id": 12709698238, "lat": 16.2663121, "lon": 121.6486287, "tags": {"admin_level": "10", "admin_type:PH": "barangay", "name": "Dipantan", "place": "village"}}, {"type": "node", "id": 12709698239, "lat": 16.1886911, "lon": 121.6496533, "tags": {"admin_level": "11", "admin_type:PH": "sitio", "is_in:town": "Nagtipunan", "is_in:village": "San Ramos", "name": "Macabo", "place": "hamlet"}}, {"type": "node", "id": 12709698240, "lat": 16.1757908, "lon": 121.7651331, "tags": {"admin_level": "11", "admin_type:PH": "sitio", "is_in:town": "Nagtipunan", "is_in:village": "Dissimungal", "name": "Dicuraban", "place": "hamlet"}}, {"type": "node", "id": 12709698241, "lat": 16.1880832, "lon": 121.6729939, "tags": {"admin_level": "11", "admin_type:PH": "sitio", "is_in:town": "Nagtipunan", "is_in:village": "Anak", "name": "Tabiis", "place": "hamlet"}}, {"type": "node", "id": 12709698271, "lat": 16.2536332, "lon": 121.7192405, "tags": {"admin_level": "10", "admin_type:PH": "barangay", "name": "Dissimungal", "place": "village"}}, {"type": "node", "id": 12713035332, "lat": 16.1944815, "lon": 121.7580575, "tags": {"admin_level": "11", "admin_type:PH": "sitio", "name": "Pulang Lupa", "place": "hamlet"}}, {"type": "node", "id": 12713038120, "lat": 16.3002249, "lon": 121.5597027, "tags": {"admin_level": "11", "admin_type:PH": "sitio", "is_in:town": "Nagtipunan", "is_in:village": "San Dionisio \u2161", "name": "Didang", "place": "hamlet"}}, {"type": "node", "id": 12713244073, "lat": 16.2314508, "lon": 121.3501096, "tags": {"admin_level": "10", "admin_type:PH": "barangay", "is_in:town": "Kasibu", "name": "Pao", "place": "village"}}]}