{"version": 0.6, "generator": "Overpass API 0.7.62.5 1bd436f1", "osm3s": {"timestamp_osm_base": "2025-05-24T18:08:39Z", "copyright": "The data included in this document is from www.openstreetmap.org. The data is made available under ODbL."}, "elements": [{"type": "node", "id": 198525084, "lat": 8.7736019, "lon": 117.8389787, "tags": {"admin_level": "6", "gns_classification": "ADM2", "gns_uni": "-3332533", "is_in:province": "Palawan", "name": "Brooke's Point", "name:uk": "\u0411\u0440\u0443\u043a\u0441-\u041f\u043e\u0439\u043d\u0442", "place": "town", "place:PH": "municipality", "population": "66374", "population:date": "2015-08-01", "postal_code": "5305", "source": "GNS", "source:population": "Philippine Statistics Authority", "website": "http://brookespointpalawan.gov.ph/", "wikidata": "Q111386", "wikimedia_commons": "Category:Brooke's Point", "wikipedia": "en:Brooke's Point"}}, {"type": "node", "id": 2425729921, "lat": 8.7733153, "lon": 117.8317183}, {"type": "node", "id": 2425729936, "lat": 8.7772248, "lon": 117.8320624}, {"type": "node", "id": 4432010455, "lat": 8.7727448, "lon": 117.8334982}, {"type": "node", "id": 4432010456, "lat": 8.7728881, "lon": 117.8326708}, {"type": "node", "id": 4432037464, "lat": 8.7781769, "lon": 117.8338295}, {"type": "node", "id": 4432037465, "lat": 8.7769091, "lon": 117.8337392}, {"type": "node", "id": 4432037466, "lat": 8.7794369, "lon": 117.8318514}, {"type": "node", "id": 4432037467, "lat": 8.7793507, "lon": 117.8320673}, {"type": "node", "id": 4432037468, "lat": 8.7790645, "lon": 117.8323624}, {"type": "node", "id": 4432037469, "lat": 8.7783276, "lon": 117.832585}, {"type": "node", "id": 5649838726, "lat": 8.7773046, "lon": 117.8317011}, {"type": "node", "id": 7383913343, "lat": 8.777043, "lon": 117.8049359, "tags": {"admin_level": "10", "admin_type:PH": "barangay", "name": "Tubtub", "place": "village", "population": "2296", "population:2015": "1388", "ref": "175306026", "source:name": "extrapolated from OSMaPaaralan, way/789757193", "source:population": "Philippine Statistics Authority"}}, {"type": "node", "id": 8858859906, "lat": 8.8099093, "lon": 117.8486735, "tags": {"admin_level": "11", "admin_type:PH": "sitio", "is_in:quarter": "Pangobilian", "is_in:town": "Brooke's Point", "name": "Lada", "place": "hamlet", "source:name": "extrapolated from OSMaPaaralan, way/819745022"}}, {"type": "node", "id": 8858863018, "lat": 8.7929122, "lon": 117.8520745, "tags": {"admin_level": "11", "designation": "sitio", "is_in:quarter": "Pangobilian", "is_in:town": "Brooke's Point", "name": "Paratungan", "place": "neighbourhood", "source:name": "extrapolated from OSMaPaaralan"}}, {"type": "node", "id": 9108238620, "lat": 8.7484851, "lon": 117.7681064, "tags": {"admin_level": "10", "admin_type:PH": "barangay", "is_in:town": "Brooke's Point", "name": "Saraza", "place": "village", "population": "4131", "population:2015": "3529", "ref": "175306025", "source:population": "Philippine Statistics Authority"}}, {"type": "node", "id": 9108238634, "lat": 8.7761815, "lon": 117.7756758, "tags": {"admin_level": "10", "designation": "barangay", "is_in:town": "Brooke's Point", "name": "Amas", "place": "village"}}, {"type": "node", "id": 9108238667, "lat": 8.757829, "lon": 117.7900903, "tags": {"admin_level": "10", "admin_type:PH": "barangay", "designation": "barangay", "is_in:town": "Brooke's Point", "name": "Oring-oring", "place": "village", "population": "2231", "population:2015": "1892", "ref": "175306014"}}, {"type": "node", "id": 9108238673, "lat": 8.7948473, "lon": 117.8338498, "tags": {"admin_level": "10", "admin_type:PH": "barangay", "is_in:town": "Brooke's Point", "name": "Pangobilian", "place": "village", "population": "10368", "population:2015": "9581", "population:date": "2020-05-01", "ref": "175306015", "source:population": "Philippine Statistics Authority"}}, {"type": "way", "id": 445847470, "nodes": [4432010455, 4432010456, 2425729921, 2425729936, 4432037465, 4432010455], "tags": {"landuse": "residential", "name": "Edwards Subdivision", "place": "neighbourhood"}}, {"type": "way", "id": 445848406, "nodes": [4432037464, 4432037465, 2425729936, 5649838726, 4432037466, 4432037467, 4432037468, 4432037469, 4432037464], "tags": {"landuse": "residential", "name": "Blessed Ville", "place": "neighbourhood"}}]}