{"version": 0.6, "generator": "Overpass API 0.7.62.5 1bd436f1", "osm3s": {"timestamp_osm_base": "2025-05-24T18:02:29Z", "copyright": "The data included in this document is from www.openstreetmap.org. The data is made available under ODbL."}, "elements": [{"type": "node", "id": 198490579, "lat": 7.1180891, "lon": 124.3639908, "tags": {"admin_level": "6", "admin_type:PH": "municipality", "alt_name": "Mother Kabuntalan", "ele": "5", "is_in:province": "Maguindanao del Norte", "is_in:region": "BARMM", "name": "Kabuntalan", "official_name": "Municipality of Kabuntalan", "old_name": "Tumbao", "old_official_name": "Municipality of Tumbao", "old_ref": "153814000", "place": "town", "population": "25439", "population:date": "2020-05-01", "postal_code": "9606", "ref": "1903814000", "start_date": "1949-06-16", "wikidata": "Q212603", "wikimedia_commons": "Category:Kabuntalan", "wikipedia": "en:Kabuntalan"}}, {"type": "node", "id": 198491784, "lat": 7.3755802, "lon": 124.267482, "tags": {"admin_level": "6", "admin_type:PH": "municipality", "ele": "65", "is_in:province": "Maguindanao del Norte", "is_in:region": "BARMM", "name": "Parang", "official_name": "Municipality of Parang", "old_ref": "153811000", "place": "town", "population": "102914", "population:date": "2020-05-01", "postal_code": "9604", "ref": "1903811000", "start_date": "1947-08-18", "wikidata": "Q212748", "wikimedia_commons": "Category:Parang, Maguindanao del Norte", "wikipedia": "en:Parang, Maguindanao del Norte"}}, {"type": "node", "id": 198492689, "lat": 7.1894644, "lon": 124.5328759, "tags": {"admin_level": "6", "admin_subdivisions": "44 barangays", "admin_type:PH": "municipality", "contact:website": "https://midsayap.gov.ph", "ele": "20", "is_in:province": "North Cotabato", "name": "Midsayap", "official_name": "Municipality of Midsayap", "place": "town", "population": "117365", "population:date": "2020-05-01", "postal_code": "9410", "related_law": "Executive Order No. 66 s. 1936", "start_date": "1936-11-25", "was_in:municipality": "Datu Piang", "wikidata": "Q315283", "wikimedia_commons": "Category:Midsayap", "wikipedia": "en:Midsayap"}}, {"type": "node", "id": 198499869, "lat": 7.5093206, "lon": 124.127834, "tags": {"admin_level": "6", "gns_classification": "ADM2", "gns_uni": "-3326404", "is_in:province": "Lanao del Sur", "name": "Balabagan", "place": "town", "place:PH": "municipality", "population": "26819", "population:date": "2015-08-01", "source": "GNS", "source:population": "Philippine Statistics Authority", "wikidata": "Q273680", "wikimedia_commons": "Category:Balabagan", "wikipedia": "en:Balabagan"}}, {"type": "node", "id": 198506180, "lat": 7.2417, "lon": 124.5175504, "tags": {"admin_level": "6", "gns_classification": "ADM2", "gns_uni": "-3354084", "is_in:province": "Cotabato", "name": "Libungan", "place": "town", "place:PH": "municipality", "population": "48768", "population:date": "2015-08-01", "source": "GNS", "source:population": "Philippine Statistics Authority", "wikidata": "Q315190", "wikimedia_commons": "Category:Libungan", "wikipedia": "en:Libungan"}}, {"type": "node", "id": 198510016, "lat": 7.2785835, "lon": 124.424275, "tags": {"admin_level": "6", "admin_subdivisions": "28 barangays", "admin_type:PH": "municipality", "alt_name": "Pigkawayan", "ele": "20", "is_in:province": "North Cotabato", "name": "Pigcawayan", "official_name": "Municipality of Pigcawayan", "old_ref": "124711000", "place": "town", "population": "52744", "population:date": "2020-05-01", "postal_code": "9412", "ref": "1204711000", "start_date": "1953-09-30", "wikidata": "Q304654", "wikimedia_commons": "Category:Pigcawayan", "wikipedia": "en:Pigcawayan"}}, {"type": "node", "id": 198512896, "lat": 7.4705878, "lon": 124.355677, "tags": {"admin_level": "6", "admin_type:PH": "municipality", "ele": "235", "is_in:province": "Maguindanao del Norte", "is_in:region": "BARMM", "name": "Barira", "official_name": "Municipality of Barira", "old_ref": "153818000", "place": "town", "population": "36143", "population:date": "2020-05-01", "postal_code": "9614", "ref": "1903818000", "start_date": "1977-08-29", "wikidata": "Q212240", "wikimedia_commons": "Category:Barira", "wikipedia": "en:Barira"}}, {"type": "node", "id": 198524912, "lat": 7.4668478, "lon": 124.2585697, "tags": {"admin_level": "6", "admin_type:PH": "municipality", "ele": "270", "is_in:province": "Maguindanao del Norte", "is_in:region": "BARMM", "name": "Matanog", "official_name": "Municipality of Matanog", "old_ref": "153809000", "place": "town", "population": "36034", "population:date": "2020-05-01", "postal_code": "9613", "ref": "1903809000", "start_date": "1975-08-25", "wikidata": "Q212662", "wikimedia_commons": "Category:Matanog", "wikipedia": "en:Matanog"}}, {"type": "node", "id": 198529966, "lat": 7.271093, "lon": 124.2919201, "tags": {"admin_level": "6", "admin_subdivisions": "39 barangays", "admin_type:PH": "municipality", "ele": "35", "is_in:province": "Maguindanao del Norte", "is_in:region": "BARMM", "name": "Sultan Kudarat", "name:etymology": "Muhammad Dipatuan Kudarat", "name:etymology:wikidata": "Q1668453", "name:etymology:wikipedia": "en:Muhammad Kudarat", "official_name": "Municipality of Sultan Kudarat", "old_name": "Nuling", "old_official_name": "Municipality of Nuling", "old_ref": "153812000", "place": "town", "population": "105121", "population:date": "2020-05-01", "postal_code": "9605", "ref": "1903812000", "start_date": "1947-08-18", "wikidata": "Q212791", "wikimedia_commons": "Category:Sultan Kudarat, Maguindanao del Norte", "wikipedia": "en:Sultan Kudarat, Maguindanao del Norte"}}, {"type": "node", "id": 244475001, "lat": 7.2237628, "lon": 124.2467062, "tags": {"admin_level": "6", "admin_type:PH": "independent_component_city", "alt_name": "Kutawatu", "alt_name:hil": "Syudad sang Cotabato", "alt_name:mdh": "Kuta Wato", "capital": "3", "ele": "10", "is_in:province": "Maguindanao del Norte", "name": "Cotabato City", "name:en": "Cotabato City", "name:eu": "Cotabato Hiria", "name:ilp": "Kotawato", "name:ja": "\u30b3\u30bf\u30d0\u30c8", "name:mdh": "Kutawatu", "name:zh": "\u54e5\u6253\u5df4\u6258", "official_name": "City of Cotabato", "official_name:ceb": "Dakbayan sa Cotabato", "official_name:en": "City of Cotabato", "official_name:es": "Ciudad de Cotabato", "official_name:hil": "Dakbanwa sang Cotabato", "official_name:ilp": "Inged a Kotawato", "official_name:mdh": "Ingud nu Kutawatu", "official_name:tl": "Lungsod ng Cotabato", "old_ref": "1903804000", "place": "city", "population": "325079", "population:date": "2020-05-01", "postal_code": "9600", "ref": "1908703000", "short_name": "Cotabato", "start_date": "C13", "website": "https://ecotabatocity.ph/", "wikidata": "Q726993", "wikimedia_commons": "Category:Cotabato City", "wikipedia": "en:Cotabato City"}}, {"type": "node", "id": 816275694, "lat": 7.1873546, "lon": 124.2444409}, {"type": "node", "id": 1029498469, "lat": 7.2025333, "lon": 124.2300815}, {"type": "node", "id": 1029499409, "lat": 7.2047485, "lon": 124.2322567}, {"type": "node", "id": 1417032946, "lat": 7.2380268, "lon": 124.5091277, "tags": {"admin_level": "10", "admin_type:PH": "barangay", "is_in:municipality": "Libungan", "name": "Gumaga", "place": "village", "postal_code": "9411"}}, {"type": "node", "id": 1417037155, "lat": 7.2795532, "lon": 124.4812183, "tags": {"admin_level": "10", "admin_type:PH": "barangay", "is_in:municipality": "Libungan", "name": "Ulamian", "place": "village", "postal_code": "9411"}}, {"type": "node", "id": 1417275278, "lat": 7.2088057, "lon": 124.2323488}, {"type": "node", "id": 1417275281, "lat": 7.2039935, "lon": 124.2336846}, {"type": "node", "id": 1417275286, "lat": 7.2076104, "lon": 124.2284868}, {"type": "node", "id": 1418051656, "lat": 7.2095369, "lon": 124.2409382, "tags": {"admin_level": "11", "admin_type:PH": "purok", "is_in:city": "Cotabato City", "name": "Subuyan", "official_name": "Purok Subuyan", "place": "neighbourhood", "postal_code": "9600"}}, {"type": "node", "id": 1418823982, "lat": 7.2760985, "lon": 124.4282882, "tags": {"name": "Villa Corazon Subdivision", "place": "neighbourhood", "place:PH": "village"}}, {"type": "node", "id": 1726073419, "lat": 7.2064539, "lon": 124.2350293}, {"type": "node", "id": 1726073421, "lat": 7.2088755, "lon": 124.2327816}, {"type": "node", "id": 1726073422, "lat": 7.208604, "lon": 124.2331464}, {"type": "node", "id": 1726073423, "lat": 7.2082371, "lon": 124.2333481}, {"type": "node", "id": 1726073424, "lat": 7.2049949, "lon": 124.2316175}, {"type": "node", "id": 1726073427, "lat": 7.2057016, "lon": 124.2319959}, {"type": "node", "id": 1726073431, "lat": 7.2091381, "lon": 124.2317856}, {"type": "node", "id": 1726073432, "lat": 7.2088435, "lon": 124.2321915}, {"type": "node", "id": 1726073433, "lat": 7.2088118, "lon": 124.2324411}, {"type": "node", "id": 1726073436, "lat": 7.2075421, "lon": 124.2329741}, {"type": "node", "id": 1726073438, "lat": 7.2058702, "lon": 124.2300143}, {"type": "node", "id": 1726073440, "lat": 7.2088382, "lon": 124.232567}, {"type": "node", "id": 2545092663, "lat": 7.1898377, "lon": 124.2449925}, {"type": "node", "id": 3413762933, "lat": 7.2019857, "lon": 124.4764312, "tags": {"admin_level": "6", "admin_type:PH": "municipality", "ele": "15", "is_in:province": "Maguindanao del Norte", "is_in:region": "BARMM", "name": "Northern Kabuntalan", "official_name": "Municipality of Northern Kabuntalan", "old_ref": "153834000", "place": "town", "population": "26277", "population:date": "2020-05-01", "postal_code": "9630", "ref": "1903834000", "start_date": "2006-12-30", "wikidata": "Q212684", "wikimedia_commons": "Category:Northern Kabuntalan", "wikipedia": "en:Northern Kabuntalan"}}, {"type": "node", "id": 3426213835, "lat": 7.1882723, "lon": 124.2430123}, {"type": "node", "id": 3426213851, "lat": 7.188804, "lon": 124.2415505}, {"type": "node", "id": 3428215039, "lat": 7.1542236, "lon": 124.1928797, "tags": {"name": "Nabilan", "place": "village"}}, {"type": "node", "id": 3428215040, "lat": 7.1807879, "lon": 124.209694}, {"type": "node", "id": 3428215083, "lat": 7.1797835, "lon": 124.2127008}, {"type": "node", "id": 3428215087, "lat": 7.1818881, "lon": 124.2065229}, {"type": "node", "id": 3428215088, "lat": 7.1839312, "lon": 124.2104402}, {"type": "node", "id": 3428215089, "lat": 7.184899, "lon": 124.2123447}, {"type": "node", "id": 3428215090, "lat": 7.1849144, "lon": 124.2075603}, {"type": "node", "id": 3428215091, "lat": 7.1852216, "lon": 124.2145743}, {"type": "node", "id": 3428215092, "lat": 7.1853906, "lon": 124.2109822}, {"type": "node", "id": 3428215393, "lat": 7.1858054, "lon": 124.2126853}, {"type": "node", "id": 3428217859, "lat": 7.1581638, "lon": 124.2144071, "tags": {"name": "Enlisted Mens Village", "place": "neighbourhood", "place:PH": "village"}}, {"type": "node", "id": 3428224696, "lat": 7.1610977, "lon": 124.2217315, "tags": {"is_in:town": "Datu Odin Sinsuat", "name": "Awang", "place": "village"}}, {"type": "node", "id": 3428228194, "lat": 7.1877382, "lon": 124.2428054}, {"type": "node", "id": 3428228195, "lat": 7.1882082, "lon": 124.2413689}, {"type": "node", "id": 3428228196, "lat": 7.188787, "lon": 124.2396434}, {"type": "node", "id": 3428228197, "lat": 7.1890108, "lon": 124.2447734}, {"type": "node", "id": 3428228199, "lat": 7.1903871, "lon": 124.2455929}, {"type": "node", "id": 3428228201, "lat": 7.1909757, "lon": 124.240719}, {"type": "node", "id": 3442227058, "lat": 7.2035151, "lon": 124.2301465, "tags": {"name": "San Pablo Village", "place": "neighbourhood", "place:PH": "village"}}, {"type": "node", "id": 3442227059, "lat": 7.2022107, "lon": 124.229414, "tags": {"name": "Urban Poor Village", "place": "neighbourhood", "place:PH": "village"}}, {"type": "node", "id": 3442227066, "lat": 7.2009996, "lon": 124.2296385}, {"type": "node", "id": 3442227067, "lat": 7.2011323, "lon": 124.2295253}, {"type": "node", "id": 3442227073, "lat": 7.2014212, "lon": 124.229316}, {"type": "node", "id": 3442227077, "lat": 7.2017642, "lon": 124.2291227}, {"type": "node", "id": 3442227080, "lat": 7.2023897, "lon": 124.2305144}, {"type": "node", "id": 3442227081, "lat": 7.202457, "lon": 124.2287746}, {"type": "node", "id": 3442227083, "lat": 7.2025685, "lon": 124.2301967}, {"type": "node", "id": 3442227086, "lat": 7.2030337, "lon": 124.229138}, {"type": "node", "id": 3442227087, "lat": 7.2031227, "lon": 124.2285244}, {"type": "node", "id": 3442227088, "lat": 7.203283, "lon": 124.2286177}, {"type": "node", "id": 3442227089, "lat": 7.203311, "lon": 124.2286454}, {"type": "node", "id": 3442324691, "lat": 7.3016422, "lon": 124.4003161, "tags": {"admin_level": "10", "admin_type:PH": "barangay", "is_in:municipality": "Pigcawayan", "name": "Maluao", "official_name": "Barangay Maluao", "place": "village", "postal_code": "9412"}}, {"type": "node", "id": 3442324692, "lat": 7.2791336, "lon": 124.4013955, "tags": {"admin_level": "10", "admin_type:PH": "barangay", "is_in:municipality": "Pigcawayan", "name": "North Manuangan", "official_name": "Barangay North Manuangan", "place": "village", "postal_code": "9412"}}, {"type": "node", "id": 3442340593, "lat": 7.2714641, "lon": 124.3997227, "tags": {"admin_level": "10", "admin_type:PH": "barangay", "is_in:municipality": "Pigcawayan", "name": "South Manuangan", "official_name": "Barangay South Manuangan", "place": "village", "postal_code": "9412"}}, {"type": "node", "id": 3442368656, "lat": 7.2930476, "lon": 124.380133, "tags": {"admin_level": "10", "admin_type:PH": "barangay", "is_in:municipality": "Pigcawayan", "name": "New Culasi", "official_name": "Barangay New Culasi", "place": "village", "postal_code": "9412"}}, {"type": "node", "id": 3442368658, "lat": 7.268045, "lon": 124.3745332, "tags": {"admin_level": "10", "admin_type:PH": "barangay", "is_in:municipality": "Pigcawayan", "name": "Central Panatan", "official_name": "Barangay Central Panatan", "place": "village", "postal_code": "9412"}}, {"type": "node", "id": 3442368660, "lat": 7.2981511, "lon": 124.2852328, "tags": {"admin_level": "6", "admin_type:PH": "municipality", "ele": "25", "is_in:province": "Maguindanao del Norte", "is_in:region": "BARMM", "name": "Sultan Mastura", "official_name": "Municipality of Sultan Mastura", "old_ref": "153824000", "place": "town", "population": "25331", "population:date": "2020-05-01", "postal_code": "9636", "ref": "1903824000", "start_date": "2003-04-28", "wikidata": "Q212802", "wikimedia_commons": "Category:Sultan Mastura", "wikipedia": "en:Sultan Mastura"}}, {"type": "node", "id": 3442415311, "lat": 7.2809641, "lon": 124.3050728, "tags": {"admin_level": "10", "admin_type:PH": "barangay", "is_in:municipality": "Sultan Kudarat", "name": "Crossing Simuay", "place": "village", "postal_code": "9605", "short_name": "Simuay"}}, {"type": "node", "id": 4735365776, "lat": 7.1911506, "lon": 124.2436957}, {"type": "node", "id": 4735365974, "lat": 7.1908207, "lon": 124.2413457}, {"type": "node", "id": 4735365975, "lat": 7.191309, "lon": 124.241593}, {"type": "node", "id": 4735365976, "lat": 7.1881838, "lon": 124.2446908}, {"type": "node", "id": 4735365977, "lat": 7.1918778, "lon": 124.2418887}, {"type": "node", "id": 5156383923, "lat": 7.0786916, "lon": 124.3013528, "tags": {"is_in:barangay": "Bugawas", "is_in:municipality": "Datu Odin Sinsuat", "name": "Tinindanan", "official_name": "Sitio Tinindanan", "place": "hamlet", "postal_code": "9601"}}, {"type": "node", "id": 5160763822, "lat": 7.0887125, "lon": 124.1077117, "tags": {"admin_level": "11", "name": "Bagong Silang", "place": "hamlet", "place:PH": "sitio"}}, {"type": "node", "id": 5560576821, "lat": 7.205583, "lon": 124.2475327, "tags": {"is_in:barangay": "Rosary Heights 6", "is_in:city": "Cotabato City", "name": "Krislamville", "place": "neighbourhood", "postal_code": "9600"}}, {"type": "node", "id": 6005723355, "lat": 7.506167, "lon": 124.5227561, "tags": {"admin_level": "10", "admin_type:PH": "barangay", "is_in:municipality": "Alamada", "name": "Lower Dado", "official_name": "Barangay Lower Dado", "place": "village", "postal_code": "9413"}}, {"type": "node", "id": 6006637895, "lat": 7.2793243, "lon": 124.4678439, "tags": {"admin_level": "10", "admin_type:PH": "barangay", "is_in:municipality": "Libungan", "name": "Baguer", "place": "village", "postal_code": "9411"}}, {"type": "node", "id": 6067746290, "lat": 7.2090052, "lon": 124.2294116}, {"type": "node", "id": 6067746295, "lat": 7.2075387, "lon": 124.2284618}, {"type": "node", "id": 6067746296, "lat": 7.2074003, "lon": 124.2284363}, {"type": "node", "id": 6067746297, "lat": 7.2072779, "lon": 124.228427}, {"type": "node", "id": 6067746298, "lat": 7.2071515, "lon": 124.228427}, {"type": "node", "id": 6067746299, "lat": 7.2070064, "lon": 124.2283888}, {"type": "node", "id": 6067746300, "lat": 7.2069317, "lon": 124.2283896}, {"type": "node", "id": 6067746301, "lat": 7.2068024, "lon": 124.2284666}, {"type": "node", "id": 6067746302, "lat": 7.2066803, "lon": 124.2286848}, {"type": "node", "id": 6067746303, "lat": 7.2065336, "lon": 124.2287722}, {"type": "node", "id": 6067746378, "lat": 7.2084968, "lon": 124.2300091}, {"type": "node", "id": 6067746379, "lat": 7.2085576, "lon": 124.2298619}, {"type": "node", "id": 6067746382, "lat": 7.2092312, "lon": 124.2316933}, {"type": "node", "id": 6067746385, "lat": 7.2089682, "lon": 124.2314849}, {"type": "node", "id": 6067746386, "lat": 7.2091697, "lon": 124.2310756}, {"type": "node", "id": 6067746387, "lat": 7.2088455, "lon": 124.2309923}, {"type": "node", "id": 6067746388, "lat": 7.2085402, "lon": 124.2307622}, {"type": "node", "id": 6067746389, "lat": 7.2084456, "lon": 124.2306347}, {"type": "node", "id": 6067746396, "lat": 7.2083864, "lon": 124.230503}, {"type": "node", "id": 6067746397, "lat": 7.2083599, "lon": 124.230412}, {"type": "node", "id": 6067746398, "lat": 7.2083554, "lon": 124.2303254}, {"type": "node", "id": 6067746399, "lat": 7.2083857, "lon": 124.2302391}, {"type": "node", "id": 6067746400, "lat": 7.208668, "lon": 124.2296916}, {"type": "node", "id": 6067746401, "lat": 7.2088496, "lon": 124.2295185}, {"type": "node", "id": 6084397844, "lat": 7.0654022, "lon": 124.1739036, "tags": {"name": "Kibleg", "place": "village"}}, {"type": "node", "id": 6084397845, "lat": 7.0923801, "lon": 124.2231154, "tags": {"admin_level": "10", "admin_type:PH": "barangay", "is_in:municipality": "North Upi", "name": "Kibucay", "place": "village", "postal_code": "9602"}}, {"type": "node", "id": 6084397853, "lat": 7.111717, "lon": 124.2349233, "tags": {"name": "Labungan", "place": "village"}}, {"type": "node", "id": 6085684917, "lat": 7.3042433, "lon": 124.2803141, "tags": {"admin_level": "10", "admin_type:PH": "barangay", "is_in:municipality": "Sultan Mastura", "name": "Tapayan", "official_name": "Barangay Tapayan", "place": "village"}}, {"type": "node", "id": 6085684918, "lat": 7.2918408, "lon": 124.2900765, "tags": {"admin_level": "10", "admin_type:PH": "barangay", "is_in:municipality": "Sultan Mastura", "name": "Macabico", "old_name": "Macabiso", "place": "village", "postal_code": "9636"}}, {"type": "node", "id": 6085684919, "lat": 7.2971202, "lon": 124.2984143, "tags": {"admin_level": "10", "admin_type:PH": "barangay", "is_in:municipality": "Sultan Mastura", "name": "Balut", "place": "village", "postal_code": "9636"}}, {"type": "node", "id": 6085684920, "lat": 7.269682, "lon": 124.2914488, "tags": {"admin_level": "10", "admin_type:PH": "barangay", "alt_name": "Poblacion", "is_in:municipality": "Sultan Kudarat", "name": "Dalumangcob", "official_name": "Barangay Dalumangcob", "place": "village", "population": "7125", "population:date": "2020-05-01", "postal_code": "9605", "ref": "153812012"}}, {"type": "node", "id": 6085684921, "lat": 7.2852525, "lon": 124.3184245, "tags": {"admin_level": "10", "admin_type:PH": "barangay", "is_in:municipality": "Sultan Kudarat", "name": "Darapanan", "official_name": "Barangay Darapanan", "place": "village", "postal_code": "9605"}}, {"type": "node", "id": 6085685205, "lat": 7.2307851, "lon": 124.262624, "tags": {"admin_level": "10", "admin_type:PH": "barangay", "is_in:municipality": "Sultan Kudarat", "name": "Salimbao", "official_name": "Barangay Salimbao", "place": "village", "postal_code": "9605"}}, {"type": "node", "id": 6085685228, "lat": 7.2298123, "lon": 124.2564478, "tags": {"admin_level": "10", "admin_type:PH": "barangay", "is_in:municipality": "Sultan Kudarat", "name": "Bulalo", "official_name": "Barangay Bulalo", "place": "village", "postal_code": "9605"}}, {"type": "node", "id": 6085685251, "lat": 7.2336538, "lon": 124.2491817, "tags": {"admin_level": "10", "admin_type:PH": "barangay", "is_in:municipality": "Sultan Kudarat", "name": "Calsada", "official_name": "Barangay Calsada", "place": "village", "postal_code": "9605"}}, {"type": "node", "id": 6085685391, "lat": 7.2302955, "lon": 124.2440423, "tags": {"admin_level": "10", "admin_type:PH": "barangay", "is_in:municipality": "Sultan Kudarat", "name": "Katuli", "official_name": "Barangay Katuli", "place": "village", "postal_code": "9605"}}, {"type": "node", "id": 6085685408, "lat": 7.2393456, "lon": 124.2362964, "tags": {"admin_level": "10", "admin_type:PH": "barangay", "alt_name": "Kalanganan I", "is_in:city": "Cotabato City", "name": "Kalanganan 1", "nat_name": "Barangay Kalanganan I", "official_name": "Barangay Kalanganan 1", "place": "village", "postal_code": "9600"}}, {"type": "node", "id": 6085685409, "lat": 7.2500643, "lon": 124.2063352, "tags": {"admin_level": "10", "admin_type:PH": "barangay", "alt_name": "Kalanganan Mother Barangay", "is_in:city": "Cotabato City", "name": "Kalanganan", "nat_name": "Barangay Kalanganan", "official_name": "Barangay Kalanganan Mother", "place": "village", "postal_code": "9600", "short_name": "MB Kalanganan"}}, {"type": "node", "id": 6086909545, "lat": 7.1897933, "lon": 124.2401442}, {"type": "node", "id": 6086909546, "lat": 7.1907833, "lon": 124.2410521}, {"type": "node", "id": 6228593275, "lat": 7.1875991, "lon": 124.2427715}, {"type": "node", "id": 6228593276, "lat": 7.1874166, "lon": 124.2432718}, {"type": "node", "id": 6228593403, "lat": 7.187208, "lon": 124.2440667}, {"type": "node", "id": 6228593406, "lat": 7.1872683, "lon": 124.244232}, {"type": "node", "id": 6942559666, "lat": 7.2393699, "lon": 124.2647991, "tags": {"is_in:city": "Cotabato", "is_in:village": "Limbo", "name": "Crossing Pinaring", "place": "neighbourhood"}}, {"type": "node", "id": 6981568621, "lat": 7.3567555, "lon": 124.5425365, "tags": {"admin_level": "10", "admin_type:PH": "barangay", "is_in:municipality": "Alamada", "name": "Pacao", "official_name": "Barangay Pacao", "place": "village", "postal_code": "9413"}}, {"type": "node", "id": 6981568731, "lat": 7.3119222, "lon": 124.5393687, "tags": {"admin_level": "10", "admin_type:PH": "barangay", "is_in:municipality": "Libungan", "name": "Sinapangan", "place": "village", "postal_code": "9411"}}, {"type": "node", "id": 6981568744, "lat": 7.3899089, "lon": 124.4689017, "tags": {"admin_level": "11", "admin_type:PH": "sitio", "is_in:quarter": "Kimarayag", "is_in:town": "Pigkawayan", "name": "Limpaki", "place": "hamlet", "source:name": "extrapolated from OSMaPaaralan, way/979748995"}}, {"type": "node", "id": 6981568745, "lat": 7.4321984, "lon": 124.486835, "tags": {"place": "hamlet"}}, {"type": "node", "id": 6981568746, "lat": 7.4349432, "lon": 124.5029282, "tags": {"place": "hamlet"}}, {"type": "node", "id": 6981568750, "lat": 7.4870269, "lon": 124.5397711, "tags": {"place": "hamlet"}}, {"type": "node", "id": 6981568756, "lat": 7.4427306, "lon": 124.5435905, "tags": {"place": "hamlet"}}, {"type": "node", "id": 6981568763, "lat": 7.4155805, "lon": 124.5411336, "tags": {"name": "Lamuyon", "place": "hamlet"}}, {"type": "node", "id": 6981568811, "lat": 7.4454753, "lon": 124.5137429, "tags": {"admin_level": "10", "admin_type:PH": "barangay", "is_in:municipality": "Alamada", "name": "Macabasa", "official_name": "Barangay Macabasa", "place": "village", "postal_code": "9413"}}, {"type": "node", "id": 6981568812, "lat": 7.3984605, "lon": 124.5226439, "tags": {"admin_level": "10", "admin_type:PH": "barangay", "is_in:municipality": "Alamada", "name": "Mapurok", "official_name": "Barangay Mapurok", "place": "village", "postal_code": "9413"}}, {"type": "node", "id": 6981568813, "lat": 7.4315069, "lon": 124.5322904, "tags": {"admin_level": "10", "admin_type:PH": "barangay", "is_in:municipality": "Alamada", "name": "Raradangan", "official_name": "Barangay Raradangan", "place": "village", "postal_code": "9413"}}, {"type": "node", "id": 6981568817, "lat": 7.5025572, "lon": 124.5396834, "tags": {"admin_level": "11", "admin_type:PH": "sitio", "is_in:quarter": "Pigcawaran", "is_in:town": "Alamada", "name": "Rebi", "place": "village"}}, {"type": "node", "id": 7416240017, "lat": 7.1629578, "lon": 124.2875254, "tags": {"admin_level": "10", "admin_type:PH": "barangay", "alt_name": "Tamontaka IV;Tuan a Barakat", "is_in:city": "Cotabato City", "name": "Tamontaka 4", "nat_name": "Barangay Tamontaka IV", "official_name": "Barangay Tamontaka 4", "place": "village", "postal_code": "9600"}}, {"type": "node", "id": 7618100087, "lat": 7.3909609, "lon": 124.3387878, "tags": {"fixme": "verify location", "is_in:barangay": "Rominimbang", "is_in:municipality": "Barira", "name": "Palangka", "place": "hamlet", "postal_code": "9614"}}, {"type": "node", "id": 7618646734, "lat": 7.3566345, "lon": 124.2820337, "tags": {"is_in:barangay": "Nituan", "is_in:municipality": "Parang", "name": "Iranon", "place": "hamlet", "postal_code": "9604"}}, {"type": "node", "id": 7716446867, "lat": 7.1825178, "lon": 124.2237747, "tags": {"admin_level": "10", "admin_type:PH": "barangay", "alt_name": "Tamontaka Mother Barangay", "is_in:city": "Cotabato City", "name": "Tamontaka", "nat_name": "Barangay Tamontaka", "official_name": "Barangay Tamontaka Mother", "place": "village", "postal_code": "9600", "short_name": "MB Tamontaka"}}, {"type": "node", "id": 7716471486, "lat": 7.1776851, "lon": 124.2341387, "tags": {"admin_level": "10", "admin_type:PH": "barangay", "alt_name": "Tamontaka I", "is_in:city": "Cotabato City", "name": "Tamontaka 1", "nat_name": "Barangay Tamontaka I", "official_name": "Barangay Tamontaka 1", "place": "village", "postal_code": "9600"}}, {"type": "node", "id": 7716482927, "lat": 7.1741617, "lon": 124.2624843, "tags": {"admin_level": "10", "admin_type:PH": "barangay", "alt_name": "Tamontaka III", "is_in:city": "Cotabato City", "name": "Tamontaka 3", "nat_name": "Barangay Tamontaka III", "official_name": "Barangay Tamontaka 3", "place": "village", "postal_code": "9600"}}, {"type": "node", "id": 7716484101, "lat": 7.2052176, "lon": 124.2317322}, {"type": "node", "id": 7716484102, "lat": 7.2050059, "lon": 124.2323909}, {"type": "node", "id": 7716484103, "lat": 7.2054049, "lon": 124.232599}, {"type": "node", "id": 7718970130, "lat": 7.219722, "lon": 124.2382506, "tags": {"name": "Usman Subdivision", "name:es": "Subdivisi\u00f3n Usman", "place": "neighbourhood"}}, {"type": "node", "id": 7719046875, "lat": 7.1758755, "lon": 124.2512083, "tags": {"admin_level": "10", "admin_type:PH": "barangay", "alt_name": "Tamontaka \u2161;Datu Pio Pangilan", "is_in:city": "Cotabato City", "name": "Tamontaka 2", "nat_name": "Barangay Tamontaka \u2161", "official_name": "Barangay Tamontaka 2", "place": "village", "postal_code": "9600"}}, {"type": "node", "id": 7719381990, "lat": 7.2690878, "lon": 124.4222903, "tags": {"admin_level": "10", "admin_type:PH": "barangay", "is_in:municipality": "Pigcawayan", "name": "Bulucaon", "official_name": "Barangay Bulucaon", "place": "village", "postal_code": "9412"}}, {"type": "node", "id": 7719539685, "lat": 7.2957893, "lon": 124.5389771, "tags": {"name": "Piarro", "place": "neighbourhood"}}, {"type": "node", "id": 7719566845, "lat": 7.1017018, "lon": 124.4301009, "tags": {"is_in:town": "Northern Kabuntalan", "name": "Montay", "place": "village", "source": "extrapolated, OSMaPaaralan/DepEd"}}, {"type": "node", "id": 7990801095, "lat": 7.1817977, "lon": 124.2066743}, {"type": "node", "id": 8519262799, "lat": 7.2586445, "lon": 124.2799119, "tags": {"admin_level": "10", "admin_type:PH": "barangay", "is_in:municipality": "Sultan Kudarat", "name": "Rebuken", "official_name": "Barangay Rebuken", "place": "village", "postal_code": "9605"}}, {"type": "node", "id": 8639257401, "lat": 7.3345137, "lon": 124.2476678, "tags": {"admin_level": "10", "alt_name": "Sarmiento", "is_in:town": "Parang", "name": "Landasan", "official_name": "Landasan (Sarmiento)", "place": "village", "place:PH": "barangay"}}, {"type": "node", "id": 8639278938, "lat": 7.3531578, "lon": 124.2205708, "tags": {"admin_level": "10", "admin_type:PH": "barangay", "is_in:municipality": "Parang", "name": "Polloc", "old_ref": "153811021", "place": "village", "population": "6093", "population:2015": "5161", "population:date": "2020-05-01"}}, {"type": "node", "id": 8657827239, "lat": 7.3317151, "lon": 124.5233023, "tags": {"admin_level": "11", "designation": "sitio", "is_in:town": "Libungan", "is_in:village": "Sinapangan", "name": "Agkir-Agkir", "place": "hamlet"}}, {"type": "node", "id": 8748029281, "lat": 7.3702507, "lon": 124.4167862, "tags": {"admin_level": "10", "admin_type:PH": "barangay", "ele": "120", "is_in:municipality": "Pahamuddin", "is_in:province": "SGA", "name": "Patot", "official_name": "Barangay Patot", "old_ref": "124711029", "place": "village", "population": "2287", "population:date": "2020-05-01", "postal_code": "9412", "ref": "1999905010", "was_in:municipality": "Pigcawayan"}}, {"type": "node", "id": 8844554342, "lat": 7.1142494, "lon": 124.4672452, "tags": {"admin_level": "10", "admin_type:PH": "barangay", "ele": "10", "is_in:municipality": "Kadayangan", "is_in:province": "SGA", "name": "Sambulawan", "official_name": "Barangay Sambulawan", "old_ref": "124709047", "place": "village", "population": "3599", "population:date": "2020-05-01", "postal_code": "9410", "ref": "1999903005", "was_in:municipality": "Midsayap"}}, {"type": "node", "id": 9063490576, "lat": 7.2979708, "lon": 124.4156304, "tags": {"admin_level": "10", "admin_type:PH": "barangay", "is_in:municipality": "Pigcawayan", "name": "Buluan", "official_name": "Barangay Buluan", "place": "village", "postal_code": "9412"}}, {"type": "node", "id": 9063498914, "lat": 7.3756474, "lon": 124.4788299, "tags": {"fixme": "name", "place": "neighbourhood"}}, {"type": "node", "id": 9063503743, "lat": 7.2947809, "lon": 124.466638, "tags": {"fixme": "name", "place": "neighbourhood"}}, {"type": "node", "id": 9063518919, "lat": 7.3488337, "lon": 124.477509, "tags": {"alt_name": "Sitio Dalumangkum", "ele": "570", "is_in:barangay": "Kimarayag", "is_in:municipality": "Pigcawayan", "name": "Dalumangkum", "place": "hamlet", "postal_code": "9412"}}, {"type": "node", "id": 9063569164, "lat": 7.3007377, "lon": 124.4709362, "tags": {"admin_level": "10", "admin_type:PH": "barangay", "alt_name": "Kimarayang", "ele": "50", "is_in:municipality": "Pigcawayan", "name": "Kimarayag", "nat_name": "Barangay Kimarayang", "official_name": "Barangay Kimarayag", "place": "village", "population": "3031", "population:date": "2020-05-01", "postal_code": "9412", "ref": "124711015"}}, {"type": "node", "id": 9063569230, "lat": 7.3079888, "lon": 124.4775975, "tags": {"admin_level": "11", "admin_type:PH": "sitio", "is_in:quarter": "Kimarayag", "is_in:town": "Pigkawayan", "name": "Limatong", "place": "hamlet", "source:name": "extrapolated from OSMaPaaralan, way/976193921"}}, {"type": "node", "id": 9085473145, "lat": 7.1994879, "lon": 124.1764292, "tags": {"is_in:barangay": "Kalanganan 2", "is_in:city": "Cotabato", "name": "Datu Sarip Sinsuat", "place": "neighbourhood", "postal_code": "9600"}}, {"type": "node", "id": 9085473177, "lat": 7.2008027, "lon": 124.171706, "tags": {"admin_level": "11", "admin_type:PH": "purok", "alt_name": "Sitio Ragundungan", "is_in:barangay": "Kalanganan 2", "is_in:city": "Cotabato City", "name": "Ragundungan", "official_name": "Purok Ragundungan", "place": "neighbourhood", "postal_code": "9600"}}, {"type": "node", "id": 9085520137, "lat": 7.1982051, "lon": 124.2044852, "tags": {"admin_level": "10", "admin_type:PH": "barangay", "alt_name": "Kalanganan II", "is_in:city": "Cotabato City", "name": "Kalanganan 2", "nat_name": "Barangay Kalanganan II", "official_name": "Barangay Kalanganan 2", "place": "village", "postal_code": "9600"}}, {"type": "node", "id": 9085520175, "lat": 7.1999878, "lon": 124.2027703, "tags": {"admin_level": "11", "admin_type:PH": "purok", "is_in:barangay": "Kalanganan II", "is_in:city": "Cotabato City", "name": "Bubong", "official_name": "Purok Bubong", "place": "neighbourhood", "postal_code": "9600"}}, {"type": "node", "id": 9085587776, "lat": 7.1412523, "lon": 124.3110519, "tags": {"admin_level": "10", "admin_type:PH": "barangay", "alt_name": "Tamontaka \u2164;Tamontaka 5", "is_in:city": "Cotabato City", "name": "Diocolano", "nat_name": "Barangay Tamontaka \u2164", "official_name": "Barangay Diocolano", "place": "village", "postal_code": "9600"}}, {"type": "node", "id": 9085897183, "lat": 7.1586758, "lon": 124.2922136, "tags": {"admin_level": "11", "admin_type:PH": "purok", "is_in:barangay": "Tamontaka \u2163", "is_in:city": "Cotabato City", "name": "Lisbong", "place": "neighbourhood"}}, {"type": "node", "id": 9085949715, "lat": 7.4114548, "lon": 124.532944, "tags": {"fixme": "name", "place": "hamlet"}}, {"type": "node", "id": 9087402090, "lat": 7.4593319, "lon": 124.523978, "tags": {"admin_level": "10", "admin_type:PH": "barangay", "ele": "275", "is_in:municipality": "Alamada", "name": "Pigcawaran", "official_name": "Barangay Pigcawaran", "place": "village", "population": "4428", "population:date": "2020-05-01", "postal_code": "9413", "ref": "124701012"}}, {"type": "node", "id": 9087405019, "lat": 7.5018628, "lon": 124.5471716, "tags": {"fixme": "name", "place": "neighbourhood"}}, {"type": "node", "id": 9137544178, "lat": 7.2626031, "lon": 124.2522906, "tags": {"admin_level": "10", "admin_type:PH": "barangay", "is_in:municipality": "Sultan Kudarat", "name": "Senditan", "official_name": "Barangay Senditan", "place": "village", "postal_code": "9605"}}, {"type": "node", "id": 9137562325, "lat": 7.2636406, "lon": 124.2653633, "tags": {"admin_level": "11", "admin_type:PH": "purok", "is_in:barangay": "Macaguiling", "is_in:municipality": "Sultan Kudarat", "name": "Purok 7", "place": "neighbourhood"}}, {"type": "node", "id": 9137562328, "lat": 7.2556987, "lon": 124.2656739, "tags": {"admin_level": "10", "admin_type:PH": "barangay", "alt_name": "Macaguiling", "is_in:municipality": "Sultan Kudarat", "name": "Makaguiling", "official_name": "Barangay Makaguiling", "place": "village", "postal_code": "9605"}}, {"type": "node", "id": 9137562407, "lat": 7.2531839, "lon": 124.2646002, "tags": {"admin_level": "11", "admin_type:PH": "purok", "is_in:barangay": "Macaguiling", "is_in:municipality": "Sultan Kudarat", "name": "Purok 6", "place": "neighbourhood"}}, {"type": "node", "id": 9504441414, "lat": 7.1952007, "lon": 124.500415, "tags": {"admin_level": "10", "admin_type:PH": "barangay", "is_in:municipality": "Midsayap", "name": "Bagumba", "official_name": "Barangay Bagumba", "place": "village", "postal_code": "9410"}}, {"type": "node", "id": 9929386480, "lat": 7.2348788, "lon": 124.5401141, "tags": {"admin_level": "10", "admin_type:PH": "barangay", "is_in:municipality": "Libungan", "name": "Abaga", "place": "village", "population": "2325", "population:date": "2020-05-01", "postal_code": "9411"}}, {"type": "node", "id": 10076361219, "lat": 7.0968869, "lon": 124.314082, "tags": {"admin_level": "10", "admin_type:PH": "barangay", "is_in:town": "Datu Odin Sinsuat", "name": "Baka", "official_name": "Barangay Baka", "place": "village", "postal_code": "9601"}}, {"type": "node", "id": 10862123771, "lat": 7.3176261, "lon": 124.523356, "tags": {"admin_level": "11", "designation": "sitio", "is_in:town": "Libungan", "is_in:village": "Sinapangan", "name": "Semberen", "place": "hamlet"}}, {"type": "node", "id": 10933821857, "lat": 7.2604511, "lon": 124.5386339, "tags": {"admin_level": "10", "admin_type:PH": "barangay", "is_in:municipality": "Libungan", "name": "Cabaruyan", "place": "village", "postal_code": "9411"}}, {"type": "node", "id": 10933821858, "lat": 7.2773463, "lon": 124.5360267, "tags": {"admin_level": "11", "designation": "sitio", "is_in:town": "Libungan", "is_in:village": "Cabaruyan", "name": "Nueva Fuerza", "place": "hamlet"}}, {"type": "node", "id": 11098700969, "lat": 7.1563804, "lon": 124.5285635, "tags": {"admin_level": "11", "admin_type:PH": "purok", "is_in:municipality": "Midsayap", "name": "Purok 1", "place": "neighbourhood"}}, {"type": "node", "id": 11182490013, "lat": 7.3860573, "lon": 124.2638509, "tags": {"admin_level": "10", "admin_type:PH": "barangay", "is_in:municipality": "Parang", "name": "Making", "old_ref": "153811016", "place": "suburb", "population": "8083", "population:date": "2020-05-01", "ref": "1908709014"}}, {"type": "node", "id": 11182506941, "lat": 7.3820394, "lon": 124.2621624, "tags": {"name": "Malipayon", "place": "neighbourhood"}}, {"type": "node", "id": 11816318394, "lat": 7.1032855, "lon": 124.4923617, "tags": {"admin_level": "6", "admin_subdivisions": "7 barangays", "admin_type:PH": "municipality", "ele": "20", "is_in:province": "SGA", "is_in:region": "BARMM", "name": "Nabalawag", "official_name": "Municipality of Nabalawag", "old_name": "Kabalukan", "place": "town", "population": "28239", "population:date": "2020-05-01", "postal_code": "9410", "related_law": "Bangsamoro Autonomy Act No. 43", "start_date": "2024-04-13", "was_in:municipality": "Midsayap;Aleosan", "wikidata": "Q31508492", "wikimedia_commons": "Category:Nabalawag", "wikipedia": "en:Nabalawag"}}, {"type": "node", "id": 11816318395, "lat": 7.1229571, "lon": 124.4766077, "tags": {"admin_level": "6", "admin_subdivisions": "7 barangays", "admin_type:PH": "municipality", "ele": "10", "is_in:province": "SGA", "is_in:region": "BARMM", "name": "Kadayangan", "official_name": "Municipality of Kadayangan", "place": "town", "population": "25573", "population:date": "2020-05-01", "postal_code": "9410", "related_law": "Bangsamoro Autonomy Act No. 42", "start_date": "2024-04-13", "was_in:municipality": "Midsayap", "wikidata": "Q31508396", "wikimedia_commons": "Category:Kadayangan", "wikipedia": "en:Kadayangan"}}, {"type": "node", "id": 11816318396, "lat": 7.1690707, "lon": 124.3640166, "tags": {"admin_level": "6", "admin_subdivisions": "12 barangays", "admin_type:PH": "municipality", "ele": "10", "is_in:province": "SGA", "is_in:region": "BARMM", "name": "Pahamuddin", "official_name": "Municipality of Pahamuddin", "place": "town", "population": "19627", "population:date": "2020-05-01", "postal_code": "9412", "related_law": "Bangsamoro Autonomy Act No. 41", "start_date": "2024-04-13", "was_in:municipality": "Pigcawayan", "wikidata": "Q31508528", "wikimedia_commons": "Category:Pahamuddin", "wikipedia": "en:Pahamuddin"}}, {"type": "node", "id": 11925215269, "lat": 7.1795924, "lon": 124.504227, "tags": {"admin_level": "10", "admin_type:PH": "barangay", "is_in:municipality": "Midsayap", "name": "Bual Norte", "official_name": "Barangay Bual Norte", "place": "village", "postal_code": "9410"}}, {"type": "node", "id": 11925262342, "lat": 7.1519597, "lon": 124.4988688, "tags": {"admin_level": "10", "admin_type:PH": "barangay", "is_in:municipality": "Midsayap", "name": "Salunayan", "official_name": "Barangay Salunayan", "place": "village", "postal_code": "9410"}}, {"type": "node", "id": 11925289028, "lat": 7.1429198, "lon": 124.4867676, "tags": {"admin_level": "11", "admin_type:PH": "purok", "is_in:barangay": "Tumbras", "is_in:municipality": "Kadayangan", "name": "Mahogany", "official_name": "Purok Mahogany", "place": "neighbourhood", "postal_code": "9410"}}, {"type": "node", "id": 11925344868, "lat": 7.1417394, "lon": 124.4861624, "tags": {"admin_level": "10", "admin_type:PH": "barangay", "ele": "10", "is_in:municipality": "Kadayangan", "is_in:province": "SGA", "name": "Tumbras", "official_name": "Barangay Tumbras", "old_ref": "124709051", "place": "village", "population": "3432", "population:date": "2020-05-01", "postal_code": "9410", "ref": "1999903007", "was_in:municipality": "Midsayap"}}, {"type": "node", "id": 11925402449, "lat": 7.1211855, "lon": 124.4735116, "tags": {"admin_level": "10", "admin_type:PH": "barangay", "ele": "10", "is_in:municipality": "Kadayangan", "is_in:province": "SGA", "name": "Kapinpilan", "official_name": "Barangay Kapinpilan", "old_ref": "124709016", "place": "village", "population": "4593", "population:date": "2020-05-01", "postal_code": "9410", "ref": "1999903002", "was_in:municipality": "Midsayap"}}, {"type": "node", "id": 11925432931, "lat": 7.1217019, "lon": 124.5119216, "tags": {"admin_level": "10", "admin_type:PH": "barangay", "ele": "10", "is_in:municipality": "Kadayangan", "is_in:province": "SGA", "name": "Mudseng", "official_name": "Barangay Mudseng", "old_ref": "124709029", "place": "village", "population": "2831", "population:date": "2020-05-01", "postal_code": "9410", "ref": "1999903004", "was_in:municipality": "Midsayap"}}, {"type": "node", "id": 11925440191, "lat": 7.1292109, "lon": 124.4951765, "tags": {"admin_level": "10", "admin_type:PH": "barangay", "ele": "10", "is_in:municipality": "Kadayangan", "is_in:province": "SGA", "name": "Tugal", "official_name": "Barangay Tugal", "old_ref": "124709050", "place": "village", "population": "4665", "population:date": "2020-05-01", "postal_code": "9410", "ref": "1999903006", "was_in:municipality": "Midsayap"}}, {"type": "node", "id": 11925443300, "lat": 7.2075352, "lon": 124.4972827, "tags": {"admin_level": "10", "admin_type:PH": "barangay", "is_in:municipality": "Midsayap", "name": "Lagumbingan", "official_name": "Barangay Lagumbingan", "place": "village", "postal_code": "9410"}}, {"type": "node", "id": 11925445711, "lat": 7.1401497, "lon": 124.5111555, "tags": {"admin_level": "10", "admin_type:PH": "barangay", "is_in:municipality": "Midsayap", "name": "Nes", "official_name": "Barangay Nes", "place": "village", "postal_code": "9410"}}, {"type": "node", "id": 11925447778, "lat": 7.164408, "lon": 124.4674026, "tags": {"admin_level": "10", "admin_type:PH": "barangay", "ele": "10", "is_in:municipality": "Kadayangan", "is_in:province": "SGA", "name": "Malingao", "official_name": "Barangay Malingao", "old_ref": "124709027", "place": "village", "population": "4456", "population:date": "2020-05-01", "postal_code": "9410", "ref": "1999903003", "was_in:municipality": "Midsayap"}}, {"type": "node", "id": 11925451129, "lat": 7.1588403, "lon": 124.5116607, "tags": {"admin_level": "10", "admin_type:PH": "barangay", "is_in:municipality": "Midsayap", "name": "Agriculture", "official_name": "Barangay Agriculture", "place": "village", "postal_code": "9410"}}, {"type": "node", "id": 11925451130, "lat": 7.1597393, "lon": 124.5178313, "tags": {"admin_level": "10", "admin_type:PH": "barangay", "is_in:municipality": "Midsayap", "name": "Lower Glad", "official_name": "Barangay Lower Glad", "place": "village", "postal_code": "9410"}}, {"type": "node", "id": 11925469974, "lat": 7.207722, "lon": 124.5025408, "tags": {"admin_level": "11", "admin_type:PH": "purok", "is_in:barangay": "Lagumbingan", "is_in:municipality": "Midsayap", "name": "Purok 1", "place": "neighbourhood", "postal_code": "9410"}}, {"type": "node", "id": 11936573760, "lat": 7.3685623, "lon": 124.2772567, "tags": {"admin_level": "10", "admin_type:PH": "barangay", "is_in:municipality": "Parang", "name": "Nituan", "place": "village", "postal_code": "9604"}}, {"type": "node", "id": 12140973488, "lat": 7.2103607, "lon": 124.2436874, "tags": {"admin_level": "10", "admin_type:PH": "barangay", "alt_name": "Rosary Heights Mother Barangay", "is_in:city": "Cotabato City", "name": "Rosary Heights", "nat_name": "Barangay Rosary Heights", "official_name": "Barangay Rosary Heights Mother", "place": "suburb", "postal_code": "9600", "short_name": "MB Rosary Heights"}}, {"type": "node", "id": 12140973492, "lat": 7.2214689, "lon": 124.2542888, "tags": {"admin_level": "10", "admin_type:PH": "barangay", "alt_name": "Poblacion Mother Barangay", "is_in:city": "Cotabato City", "name": "Poblacion", "nat_name": "Barangay Poblacion", "official_name": "Barangay Poblacion Mother", "place": "suburb", "postal_code": "9600", "short_name": "MB Poblacion"}}, {"type": "node", "id": 12140973499, "lat": 7.2264262, "lon": 124.2424469, "tags": {"admin_level": "10", "admin_type:PH": "barangay", "alt_name": "Bagua Mother Barangay", "is_in:city": "Cotabato City", "name": "Bagua", "nat_name": "Barangay Bagua", "official_name": "Barangay Bagua Mother", "place": "suburb", "postal_code": "9600", "short_name": "MB Bagua"}}, {"type": "node", "id": 12148841049, "lat": 7.1780391, "lon": 124.3830835, "tags": {"admin_level": "10", "admin_type:PH": "barangay", "ele": "15", "is_in:municipality": "Pahamuddin", "is_in:province": "SGA", "name": "Kadingilan", "official_name": "Barangay Kadingilan", "old_ref": "124711014", "place": "village", "population": "1683", "population:date": "2020-05-01", "postal_code": "9412", "ref": "1999905005", "was_in:municipality": "Pigcawayan"}}, {"type": "node", "id": 12148843282, "lat": 7.191494, "lon": 124.3825194, "tags": {"admin_level": "10", "admin_type:PH": "barangay", "ele": "20", "is_in:municipality": "Pahamuddin", "is_in:province": "SGA", "name": "Matilac", "official_name": "Barangay Matilac", "old_ref": "124711022", "place": "village", "population": "1817", "population:date": "2020-05-01", "postal_code": "9412", "ref": "1999905009", "was_in:municipality": "Pigcawayan"}}, {"type": "node", "id": 12151260758, "lat": 7.1298064, "lon": 124.3978286, "tags": {"admin_level": "10", "admin_type:PH": "barangay", "is_in:municipality": "Northern Kabuntalan", "name": "Tumaginting", "official_name": "Barangay Tumaginting", "place": "village", "postal_code": "9630"}}, {"type": "node", "id": 12151260759, "lat": 7.1183128, "lon": 124.3846267, "tags": {"admin_level": "10", "admin_type:PH": "barangay", "is_in:municipality": "Kabuntalan", "name": "Ganta", "official_name": "Barangay Ganta", "place": "village", "postal_code": "9606"}}, {"type": "node", "id": 12162931244, "lat": 7.1981572, "lon": 124.2929864, "tags": {"admin_level": "10", "admin_type:PH": "barangay", "is_in:municipality": "Sultan Kudarat", "name": "Nalinan", "official_name": "Barangay Nalinan", "place": "village", "postal_code": "9605"}}, {"type": "node", "id": 12162931245, "lat": 7.2360519, "lon": 124.3430471, "tags": {"admin_level": "10", "admin_type:PH": "barangay", "is_in:municipality": "Sultan Kudarat", "name": "Damaniog", "official_name": "Barangay Damaniog", "place": "village", "postal_code": "9605"}}, {"type": "node", "id": 12162931246, "lat": 7.1767856, "lon": 124.2962694, "tags": {"admin_level": "10", "admin_type:PH": "barangay", "is_in:municipality": "Sultan Kudarat", "name": "Katamlangan", "official_name": "Barangay Katamlangan", "old_name": "Matampay", "place": "village", "postal_code": "9605"}}, {"type": "node", "id": 12162931247, "lat": 7.1754337, "lon": 124.333654, "tags": {"admin_level": "10", "admin_type:PH": "barangay", "is_in:municipality": "Sultan Kudarat", "name": "Kakar", "official_name": "Barangay Kakar", "place": "village", "postal_code": "9605"}}, {"type": "node", "id": 12162931248, "lat": 7.2068641, "lon": 124.2624924, "tags": {"admin_level": "10", "admin_type:PH": "barangay", "is_in:municipality": "Sultan Kudarat", "name": "Kabuntalan", "official_name": "Barangay Kabuntalan", "place": "village", "postal_code": "9605"}}, {"type": "node", "id": 12162931249, "lat": 7.1935628, "lon": 124.3104704, "tags": {"admin_level": "10", "admin_type:PH": "barangay", "is_in:municipality": "Sultan Kudarat", "name": "Katidtuan", "official_name": "Barangay Katidtuan", "place": "village", "postal_code": "9605"}}, {"type": "node", "id": 12162931250, "lat": 7.2105363, "lon": 124.3264469, "tags": {"admin_level": "10", "admin_type:PH": "barangay", "is_in:municipality": "Sultan Kudarat", "name": "Nara", "official_name": "Barangay Nara", "place": "village", "postal_code": "9605"}}, {"type": "node", "id": 12162931251, "lat": 7.2238411, "lon": 124.3441388, "tags": {"admin_level": "10", "admin_type:PH": "barangay", "is_in:municipality": "Sultan Kudarat", "name": "Banatin", "official_name": "Barangay Banatin", "place": "village", "postal_code": "9605"}}, {"type": "node", "id": 12162931252, "lat": 7.2202382, "lon": 124.3563053, "tags": {"admin_level": "10", "admin_type:PH": "barangay", "is_in:municipality": "Sultan Kudarat", "name": "Panatan", "official_name": "Barangay Panatan", "place": "village", "postal_code": "9605"}}, {"type": "node", "id": 12162931253, "lat": 7.2283101, "lon": 124.3283124, "tags": {"admin_level": "10", "admin_type:PH": "barangay", "is_in:municipality": "Sultan Kudarat", "name": "Pigkelegan", "official_name": "Barangay Pigkelegan", "old_name": "Ibotegen", "place": "village", "postal_code": "9605"}}, {"type": "node", "id": 12162931254, "lat": 7.2381806, "lon": 124.2855111, "tags": {"admin_level": "10", "admin_type:PH": "barangay", "is_in:municipality": "Sultan Kudarat", "name": "Raguisi", "official_name": "Barangay Raguisi", "place": "village", "postal_code": "9605"}}, {"type": "node", "id": 12162931255, "lat": 7.2090781, "lon": 124.2933646, "tags": {"admin_level": "10", "admin_type:PH": "barangay", "is_in:municipality": "Sultan Kudarat", "name": "Kapimpilan", "official_name": "Barangay Kapimpilan", "place": "village", "postal_code": "9605"}}, {"type": "node", "id": 12162931256, "lat": 7.213796, "lon": 124.2965054, "tags": {"admin_level": "10", "admin_type:PH": "barangay", "is_in:municipality": "Sultan Kudarat", "name": "Maidapa", "official_name": "Barangay Maidapa", "place": "village", "postal_code": "9605"}}, {"type": "node", "id": 12162931257, "lat": 7.2181227, "lon": 124.2663346, "tags": {"admin_level": "10", "admin_type:PH": "barangay", "is_in:municipality": "Sultan Kudarat", "name": "Bulibod", "official_name": "Barangay Bulibod", "place": "village", "postal_code": "9605"}}, {"type": "node", "id": 12162931258, "lat": 7.2598312, "lon": 124.3202054, "tags": {"admin_level": "10", "admin_type:PH": "barangay", "is_in:municipality": "Sultan Kudarat", "name": "Ladia", "official_name": "Barangay Ladia", "place": "village", "postal_code": "9605"}}, {"type": "node", "id": 12162931259, "lat": 7.2358284, "lon": 124.2737094, "tags": {"admin_level": "10", "admin_type:PH": "barangay", "is_in:municipality": "Sultan Kudarat", "name": "Ungap", "official_name": "Barangay Ungap", "place": "village", "postal_code": "9605"}}, {"type": "node", "id": 12162931260, "lat": 7.2687804, "lon": 124.3695098, "tags": {"admin_level": "10", "admin_type:PH": "barangay", "is_in:municipality": "Sultan Kudarat", "name": "Alamada", "official_name": "Barangay Alamada", "place": "village", "postal_code": "9605"}}, {"type": "node", "id": 12162931261, "lat": 7.2298148, "lon": 124.3080738, "tags": {"admin_level": "10", "admin_type:PH": "barangay", "is_in:municipality": "Sultan Kudarat", "name": "Pinaring", "official_name": "Barangay Pinaring", "place": "village", "postal_code": "9605"}}, {"type": "node", "id": 12162931262, "lat": 7.2599563, "lon": 124.2050958, "tags": {"admin_level": "10", "admin_type:PH": "barangay", "is_in:municipality": "Sultan Kudarat", "name": "Inawan", "official_name": "Barangay Inawan", "place": "village", "postal_code": "9605"}}, {"type": "node", "id": 12162931263, "lat": 7.2495741, "lon": 124.2666846, "tags": {"admin_level": "10", "admin_type:PH": "barangay", "is_in:municipality": "Sultan Kudarat", "name": "Gang", "official_name": "Barangay Gang", "place": "village", "postal_code": "9605"}}, {"type": "node", "id": 12162931264, "lat": 7.2450175, "lon": 124.2660087, "tags": {"admin_level": "10", "admin_type:PH": "barangay", "is_in:municipality": "Sultan Kudarat", "name": "Limbo", "official_name": "Barangay Limbo", "place": "village", "postal_code": "9605"}}, {"type": "node", "id": 12162931265, "lat": 7.2557018, "lon": 124.2443821, "tags": {"admin_level": "10", "admin_type:PH": "barangay", "is_in:municipality": "Sultan Kudarat", "name": "Mulaug", "official_name": "Barangay Mulaug", "place": "village", "postal_code": "9605"}}, {"type": "node", "id": 12162931266, "lat": 7.2422343, "lon": 124.2388661, "tags": {"admin_level": "10", "admin_type:PH": "barangay", "is_in:municipality": "Sultan Kudarat", "name": "Banubo", "official_name": "Barangay Banubo", "place": "village", "postal_code": "9605"}}, {"type": "node", "id": 12163168189, "lat": 7.3166337, "lon": 124.3816924, "tags": {"admin_level": "10", "admin_type:PH": "barangay", "alt_name": "Mulok", "is_in:municipality": "Pigcawayan", "name": "Molok", "nat_name": "Barangay Mulok", "official_name": "Barangay Molok", "place": "village", "postal_code": "9412"}}, {"type": "node", "id": 12163168190, "lat": 7.2898111, "lon": 124.4523847, "tags": {"admin_level": "10", "admin_type:PH": "barangay", "is_in:municipality": "Pigcawayan", "name": "Balogo", "official_name": "Barangay Balogo", "place": "village", "postal_code": "9412"}}, {"type": "node", "id": 12163168191, "lat": 7.2989366, "lon": 124.4589803, "tags": {"admin_level": "10", "admin_type:PH": "barangay", "is_in:municipality": "Pigcawayan", "name": "Tigbawan", "official_name": "Barangay Tigbawan", "place": "village", "postal_code": "9412"}}, {"type": "node", "id": 12163168192, "lat": 7.3068248, "lon": 124.4314957, "tags": {"admin_level": "10", "admin_type:PH": "barangay", "alt_name": "Midpapan II", "is_in:municipality": "Pigcawayan", "name": "Midpapan 2", "nat_name": "Barangay Midpapan II", "official_name": "Barangay Midpapan 2", "place": "village", "postal_code": "9412"}}, {"type": "node", "id": 12163168194, "lat": 7.2631478, "lon": 124.4377935, "tags": {"admin_level": "10", "admin_type:PH": "barangay", "is_in:municipality": "Pigcawayan", "name": "Tubon", "official_name": "Barangay Tubon", "place": "village", "postal_code": "9412"}}, {"type": "node", "id": 12163168195, "lat": 7.3387089, "lon": 124.4595945, "tags": {"admin_level": "10", "admin_type:PH": "barangay", "is_in:municipality": "Pigcawayan", "name": "Renibon", "official_name": "Barangay Renibon", "place": "village", "postal_code": "9412"}}, {"type": "node", "id": 12163168196, "lat": 7.2817257, "lon": 124.4610724, "tags": {"admin_level": "10", "admin_type:PH": "barangay", "is_in:municipality": "Pigcawayan", "name": "Presbitero", "official_name": "Barangay Presbitero", "place": "village", "postal_code": "9412"}}, {"type": "node", "id": 12163168197, "lat": 7.29, "lon": 124.4380376, "tags": {"admin_level": "10", "admin_type:PH": "barangay", "alt_name": "Midpapan I", "is_in:municipality": "Pigcawayan", "name": "Midpapan 1", "nat_name": "Barangay Midpapan I", "official_name": "Barangay Midpapan 1", "place": "village", "postal_code": "9412"}}, {"type": "node", "id": 12163168198, "lat": 7.2392928, "lon": 124.3884703, "tags": {"admin_level": "10", "admin_type:PH": "barangay", "is_in:municipality": "Pigcawayan", "name": "Malagakit", "official_name": "Barangay Malagakit", "place": "village", "postal_code": "9412"}}, {"type": "node", "id": 12163168199, "lat": 7.236898, "lon": 124.4380939, "tags": {"admin_level": "10", "admin_type:PH": "barangay", "is_in:municipality": "Pigcawayan", "name": "Cabpangi", "official_name": "Barangay Cabpangi", "place": "village", "postal_code": "9412"}}, {"type": "node", "id": 12163168200, "lat": 7.2698035, "lon": 124.46435, "tags": {"admin_level": "10", "admin_type:PH": "barangay", "is_in:municipality": "Pigcawayan", "name": "Upper Baguer", "official_name": "Barangay Upper Baguer", "place": "village", "postal_code": "9412"}}, {"type": "node", "id": 12163242701, "lat": 7.2751912, "lon": 124.4522667, "tags": {"admin_level": "10", "admin_type:PH": "barangay", "is_in:municipality": "Pigcawayan", "name": "Capayuran", "official_name": "Barangay Capayuran", "place": "village", "postal_code": "9412"}}, {"type": "node", "id": 12163242702, "lat": 7.3108926, "lon": 124.4566146, "tags": {"admin_level": "10", "admin_type:PH": "barangay", "is_in:municipality": "Pigcawayan", "name": "Anick", "official_name": "Barangay Anick", "old_name": "Upper Balogo", "place": "village", "postal_code": "9412"}}, {"type": "node", "id": 12163242703, "lat": 7.3174638, "lon": 124.4213811, "tags": {"admin_level": "10", "admin_type:PH": "barangay", "is_in:municipality": "Pigcawayan", "name": "New Panay", "official_name": "Barangay New Panay", "place": "village", "postal_code": "9412"}}, {"type": "node", "id": 12163242704, "lat": 7.3302174, "lon": 124.428497, "tags": {"admin_level": "10", "admin_type:PH": "barangay", "is_in:municipality": "Pigcawayan", "name": "Payong-payong", "official_name": "Barangay Payong-payong", "place": "village", "postal_code": "9412"}}, {"type": "node", "id": 12163242705, "lat": 7.3468598, "lon": 124.418326, "tags": {"admin_level": "10", "admin_type:PH": "barangay", "is_in:municipality": "Pigcawayan", "name": "New Igbaras", "official_name": "Barangay New Igbaras", "place": "village", "postal_code": "9412"}}, {"type": "node", "id": 12163242706, "lat": 7.2583931, "lon": 124.3983623, "tags": {"admin_level": "10", "admin_type:PH": "barangay", "is_in:municipality": "Pigcawayan", "name": "Banucagon", "official_name": "Barangay Banucagon", "place": "village", "postal_code": "9412"}}, {"type": "node", "id": 12163245421, "lat": 7.204138, "lon": 124.355877, "tags": {"admin_level": "10", "admin_type:PH": "barangay", "ele": "20", "is_in:municipality": "Pahamuddin", "is_in:province": "SGA", "name": "Lower Baquer", "official_name": "Barangay Lower Baquer", "old_ref": "124711017", "place": "village", "population": "1208", "population:date": "2020-05-01", "postal_code": "9412", "ref": "1999905007", "was_in:municipality": "Pigcawayan"}}, {"type": "node", "id": 12163245422, "lat": 7.168629, "lon": 124.3690875, "tags": {"admin_level": "10", "admin_type:PH": "barangay", "ele": "10", "is_in:municipality": "Pahamuddin", "is_in:province": "SGA", "name": "Datu Mantil", "official_name": "Barangay Datu Mantil", "old_ref": "124711013", "place": "village", "population": "1220", "population:date": "2020-05-01", "postal_code": "9412", "ref": "1999905004", "was_in:municipality": "Pigcawayan"}}, {"type": "node", "id": 12163245423, "lat": 7.2102649, "lon": 124.3819338, "tags": {"admin_level": "10", "admin_type:PH": "barangay", "ele": "20", "is_in:municipality": "Pahamuddin", "is_in:province": "SGA", "name": "Buricain", "official_name": "Barangay Buricain", "old_ref": "124711009", "place": "village", "population": "1626", "population:date": "2020-05-01", "postal_code": "9412", "ref": "1999905002", "was_in:municipality": "Pigcawayan"}}, {"type": "node", "id": 12163245424, "lat": 7.2031147, "lon": 124.3745108, "tags": {"admin_level": "10", "admin_type:PH": "barangay", "ele": "25", "is_in:municipality": "Pahamuddin", "is_in:province": "SGA", "name": "Balacayon", "official_name": "Barangay Balacayon", "old_ref": "124711003", "place": "village", "population": "1306", "population:date": "2020-05-01", "postal_code": "9412", "ref": "1999905001", "was_in:municipality": "Pigcawayan"}}, {"type": "node", "id": 12163245425, "lat": 7.1704173, "lon": 124.3413654, "tags": {"admin_level": "10", "admin_type:PH": "barangay", "alt_name": "Lower Pangangcalan", "ele": "5", "is_in:municipality": "Pahamuddin", "is_in:province": "SGA", "name": "Lower Pangangkalan", "official_name": "Barangay Lower Pangangkalan", "old_ref": "124711018", "place": "village", "population": "1129", "population:date": "2020-05-01", "postal_code": "9412", "ref": "1999905008", "was_in:municipality": "Pigcawayan"}}, {"type": "node", "id": 12163245426, "lat": 7.1685678, "lon": 124.3498814, "tags": {"admin_level": "10", "admin_type:PH": "barangay", "alt_name": "Upper Pangangcalan", "ele": "5", "is_in:municipality": "Pahamuddin", "is_in:province": "SGA", "name": "Upper Pangangkalan", "official_name": "Barangay Upper Pangangkalan", "old_ref": "124711028", "place": "village", "population": "905", "population:date": "2020-05-01", "postal_code": "9412", "ref": "1999905012", "was_in:municipality": "Pigcawayan"}}, {"type": "node", "id": 12163245427, "lat": 7.1679025, "lon": 124.3638262, "tags": {"admin_level": "10", "admin_type:PH": "barangay", "ele": "10", "is_in:municipality": "Pahamuddin", "is_in:province": "SGA", "name": "Libungan Torreta", "official_name": "Barangay Libungan Torreta", "old_ref": "124711016", "place": "village", "population": "2290", "population:date": "2020-05-01", "postal_code": "9412", "ref": "1999905006", "was_in:municipality": "Pigcawayan"}}, {"type": "node", "id": 12163245428, "lat": 7.2180855, "lon": 124.362579, "tags": {"admin_level": "10", "admin_type:PH": "barangay", "ele": "25", "is_in:municipality": "Pahamuddin", "is_in:province": "SGA", "name": "Datu Binasing", "official_name": "Barangay Datu Binasing", "old_ref": "124711012", "place": "village", "population": "1650", "population:date": "2020-05-01", "postal_code": "9412", "ref": "1999905003", "was_in:municipality": "Pigcawayan"}}, {"type": "node", "id": 12163245429, "lat": 7.232191, "lon": 124.3806624, "tags": {"admin_level": "10", "admin_type:PH": "barangay", "ele": "25", "is_in:municipality": "Pahamuddin", "is_in:province": "SGA", "name": "Simsiman", "official_name": "Barangay Simsiman", "old_ref": "124711036", "place": "village", "population": "2506", "population:date": "2020-05-01", "postal_code": "9412", "ref": "1999905011", "was_in:municipality": "Pigcawayan"}}, {"type": "node", "id": 12163269722, "lat": 7.3372058, "lon": 124.4117304, "tags": {"alt_name": "Sitio Rogonan", "is_in:barangay": "New Panay", "is_in:municipality": "Pigcawayan", "name": "Rogonan", "place": "hamlet", "postal_code": "9412"}}, {"type": "node", "id": 12164596114, "lat": 7.2380515, "lon": 124.2353122, "tags": {"is_in:barangay": "Kalanganan 1", "is_in:city": "Cotabato City", "name": "Tuka", "place": "neighbourhood", "postal_code": "9600"}}, {"type": "node", "id": 12164694576, "lat": 7.2543807, "lon": 124.5022255, "tags": {"admin_level": "10", "admin_type:PH": "barangay", "is_in:municipality": "Libungan", "name": "Batiocan", "place": "village", "postal_code": "9411"}}, {"type": "node", "id": 12164694577, "lat": 7.2644263, "lon": 124.4885248, "tags": {"admin_level": "10", "admin_type:PH": "barangay", "is_in:municipality": "Libungan", "name": "Sinawingan", "place": "village", "postal_code": "9411"}}, {"type": "node", "id": 12164694581, "lat": 7.2750875, "lon": 124.5032984, "tags": {"admin_level": "10", "admin_type:PH": "barangay", "is_in:municipality": "Libungan", "name": "Demapaco", "place": "village", "postal_code": "9411"}}, {"type": "node", "id": 12164694582, "lat": 7.2519688, "lon": 124.5175302, "tags": {"admin_level": "10", "admin_type:PH": "barangay", "is_in:municipality": "Libungan", "name": "Cabpangi", "place": "village", "postal_code": "9411"}}, {"type": "node", "id": 12164745841, "lat": 7.0744406, "lon": 124.4598788, "tags": {"admin_level": "10", "admin_type:PH": "barangay", "ele": "5", "is_in:municipality": "Nabalawag", "is_in:province": "SGA", "name": "Damatulan", "official_name": "Barangay Damatulan", "old_ref": "124709011", "place": "village", "population": "4570", "population:date": "2020-05-01", "postal_code": "9410", "ref": "1999904001", "was_in:municipality": "Midsayap"}}, {"type": "node", "id": 12164745842, "lat": 7.0663407, "lon": 124.4942835, "tags": {"admin_level": "10", "admin_type:PH": "barangay", "ele": "25", "is_in:municipality": "Nabalawag", "is_in:province": "SGA", "name": "Kadigasan", "official_name": "Barangay Kadigasan", "old_ref": "124709014", "place": "village", "population": "5441", "population:date": "2020-05-01", "postal_code": "9410", "ref": "1999904002", "was_in:municipality": "Midsayap"}}, {"type": "node", "id": 12164745843, "lat": 7.088263, "lon": 124.4899021, "tags": {"admin_level": "10", "admin_type:PH": "barangay", "ele": "20", "is_in:municipality": "Nabalawag", "is_in:province": "SGA", "name": "Kadingilan", "official_name": "Barangay Kadingilan", "old_ref": "124709015", "place": "village", "population": "2414", "population:date": "2020-05-01", "postal_code": "9410", "ref": "1999904003", "was_in:municipality": "Midsayap"}}, {"type": "node", "id": 12164901281, "lat": 7.1827094, "lon": 124.5480216, "tags": {"admin_level": "10", "admin_type:PH": "barangay", "alt_name": "Upper Glad II", "is_in:municipality": "Midsayap", "name": "Upper Glad 2", "official_name": "Barangay Upper Glad 2", "place": "village", "postal_code": "9410"}}, {"type": "node", "id": 12164901282, "lat": 7.1717599, "lon": 124.5358028, "tags": {"admin_level": "10", "admin_type:PH": "barangay", "alt_name": "Upper Glad I", "is_in:municipality": "Midsayap", "name": "Upper Glad 1", "official_name": "Barangay Upper Glad 1", "place": "village", "postal_code": "9410"}}, {"type": "node", "id": 12164901283, "lat": 7.2223749, "lon": 124.5295036, "tags": {"admin_level": "10", "admin_type:PH": "barangay", "is_in:municipality": "Midsayap", "name": "Villarica", "official_name": "Barangay Villarica", "place": "village", "postal_code": "9410"}}, {"type": "node", "id": 12164901284, "lat": 7.2283247, "lon": 124.4823584, "tags": {"admin_level": "10", "admin_type:PH": "barangay", "is_in:municipality": "Midsayap", "name": "Upper Labas", "official_name": "Barangay Upper Labas", "place": "village", "postal_code": "9410"}}, {"type": "node", "id": 12164901287, "lat": 7.1445867, "lon": 124.5190255, "tags": {"admin_level": "10", "admin_type:PH": "barangay", "is_in:municipality": "Midsayap", "name": "San Pedro", "official_name": "Barangay San Pedro", "place": "village", "postal_code": "9410"}}, {"type": "node", "id": 12164901288, "lat": 7.2100068, "lon": 124.5116615, "tags": {"admin_level": "10", "admin_type:PH": "barangay", "is_in:municipality": "Midsayap", "name": "San Isidro", "official_name": "Barangay San Isidro", "place": "village", "postal_code": "9410"}}, {"type": "node", "id": 12164901290, "lat": 7.1309975, "lon": 124.5256492, "tags": {"admin_level": "10", "admin_type:PH": "barangay", "is_in:municipality": "Midsayap", "name": "Rangeban", "official_name": "Barangay Rangeban", "place": "village", "postal_code": "9410"}}, {"type": "node", "id": 12164901291, "lat": 7.179325, "lon": 124.4757628, "tags": {"admin_level": "10", "admin_type:PH": "barangay", "is_in:municipality": "Midsayap", "name": "Palongoguen", "official_name": "Barangay Palongoguen", "place": "village", "postal_code": "9410"}}, {"type": "node", "id": 12164901292, "lat": 7.219714, "lon": 124.5001173, "tags": {"admin_level": "10", "admin_type:PH": "barangay", "is_in:municipality": "Midsayap", "name": "Patindeguen", "official_name": "Barangay Patindeguen", "place": "village", "postal_code": "9410"}}, {"type": "node", "id": 12164901293, "lat": 7.2315391, "lon": 124.508746, "tags": {"admin_level": "10", "admin_type:PH": "barangay", "is_in:municipality": "Midsayap", "name": "Nalin", "official_name": "Barangay Nalin", "place": "village", "postal_code": "9410"}}, {"type": "node", "id": 12164901296, "lat": 7.0925643, "lon": 124.4417256, "tags": {"admin_level": "10", "admin_type:PH": "barangay", "is_in:municipality": "Midsayap", "name": "Lomopog", "official_name": "Barangay Lomopog", "place": "village", "postal_code": "9410"}}, {"type": "node", "id": 12164901298, "lat": 7.2074336, "lon": 124.5246863, "tags": {"admin_level": "10", "admin_type:PH": "barangay", "is_in:municipality": "Midsayap", "name": "Central Katingawan", "official_name": "Barangay Central Katingawan", "place": "village", "postal_code": "9410"}}, {"type": "node", "id": 12164901299, "lat": 7.1957649, "lon": 124.5249063, "tags": {"admin_level": "10", "admin_type:PH": "barangay", "is_in:municipality": "Midsayap", "name": "Lower Katingawan", "official_name": "Barangay Lower Katingawan", "place": "village", "postal_code": "9410"}}, {"type": "node", "id": 12164901300, "lat": 7.2245116, "lon": 124.5473912, "tags": {"admin_level": "10", "admin_type:PH": "barangay", "is_in:municipality": "Midsayap", "name": "Ilbocean", "official_name": "Barangay Ilbocean", "place": "village", "postal_code": "9410"}}, {"type": "node", "id": 12164935301, "lat": 7.1711864, "lon": 124.5213631, "tags": {"admin_level": "10", "admin_type:PH": "barangay", "is_in:municipality": "Midsayap", "name": "Central Glad", "official_name": "Barangay Central Glad", "place": "village", "postal_code": "9410"}}, {"type": "node", "id": 12164935302, "lat": 7.1544816, "lon": 124.5411229, "tags": {"admin_level": "10", "admin_type:PH": "barangay", "is_in:municipality": "Midsayap", "name": "Central Bulanan", "official_name": "Barangay Central Bulanan", "place": "village", "postal_code": "9410"}}, {"type": "node", "id": 12164935303, "lat": 7.1797954, "lon": 124.5171145, "tags": {"admin_level": "10", "admin_type:PH": "barangay", "is_in:municipality": "Midsayap", "name": "Bual Sur", "official_name": "Barangay Bual Sur", "place": "village", "postal_code": "9410"}}, {"type": "node", "id": 12165225628, "lat": 7.2239156, "lon": 124.4644815, "tags": {"admin_level": "10", "admin_type:PH": "barangay", "ele": "10", "is_in:municipality": "Kadayangan", "is_in:province": "SGA", "name": "Central Labas", "official_name": "Barangay Central Labas", "old_ref": "124709020", "place": "village", "population": "1997", "population:date": "2020-05-01", "postal_code": "9410", "ref": "1999903001", "was_in:municipality": "Midsayap"}}, {"type": "node", "id": 12165684333, "lat": 7.2492335, "lon": 124.421888, "tags": {"alt_name": "Sitio Dunguan", "is_in:barangay": "Bulucaon", "is_in:municipality": "Pigcawayan", "name": "Dunguan", "place": "hamlet", "postal_code": "9412"}}, {"type": "node", "id": 12260769146, "lat": 7.2111536, "lon": 124.1806984, "tags": {"alt_name": "Sitio Timako", "is_in:barangay": "Kalanganan II", "is_in:city": "Cotabato City", "name": "Timako", "place": "neighbourhood", "postal_code": "9600"}}, {"type": "node", "id": 12422597478, "lat": 7.2186682, "lon": 124.2584422, "tags": {"admin_level": "11", "admin_type:PH": "purok", "alt_name": "Lumayon 4", "is_in:barangay": "Poblacion Mother", "is_in:city": "Cotabato City", "name": "Lumayon IV", "official_name": "Purok Lumayon IV", "place": "neighbourhood", "postal_code": "9600"}}, {"type": "node", "id": 12422597479, "lat": 7.2203313, "lon": 124.2584529, "tags": {"admin_level": "11", "admin_type:PH": "purok", "alt_name": "Lumayon 3", "is_in:barangay": "Poblacion Mother", "is_in:city": "Cotabato City", "name": "Lumayon III", "official_name": "Purok Lumayon III", "place": "neighbourhood", "postal_code": "9600"}}, {"type": "node", "id": 12422597480, "lat": 7.2203766, "lon": 124.2593944, "tags": {"admin_level": "11", "admin_type:PH": "purok", "alt_name": "Lumayon 5", "is_in:barangay": "Poblacion Mother", "is_in:city": "Cotabato City", "name": "Lumayon V", "official_name": "Purok Lumayon V", "place": "neighbourhood", "postal_code": "9600"}}, {"type": "node", "id": 12422597481, "lat": 7.2197991, "lon": 124.2595661, "tags": {"admin_level": "11", "admin_type:PH": "purok", "alt_name": "Lumayon 2", "is_in:barangay": "Poblacion Mother", "is_in:city": "Cotabato City", "name": "Lumayon II", "official_name": "Purok Lumayon II", "place": "neighbourhood", "postal_code": "9600"}}, {"type": "node", "id": 12422597482, "lat": 7.2194452, "lon": 124.2602205, "tags": {"admin_level": "11", "admin_type:PH": "purok", "alt_name": "Lumayon 1", "is_in:barangay": "Poblacion Mother", "is_in:city": "Cotabato City", "name": "Lumayon I", "official_name": "Purok Lumayon I", "place": "neighbourhood", "postal_code": "9600"}}, {"type": "node", "id": 12422597483, "lat": 7.2186549, "lon": 124.2596519, "tags": {"admin_level": "11", "admin_type:PH": "purok", "is_in:barangay": "Poblacion Mother", "is_in:city": "Cotabato City", "name": "Mantok", "official_name": "Purok Mantok", "place": "neighbourhood", "postal_code": "9600"}}, {"type": "node", "id": 12422597484, "lat": 7.2194559, "lon": 124.2582598, "tags": {"admin_level": "11", "admin_type:PH": "purok", "is_in:barangay": "Poblacion Mother", "is_in:city": "Cotabato City", "name": "Masigay", "official_name": "Purok Masigay", "place": "neighbourhood", "postal_code": "9600"}}, {"type": "node", "id": 12422597485, "lat": 7.2197273, "lon": 124.2577958, "tags": {"admin_level": "11", "admin_type:PH": "purok", "alt_name": "Ulandangen 1", "is_in:barangay": "Poblacion Mother", "is_in:city": "Cotabato City", "name": "Ulandangen I", "official_name": "Purok Ulandangen I", "place": "neighbourhood", "postal_code": "9600"}}, {"type": "node", "id": 12422597486, "lat": 7.2225479, "lon": 124.2545168, "tags": {"admin_level": "11", "admin_type:PH": "purok", "is_in:barangay": "Poblacion Mother", "is_in:city": "Cotabato City", "name": "Samal", "official_name": "Purok Samal", "place": "neighbourhood", "postal_code": "9600"}}, {"type": "node", "id": 12422597487, "lat": 7.2224175, "lon": 124.2530563, "tags": {"admin_level": "11", "admin_type:PH": "purok", "is_in:barangay": "Poblacion Mother", "is_in:city": "Cotabato City", "name": "Quezon", "official_name": "Purok Quezon", "place": "neighbourhood", "postal_code": "9600"}}, {"type": "node", "id": 12422597488, "lat": 7.2205894, "lon": 124.2556527, "tags": {"admin_level": "11", "admin_type:PH": "purok", "alt_name": "Ulandangen 2", "is_in:barangay": "Poblacion Mother", "is_in:city": "Cotabato City", "name": "Ulandangen II", "official_name": "Purok Ulandangen II", "place": "neighbourhood", "postal_code": "9600"}}, {"type": "node", "id": 12422597489, "lat": 7.2200413, "lon": 124.2571045, "tags": {"admin_level": "11", "admin_type:PH": "purok", "is_in:barangay": "Poblacion Mother", "is_in:city": "Cotabato City", "name": "Dimacaling", "official_name": "Purok Dimacaling", "place": "neighbourhood", "postal_code": "9600"}}, {"type": "node", "id": 12422597490, "lat": 7.2203553, "lon": 124.2563152, "tags": {"admin_level": "11", "admin_type:PH": "purok", "is_in:barangay": "Poblacion Mother", "is_in:city": "Cotabato City", "name": "Rajamuda", "official_name": "Purok Rajamuda", "place": "neighbourhood", "postal_code": "9600"}}, {"type": "node", "id": 12422597491, "lat": 7.2198683, "lon": 124.2560899, "tags": {"admin_level": "11", "admin_type:PH": "purok", "is_in:barangay": "Poblacion Mother", "is_in:city": "Cotabato City", "name": "Frances", "official_name": "Purok Frances", "place": "neighbourhood", "postal_code": "9600"}}, {"type": "node", "id": 12422597492, "lat": 7.220952, "lon": 124.2543914, "tags": {"admin_level": "11", "admin_type:PH": "purok", "is_in:barangay": "Poblacion Mother", "is_in:city": "Cotabato City", "name": "Pindulunan", "official_name": "Purok Pindulunan", "place": "neighbourhood", "postal_code": "9600"}}, {"type": "node", "id": 12422597493, "lat": 7.2205967, "lon": 124.2546161, "tags": {"admin_level": "11", "admin_type:PH": "purok", "is_in:barangay": "Poblacion Mother", "is_in:city": "Cotabato City", "name": "Maawan", "official_name": "Purok Maawan", "place": "neighbourhood", "postal_code": "9600"}}, {"type": "node", "id": 12422597494, "lat": 7.2209773, "lon": 124.2548179, "tags": {"admin_level": "11", "admin_type:PH": "purok", "alt_name": "Buliao 1", "is_in:barangay": "Poblacion Mother", "is_in:city": "Cotabato City", "name": "Buliao I", "official_name": "Purok Buliao I", "place": "neighbourhood", "postal_code": "9600"}}, {"type": "node", "id": 12422597495, "lat": 7.2206772, "lon": 124.2570341, "tags": {"admin_level": "11", "admin_type:PH": "purok", "alt_name": "Buliao 3", "is_in:barangay": "Poblacion Mother", "is_in:city": "Cotabato City", "name": "Buliao III", "official_name": "Purok Buliao III", "place": "neighbourhood", "postal_code": "9600"}}, {"type": "node", "id": 12422597496, "lat": 7.2213984, "lon": 124.2553885, "tags": {"admin_level": "11", "admin_type:PH": "purok", "alt_name": "Buliao 2", "is_in:barangay": "Poblacion Mother", "is_in:city": "Cotabato City", "name": "Buliao II", "official_name": "Purok Buliao II", "place": "neighbourhood", "postal_code": "9600"}}, {"type": "node", "id": 12422597497, "lat": 7.2219625, "lon": 124.2556903, "tags": {"admin_level": "11", "admin_type:PH": "purok", "is_in:barangay": "Poblacion Mother", "is_in:city": "Cotabato City", "name": "Kabuntalan", "official_name": "Purok Kabuntalan", "place": "neighbourhood", "postal_code": "9600"}}, {"type": "node", "id": 12422597498, "lat": 7.2213079, "lon": 124.2571628, "tags": {"admin_level": "11", "admin_type:PH": "purok", "is_in:barangay": "Poblacion Mother", "is_in:city": "Cotabato City", "name": "Islam", "official_name": "Purok Islam", "place": "neighbourhood", "postal_code": "9600"}}, {"type": "node", "id": 12749936302, "lat": 7.411777, "lon": 124.4135597, "tags": {"admin_level": "10", "admin_type:PH": "barangay", "is_in:municipality": "Buldon", "name": "Dinganen", "official_name": "Barangay Dinganen", "place": "village", "postal_code": "9615"}}, {"type": "node", "id": 12749936303, "lat": 7.441837, "lon": 124.3956533, "tags": {"admin_level": "10", "admin_type:PH": "barangay", "is_in:municipality": "Buldon", "name": "Edcor", "official_name": "Barangay Edcor", "place": "village", "postal_code": "9615"}}, {"type": "node", "id": 12756803809, "lat": 7.3900831, "lon": 124.3510723, "tags": {"admin_level": "10", "admin_type:PH": "barangay", "is_in:municipality": "Buldon", "name": "Aratuc", "official_name": "Barangay Aratuc", "place": "village", "postal_code": "9615"}}, {"type": "node", "id": 12757608820, "lat": 7.0750288, "lon": 124.3139532, "tags": {"admin_level": "10", "admin_type:PH": "barangay", "is_in:municipality": "Datu Odin Sinsuat", "name": "Bugawas", "official_name": "Barangay Bugawas", "place": "village", "postal_code": "9601"}}, {"type": "node", "id": 12757716782, "lat": 7.4096518, "lon": 124.2977688, "tags": {"admin_level": "10", "admin_type:PH": "barangay", "is_in:municipality": "Barira", "name": "Marang", "official_name": "Barangay Marang", "place": "village", "postal_code": "9614"}}, {"type": "node", "id": 12757724637, "lat": 7.4286983, "lon": 124.385131, "tags": {"admin_level": "10", "admin_type:PH": "barangay", "is_in:municipality": "Buldon", "name": "Oring", "official_name": "Barangay Oring", "place": "village", "postal_code": "9615"}}, {"type": "node", "id": 12758737403, "lat": 7.4286557, "lon": 124.1725445, "tags": {"admin_level": "10", "admin_type:PH": "barangay", "is_in:municipality": "Kapatagan", "name": "Lusain", "official_name": "Barangay Lusain", "place": "village", "postal_code": "9322"}}, {"type": "node", "id": 12758737404, "lat": 7.4519221, "lon": 124.1560811, "tags": {"admin_level": "10", "admin_type:PH": "barangay", "is_in:municipality": "Kapatagan", "name": "Matimos", "official_name": "Barangay Matimos", "place": "village", "postal_code": "9322"}}, {"type": "node", "id": 12758737405, "lat": 7.4609565, "lon": 124.1482651, "tags": {"admin_level": "10", "admin_type:PH": "barangay", "is_in:municipality": "Kapatagan", "name": "Salaman", "official_name": "Barangay Salaman", "place": "village", "postal_code": "9322"}}, {"type": "node", "id": 12758737406, "lat": 7.4699642, "lon": 124.1424635, "tags": {"admin_level": "10", "admin_type:PH": "barangay", "is_in:municipality": "Kapatagan", "name": "Bakikis", "official_name": "Barangay Bakikis", "place": "village", "postal_code": "9322"}}, {"type": "node", "id": 12758766417, "lat": 7.4990203, "lon": 124.1359994, "tags": {"admin_level": "10", "admin_type:PH": "barangay", "is_in:municipality": "Balabagan", "name": "Batuan", "official_name": "Barangay Batuan", "place": "village", "postal_code": "9302"}}, {"type": "node", "id": 12758766418, "lat": 7.4800965, "lon": 124.1306215, "tags": {"admin_level": "10", "admin_type:PH": "barangay", "is_in:municipality": "Balabagan", "name": "Budas", "official_name": "Barangay Budas", "place": "village", "postal_code": "9302"}}, {"type": "way", "id": 160550545, "nodes": [1726073436, 1726073419, 1417275281, 1029499409, 7716484102, 7716484103, 1726073427, 1726073436], "tags": {"alt_name": "Our Lady of Penafrancia Subdivision", "is_in:city": "Cotabato City", "landuse": "residential", "name": "Our Lady of Penafrancia", "place": "neighbourhood", "postal_code": "9600", "residential": "urban"}}, {"type": "way", "id": 160550549, "nodes": [1726073438, 1726073431, 1726073432, 1417275278, 1726073433, 1726073440, 1726073421, 1726073422, 1726073423, 1726073436, 1726073427, 7716484101, 1726073424, 1726073438], "tags": {"landuse": "residential", "name": "Federville Village", "place": "neighbourhood"}}, {"type": "way", "id": 335711063, "nodes": [7990801095, 3428215040, 3428215083, 3428215091, 3428215393, 3428215089, 3428215092, 3428215088, 3428215090, 3428215087, 7990801095], "tags": {"landuse": "residential", "name": "SPDA Village", "place": "neighbourhood", "previously": "node:3428215040"}}, {"type": "way", "id": 335712538, "nodes": [4735365977, 4735365975, 4735365974, 6086909546, 3428228201, 6086909545, 3428228196, 3428228195, 3426213851, 3426213835, 3428228194, 6228593275, 6228593276, 6228593403, 6228593406, 816275694, 4735365976, 3428228197, 2545092663, 3428228199, 4735365776, 4735365977], "tags": {"landuse": "residential", "name": "Notre Dame Village", "place": "neighbourhood"}}, {"type": "way", "id": 337121406, "nodes": [3442227088, 3442227087, 3442227081, 3442227077, 3442227073, 3442227067, 3442227066, 3442227080, 3442227083, 1029498469, 3442227086, 3442227089, 3442227088], "tags": {"name": "Urban Poor Village", "place": "neighbourhood", "place:PH": "village"}}, {"type": "way", "id": 645509951, "nodes": [1726073431, 1726073438, 6067746303, 6067746302, 6067746301, 6067746300, 6067746299, 6067746298, 6067746297, 6067746296, 6067746295, 1417275286, 6067746290, 6067746401, 6067746400, 6067746379, 6067746378, 6067746399, 6067746398, 6067746397, 6067746396, 6067746389, 6067746388, 6067746387, 6067746386, 6067746385, 6067746382, 1726073431], "tags": {"landuse": "residential", "name": "Purveyors Village", "place": "neighbourhood"}}]}