{"version": 0.6, "generator": "Overpass API 0.7.62.5 1bd436f1", "osm3s": {"timestamp_osm_base": "2025-05-24T17:52:15Z", "copyright": "The data included in this document is from www.openstreetmap.org. The data is made available under ODbL."}, "elements": [{"type": "node", "id": 198490773, "lat": 17.0844848, "lon": 120.9005584, "tags": {"admin_level": "6", "admin_type:PH": "municipality", "ele": "1520", "is_in:province": "Mountain Province", "name": "Sagada", "name:pronunciation": "sa\u02c8\u0261ada", "place": "town", "population": "11127", "population:date": "2015-08-01", "ref": "144409000", "source:population": "Philippine Statistics Authority", "wikidata": "Q36090", "wikimedia_commons": "Category:Sagada", "wikipedia": "en:Sagada"}}, {"type": "node", "id": 198491047, "lat": 16.9902652, "lon": 120.865329, "tags": {"admin_level": "6", "gns_classification": "ADM2", "gns_uni": "-3329789", "name": "Bauko", "name:pronunciation": "ba\u02c8\u0294uko", "place": "town", "place:PH": "municipality", "population": "31065", "population:date": "2015-08-01", "ref": "144402000", "source": "GNS, PSGC", "source:population": "Philippine Statistics Authority", "wikidata": "Q35994", "wikimedia_commons": "Category:Bauko", "wikipedia": "en:Bauko"}}, {"type": "node", "id": 198498532, "lat": 17.0409263, "lon": 121.0997536, "tags": {"admin_level": "6", "admin_type:PH": "municipality", "gns_classification": "ADM2", "gns_uni": "-3328932", "name": "Barlig", "place": "town", "population": "4819", "population:date": "2015-08-01", "ref": "144401000", "source": "GNS, PSGC", "source:population": "Philippine Statistics Authority", "wikidata": "Q35975", "wikimedia_commons": "Category:Barlig", "wikipedia": "en:Barlig"}}, {"type": "node", "id": 198498956, "lat": 17.0891276, "lon": 120.977394, "tags": {"admin_level": "6", "capital": "4", "gns_classification": "ADM2", "gns_uni": "-3332256", "name": "Bontoc", "name:ja": "\u30dc\u30f3\u30c8\u30c3\u30af", "place": "town", "place:PH": "municipality", "population": "24643", "population:date": "2015-08-01", "source": "GNS", "source:population": "Philippine Statistics Authority", "wikidata": "Q36025", "wikimedia_commons": "Category:Bontoc, Mountain Province", "wikipedia": "en:Bontoc, Mountain Province"}}, {"type": "node", "id": 198500414, "lat": 16.9117913, "lon": 121.0614068, "tags": {"admin_level": "6", "admin_type:PH": "municipality", "gns_classification": "ADM2", "gns_uni": "-3327779", "is_in:province": "Ifugao", "name": "Banaue", "place": "town", "population": "21837", "population:date": "2015-08-01", "ref": "142701000", "source": "GNS", "source:population": "Philippine Statistics Authority", "wikidata": "Q806138", "wikimedia_commons": "Category:Banaue", "wikipedia": "en:Banaue"}}, {"type": "node", "id": 198509520, "lat": 17.1682043, "lon": 121.0264409, "tags": {"admin_level": "6", "gns_classification": "ADM2", "gns_uni": "-3372961", "name": "Sadanga", "name:pronunciation": "sada\u014b\u02c8\u0261a", "place": "town", "place:PH": "municipality", "population": "8799", "population:date": "2015-08-01", "ref": "144408000", "source": "GNS, PSGC", "source:population": "Philippine Statistics Authority", "wikidata": "Q36076", "wikimedia_commons": "Category:Sadanga", "wikipedia": "en:Sadanga, Mountain Province"}}, {"type": "node", "id": 198514847, "lat": 17.2815631, "lon": 121.2317848, "tags": {"admin_level": "6", "gns_classification": "ADM2", "gns_uni": "-3382685", "is_in:province": "Kalinga", "name": "Tanudan", "place": "town", "place:PH": "municipality", "population": "9534", "population:date": "2015-08-01", "source": "GNS", "source:population": "Philippine Statistics Authority", "wikidata": "Q35897", "wikimedia_commons": "Category:Tanudan", "wikipedia": "en:Tanudan, Kalinga"}}, {"type": "node", "id": 198518459, "lat": 17.2659982, "lon": 121.1482339, "tags": {"admin_level": "6", "name": "Tinglayan", "place": "town", "place:PH": "municipality", "population": "12868", "population:date": "2015-08-01", "ref": "143215000", "source:population": "Philippine Statistics Authority", "wikidata": "Q35909", "wikimedia_commons": "Category:Tinglayan", "wikipedia": "en:Tinglayan, Kalinga"}}, {"type": "node", "id": 198528473, "lat": 17.1074577, "lon": 121.2747091, "tags": {"admin_level": "6", "admin_type:PH": "municipality", "gns_classification": "ADM2", "gns_uni": "-3364627", "name": "Natonin", "place": "town", "population": "10272", "population:date": "2015-08-01", "ref": "144405000", "source": "PSGC", "source:population": "Philippine Statistics Authority", "wikidata": "Q36040", "wikimedia_commons": "Category:Natonin", "wikipedia": "en:Natonin, Mountain Province"}}, {"type": "node", "id": 198530488, "lat": 16.9726024, "lon": 121.2221163, "tags": {"admin_level": "6", "gns_classification": "ADM2", "gns_uni": "-3362014", "is_in:province": "Ifugao", "name": "Mayoyao", "place": "town", "place:PH": "municipality", "population": "17331", "population:date": "2015-08-01", "source": "GNS", "source:population": "Philippine Statistics Authority", "wikidata": "Q30425", "wikimedia_commons": "Category:Mayoyao", "wikipedia": "en:Mayoyao, Ifugao"}}, {"type": "node", "id": 359344561, "lat": 17.0059098, "lon": 120.8787638, "tags": {"admin_level": "10", "alt_name": "Bua", "is_in:province": "Mountain Province", "is_in:town": "Bauko", "name": "Bila", "place": "village", "place:PH": "barangay", "ref": "144402006", "source": "Enggana Research, PSGC"}}, {"type": "node", "id": 359345110, "lat": 17.0476262, "lon": 120.936077, "tags": {"admin_level": "10", "admin_type:PH": "barangay", "name": "Balili", "place": "village"}}, {"type": "node", "id": 359358021, "lat": 17.0598834, "lon": 120.9430752, "tags": {"admin_level": "10", "designation": "barangay", "name": "Alab Oriente", "place": "village"}}, {"type": "node", "id": 359358537, "lat": 17.0583667, "lon": 120.9366229, "tags": {"admin_level": "10", "admin_type:PH": "barangay", "name": "Alab Proper", "place": "village"}}, {"type": "node", "id": 359359314, "lat": 17.0321049, "lon": 120.9395814, "tags": {"admin_level": "10", "designation": "barangay", "name": "Gonogon", "place": "village"}}, {"type": "node", "id": 364220195, "lat": 17.0747658, "lon": 120.9445531, "tags": {"is_in": "Alab Oriente", "name": "Dantay", "place": "neighbourhood"}}, {"type": "node", "id": 364223781, "lat": 16.9154905, "lon": 120.8880084, "tags": {"admin_level": "10", "name": "Mabaay", "place": "village", "place:PH": "barangay", "ref": "144402012"}}, {"type": "node", "id": 364229181, "lat": 17.0729642, "lon": 120.8985274, "tags": {"admin_level": "10", "designation": "barangay", "name": "Ambasing", "place": "village"}}, {"type": "node", "id": 368394224, "lat": 17.0276971, "lon": 120.8934537}, {"type": "node", "id": 1278933580, "lat": 16.9517975, "lon": 121.1278349, "tags": {"admin_level": "10", "admin_type:PH": "barangay", "name": "Cambulo", "official_name": "Barangay Cambulo", "place": "village"}}, {"type": "node", "id": 1278937290, "lat": 16.9332382, "lon": 121.1363367}, {"type": "node", "id": 1278937292, "lat": 16.933343, "lon": 121.1363576}, {"type": "node", "id": 1278937293, "lat": 16.9334874, "lon": 121.1363741}, {"type": "node", "id": 1278937304, "lat": 16.9343758, "lon": 121.1365491}, {"type": "node", "id": 1278941548, "lat": 16.9168717, "lon": 121.1434751, "tags": {"name": "Nagkor Village", "place": "hamlet"}}, {"type": "node", "id": 1278955904, "lat": 16.9106327, "lon": 121.1267205}, {"type": "node", "id": 1958889548, "lat": 17.1103598, "lon": 120.9004454, "tags": {"admin_level": "10", "admin_type:PH": "barangay", "is_in:town": "Sagada", "name": "Madongo", "place": "village"}}, {"type": "node", "id": 1976324209, "lat": 17.2661581, "lon": 121.229563, "tags": {"fixme": "verify if Lower Lubo or Upper Lubo", "name": "Lubo", "place": "village"}}, {"type": "node", "id": 1976379535, "lat": 17.250897, "lon": 121.2348952, "tags": {"admin_level": "10", "alt_name": "Ga-ang", "designation": "barangay", "name": "Gaang", "place": "village"}}, {"type": "node", "id": 1976379628, "lat": 17.2266631, "lon": 121.2259044, "tags": {"admin_level": "10", "designation": "barangay", "name": "Dacalan", "place": "village"}}, {"type": "node", "id": 2270436909, "lat": 16.9716689, "lon": 121.2201427, "tags": {"admin_level": "10", "name": "Poblacion", "place": "village", "place:PH": "barangay"}}, {"type": "node", "id": 2313876402, "lat": 17.1280578, "lon": 120.8921382, "tags": {"admin_level": "10", "admin_type:PH": "barangay", "is_in:town": "Sagada", "name": "Pide", "place": "village"}}, {"type": "node", "id": 2342957348, "lat": 17.0523048, "lon": 120.8632514}, {"type": "node", "id": 2342957349, "lat": 17.0516842, "lon": 120.86301}, {"type": "node", "id": 2342957350, "lat": 17.0514894, "lon": 120.8630743}, {"type": "node", "id": 2342957351, "lat": 17.0511689, "lon": 120.8633559}, {"type": "node", "id": 2342957352, "lat": 17.0510124, "lon": 120.863238}, {"type": "node", "id": 2342957353, "lat": 17.0508021, "lon": 120.8627525}, {"type": "node", "id": 2342957354, "lat": 17.0506714, "lon": 120.8623341}, {"type": "node", "id": 2342957356, "lat": 17.0513278, "lon": 120.8619156}, {"type": "node", "id": 2342957357, "lat": 17.0521099, "lon": 120.8614919}, {"type": "node", "id": 2342957358, "lat": 17.0524202, "lon": 120.8619398}, {"type": "node", "id": 2342957359, "lat": 17.0525997, "lon": 120.8624896}, {"type": "node", "id": 2342978076, "lat": 17.1118678, "lon": 120.8680169, "tags": {"admin_level": "10", "designation": "barangay", "is_in": "Besao", "name": "Agawa", "place": "village", "ref": "144403001"}}, {"type": "node", "id": 2417751631, "lat": 16.9824406, "lon": 121.1484344, "tags": {"name": "Patyay", "place": "hamlet", "source": "Alain Orlanes"}}, {"type": "node", "id": 2499767442, "lat": 17.0507586, "lon": 120.8814284, "tags": {"alt_name": "Gotang", "name": "Gutang", "place": "neighbourhood"}}, {"type": "node", "id": 2593468266, "lat": 17.1534913, "lon": 121.3219114, "tags": {"fixme": "verify location", "name": "Tappo", "place": "neighbourhood"}}, {"type": "node", "id": 2613338847, "lat": 17.1333753, "lon": 120.8928433, "tags": {"admin_level": "10", "admin_type:PH": "barangay", "name": "Aguid", "place": "village"}}, {"type": "node", "id": 2613338848, "lat": 17.1191464, "lon": 120.894241, "tags": {"admin_level": "10", "admin_type:PH": "barangay", "is_in:town": "Sagada", "name": "Bangaan", "place": "village"}}, {"type": "node", "id": 2613338908, "lat": 17.1148299, "lon": 120.9063122, "tags": {"admin_level": "10", "designation": "barangay", "is_in:town": "Sagada", "name": "Tanulong", "place": "village"}}, {"type": "node", "id": 2613401107, "lat": 17.0462705, "lon": 120.9039872, "tags": {"addr:postcode": "2619", "admin_level": "10", "admin_type:PH": "barangay", "name": "Suyo", "place": "village"}}, {"type": "node", "id": 2613510922, "lat": 17.0072951, "lon": 121.0185854, "tags": {"admin_level": "10", "alt_name": "Bay-yo", "designation": "barangay", "name": "Bayyo", "place": "village"}}, {"type": "node", "id": 2653569442, "lat": 16.9155055, "lon": 121.1588819, "tags": {"is_in:city": "Banaue", "is_in:state": "Ifugao", "name": "Anaba", "place": "village"}}, {"type": "node", "id": 2653569446, "lat": 16.8802527, "lon": 121.0511894, "tags": {"admin_level": "10", "is_in:city": "Banaue", "is_in:province": "Ifugao", "name": "Balawis", "place": "village", "place:PH": "barangay"}}, {"type": "node", "id": 2653569451, "lat": 16.8840617, "lon": 121.1591911, "tags": {"is_in:city": "Banaue", "is_in:state": "Ifugao", "name": "Banao", "place": "village"}}, {"type": "node", "id": 2653569459, "lat": 16.9340965, "lon": 121.1362684, "tags": {"admin_level": "10", "admin_type:PH": "barangay", "is_in:city": "Banaue", "name": "Batad", "place": "village"}}, {"type": "node", "id": 2653569464, "lat": 16.9275072, "lon": 121.079786, "tags": {"fixme": "move node to barangay center", "is_in:city": "Banaue", "is_in:state": "Ifugao", "name": "Bocos", "place": "village"}}, {"type": "node", "id": 2653569477, "lat": 16.9012891, "lon": 121.1628927, "tags": {"is_in:city": "Banaue", "is_in:state": "Ifugao", "name": "Ducligan", "place": "village"}}, {"type": "node", "id": 2653569480, "lat": 16.919847, "lon": 121.050235, "tags": {"is_in:city": "Banaue", "is_in:state": "Ifugao", "name": "Gohang", "place": "village"}}, {"type": "node", "id": 2653569484, "lat": 16.9091243, "lon": 121.104326, "tags": {"is_in:city": "Banaue", "is_in:state": "Ifugao", "name": "Kinakin", "place": "village"}}, {"type": "node", "id": 2653569488, "lat": 16.8959478, "lon": 121.0307519, "tags": {"admin_level": "10", "admin_type:PH": "barangay", "is_in:city": "Banaue", "name": "Ohaj", "place": "village"}}, {"type": "node", "id": 2653569497, "lat": 16.90225, "lon": 121.0762476, "tags": {"admin_level": "10", "is_in:province": "Ifugao", "is_in:town": "Banaue", "name": "Poitan", "place": "village", "place:PH": "barangay"}}, {"type": "node", "id": 2653569501, "lat": 16.9770354, "lon": 121.1076575, "tags": {"is_in:city": "Banaue", "is_in:state": "Ifugao", "name": "Pula", "place": "village"}}, {"type": "node", "id": 2653569505, "lat": 16.9373509, "lon": 121.0506846, "tags": {"fixme": "move node to barangay center", "is_in:city": "Banaue", "is_in:state": "Ifugao", "name": "San Fernando", "place": "village"}}, {"type": "node", "id": 2653569510, "lat": 16.9042877, "lon": 121.063626, "tags": {"admin_level": "10", "is_in:province": "Ifugao", "is_in:town": "Banaue", "name": "Tam-an", "place": "village", "place:PH": "barangay"}}, {"type": "node", "id": 2784699171, "lat": 17.0293436, "lon": 120.9017494, "tags": {"admin_level": "10", "designation": "barangay", "name": "Data", "place": "village"}}, {"type": "node", "id": 2784726218, "lat": 17.040122, "lon": 121.0099651, "tags": {"admin_level": "10", "designation": "barangay", "name": "Talubin", "place": "village"}}, {"type": "node", "id": 2785705815, "lat": 17.0821866, "lon": 120.9763412, "tags": {"name": "Lanao", "place": "neighbourhood"}}, {"type": "node", "id": 2785720493, "lat": 17.1249754, "lon": 120.9375779, "tags": {"admin_level": "10", "alt_name": "Dalikan", "designation": "barangay", "name": "Dalican", "place": "village"}}, {"type": "node", "id": 2785728316, "lat": 17.1984813, "lon": 121.0912899, "tags": {"admin_level": "10", "designation": "barangay", "is_in:town": "Tinglayan", "name": "Bugnay", "place": "village"}}, {"type": "node", "id": 2785731185, "lat": 17.2294284, "lon": 121.0860744, "tags": {"admin_level": "10", "designation": "barangay", "is_in:town": "Tinglayan", "name": "Buscalan", "place": "village"}}, {"type": "node", "id": 2785735071, "lat": 17.2570162, "lon": 121.1415613, "tags": {"admin_level": "10", "designation": "barangay", "is_in:town": "Tinglayan", "name": "Luplupa", "place": "village"}}, {"type": "node", "id": 2789064842, "lat": 16.8721801, "lon": 121.0676067, "tags": {"admin_level": "10", "is_in:town": "Hingyon", "name": "O-ong", "place": "village", "place:PH": "barangay", "ref": "142709007"}}, {"type": "node", "id": 2789608551, "lat": 17.1519953, "lon": 120.9570715, "tags": {"admin_level": "10", "designation": "barangay", "name": "Mainit", "place": "village"}}, {"type": "node", "id": 2791690031, "lat": 17.1170649, "lon": 121.0142667, "tags": {"name": "Tocucan", "place": "village"}}, {"type": "node", "id": 2791690218, "lat": 17.1331333, "lon": 121.0628337, "tags": {"admin_level": "10", "designation": "barangay", "name": "Anabel", "place": "village", "postal_code": "2617"}}, {"type": "node", "id": 2791690631, "lat": 17.1681902, "lon": 121.0263844, "tags": {"name": "Poblacion Proper", "place": "neighbourhood"}}, {"type": "node", "id": 2791690638, "lat": 17.2363758, "lon": 121.0886822, "tags": {"admin_level": "10", "designation": "barangay", "is_in:town": "Tinglayan", "name": "Loccong", "place": "village"}}, {"type": "node", "id": 2791690640, "lat": 17.2430137, "lon": 121.1200839, "tags": {"admin_level": "10", "designation": "barangay", "is_in:town": "Tinglayan", "name": "Ngibat", "place": "village"}}, {"type": "node", "id": 2810996119, "lat": 17.1269617, "lon": 120.9854453, "tags": {"admin_level": "10", "designation": "barangay", "name": "Maligcong", "place": "village"}}, {"type": "node", "id": 2849745309, "lat": 17.0272308, "lon": 120.9267202, "tags": {"admin_level": "10", "designation": "barangay", "name": "Tambingan", "place": "village"}}, {"type": "node", "id": 2940755629, "lat": 17.0772581, "lon": 120.8983538, "tags": {"admin_level": "10", "designation": "barangay", "name": "Demang", "place": "village"}}, {"type": "node", "id": 2940757249, "lat": 17.0759453, "lon": 120.9013901, "tags": {"name": "Makingking", "place": "hamlet"}}, {"type": "node", "id": 2940769388, "lat": 17.0789591, "lon": 121.0131978, "tags": {"admin_level": "10", "alt_name": "Can-eo", "designation": "barangay", "name": "Caneo", "place": "village"}}, {"type": "node", "id": 2953804051, "lat": 17.0401073, "lon": 120.9223763, "tags": {"name": "Payag-eo", "place": "hamlet"}}, {"type": "node", "id": 2981353827, "lat": 17.0612183, "lon": 120.8932354, "tags": {"admin_level": "10", "designation": "barangay", "name": "Balugan", "place": "village"}}, {"type": "node", "id": 2981354642, "lat": 17.0829149, "lon": 120.9010406, "tags": {"name": "Dao-angan", "place": "hamlet"}}, {"type": "node", "id": 2982086362, "lat": 17.0820851, "lon": 120.9269456, "tags": {"admin_level": "10", "designation": "barangay", "name": "Antadao", "place": "village"}}, {"type": "node", "id": 2982086424, "lat": 17.0915815, "lon": 120.926993, "tags": {"fixme": "Verify if Tetepan Norte or Tetepan Sur", "name": "Tetepan", "place": "village"}}, {"type": "node", "id": 2982090619, "lat": 17.0898586, "lon": 120.9237377, "tags": {"admin_level": "10", "designation": "barangay", "name": "Kilong", "place": "village"}}, {"type": "node", "id": 2983083968, "lat": 17.0657619, "lon": 120.8932817, "tags": {"admin_level": "10", "designation": "barangay", "name": "Pide", "place": "village"}}, {"type": "node", "id": 2983100233, "lat": 17.0474577, "lon": 120.8983338, "tags": {"admin_level": "10", "admin_type:PH": "barangay", "alt_name": "Angkileng", "name": "Angkeling", "place": "village"}}, {"type": "node", "id": 2983160856, "lat": 17.1352324, "lon": 120.9558801, "tags": {"admin_level": "10", "alt_name": "Guina-ang", "designation": "barangay", "name": "Guinaang", "place": "village"}}, {"type": "node", "id": 2983168263, "lat": 17.1261066, "lon": 120.9812248, "tags": {"name": "Fang-orao", "place": "neighbourhood"}}, {"type": "node", "id": 2983168433, "lat": 17.1329556, "lon": 120.9841215, "tags": {"name": "Favarey", "place": "neighbourhood"}}, {"type": "node", "id": 2983168930, "lat": 17.122595, "lon": 120.9765738, "tags": {"name": "Favuyan", "place": "neighbourhood"}}, {"type": "node", "id": 2984566546, "lat": 17.0843444, "lon": 120.9746154, "tags": {"name": "Foyayeng", "place": "neighbourhood"}}, {"type": "node", "id": 3101698371, "lat": 16.9348004, "lon": 121.1380166}, {"type": "node", "id": 3101698424, "lat": 16.9346594, "lon": 121.1377679}, {"type": "node", "id": 3101698425, "lat": 16.9346641, "lon": 121.1377941}, {"type": "node", "id": 3101698426, "lat": 16.9346731, "lon": 121.1378611}, {"type": "node", "id": 3101698427, "lat": 16.9347218, "lon": 121.1378933}, {"type": "node", "id": 3101751054, "lat": 16.934889, "lon": 121.1381695}, {"type": "node", "id": 3101765406, "lat": 16.9344324, "lon": 121.1370056}, {"type": "node", "id": 3101765407, "lat": 16.9344453, "lon": 121.137074}, {"type": "node", "id": 3101765408, "lat": 16.9344004, "lon": 121.1372188}, {"type": "node", "id": 3101765411, "lat": 16.9344176, "lon": 121.1373811}, {"type": "node", "id": 3101765412, "lat": 16.9344318, "lon": 121.1374751}, {"type": "node", "id": 3103229803, "lat": 16.9346361, "lon": 121.1364044}, {"type": "node", "id": 3103229805, "lat": 16.9347638, "lon": 121.1363755}, {"type": "node", "id": 3103235888, "lat": 16.9345685, "lon": 121.1363591}, {"type": "node", "id": 3103235889, "lat": 16.9345287, "lon": 121.1363431}, {"type": "node", "id": 3103235890, "lat": 16.9345034, "lon": 121.1363387}, {"type": "node", "id": 3103235891, "lat": 16.9344872, "lon": 121.1363843}, {"type": "node", "id": 3103251544, "lat": 16.9346219, "lon": 121.136101}, {"type": "node", "id": 3103251545, "lat": 16.9347368, "lon": 121.1361794}, {"type": "node", "id": 3103251546, "lat": 16.9347864, "lon": 121.1360716}, {"type": "node", "id": 3103254045, "lat": 16.934503, "lon": 121.1358623}, {"type": "node", "id": 3103255311, "lat": 16.9343216, "lon": 121.1358502}, {"type": "node", "id": 3103471647, "lat": 16.9345659, "lon": 121.136175}, {"type": "node", "id": 3105060708, "lat": 16.9335206, "lon": 121.1363643}, {"type": "node", "id": 3173776423, "lat": 17.0079005, "lon": 120.8768601}, {"type": "node", "id": 3173776424, "lat": 17.0078492, "lon": 120.8771146}, {"type": "node", "id": 3173776425, "lat": 17.0074394, "lon": 120.8775498}, {"type": "node", "id": 3173776426, "lat": 17.0074394, "lon": 120.8778311}, {"type": "node", "id": 3173776427, "lat": 17.0069143, "lon": 120.8786548}, {"type": "node", "id": 3173776428, "lat": 17.0071, "lon": 120.8791771}, {"type": "node", "id": 3173776429, "lat": 17.0065941, "lon": 120.8804762}, {"type": "node", "id": 3173776430, "lat": 17.0061971, "lon": 120.8806102}, {"type": "node", "id": 3173776431, "lat": 17.0059153, "lon": 120.8805633}, {"type": "node", "id": 3173776432, "lat": 17.0054799, "lon": 120.8800343}, {"type": "node", "id": 3173776433, "lat": 17.0052045, "lon": 120.8794651}, {"type": "node", "id": 3173776434, "lat": 17.0048267, "lon": 120.8791704}, {"type": "node", "id": 3173776435, "lat": 17.004308, "lon": 120.8790432}, {"type": "node", "id": 3173776436, "lat": 17.0041863, "lon": 120.8786012}, {"type": "node", "id": 3173776437, "lat": 17.0042952, "lon": 120.8778847}, {"type": "node", "id": 3173776438, "lat": 17.0045129, "lon": 120.8775967}, {"type": "node", "id": 3173776439, "lat": 17.0051341, "lon": 120.8778847}, {"type": "node", "id": 3173776440, "lat": 17.0058193, "lon": 120.877724}, {"type": "node", "id": 3173776441, "lat": 17.0064276, "lon": 120.8773891}, {"type": "node", "id": 3173776442, "lat": 17.0071064, "lon": 120.8770342}, {"type": "node", "id": 3173776443, "lat": 17.0075931, "lon": 120.8768199}, {"type": "node", "id": 3173776444, "lat": 17.0078492, "lon": 120.8767596}, {"type": "node", "id": 3504036978, "lat": 16.9908415, "lon": 120.8822376}, {"type": "node", "id": 3504036979, "lat": 16.9907759, "lon": 120.8846059}, {"type": "node", "id": 3504036981, "lat": 16.9913053, "lon": 120.8819293}, {"type": "node", "id": 3504036983, "lat": 16.9914044, "lon": 120.8813533}, {"type": "node", "id": 3504036985, "lat": 16.9909459, "lon": 120.8848721}, {"type": "node", "id": 3504036987, "lat": 16.9915747, "lon": 120.881237}, {"type": "node", "id": 3504036989, "lat": 16.99216, "lon": 120.8849069}, {"type": "node", "id": 3504036990, "lat": 16.9923505, "lon": 120.8812161}, {"type": "node", "id": 3504036993, "lat": 16.9927843, "lon": 120.8814261}, {"type": "node", "id": 3504036995, "lat": 16.9929143, "lon": 120.8838626}, {"type": "node", "id": 3504036998, "lat": 16.9929268, "lon": 120.8829807}, {"type": "node", "id": 3504037000, "lat": 16.9932505, "lon": 120.8814836}, {"type": "node", "id": 3504037001, "lat": 16.9931329, "lon": 120.8827263}, {"type": "node", "id": 3504037003, "lat": 16.9934527, "lon": 120.8825831}, {"type": "node", "id": 3504037004, "lat": 16.993529, "lon": 120.8818493}, {"type": "node", "id": 3504037006, "lat": 16.993888, "lon": 120.8823162}, {"type": "node", "id": 3504037020, "lat": 17.0174373, "lon": 120.9081262, "tags": {"name": "Madepdepas", "place": "hamlet"}}, {"type": "node", "id": 3642851803, "lat": 17.0971996, "lon": 120.8605854, "tags": {"name": "Binabbaboy", "place": "neighbourhood"}}, {"type": "node", "id": 3642851805, "lat": 17.0908006, "lon": 120.8603278, "tags": {"admin_level": "10", "admin_type:PH": "barangay", "is_in": "Besao", "name": "Payeo", "place": "village", "ref": "144403012"}}, {"type": "node", "id": 3642851806, "lat": 17.0886112, "lon": 120.8611647, "tags": {"is_in:province": "Mountain Province", "is_in:town": "Besao", "is_in:village": "Payeo", "name": "Bangbang-owan", "place": "neighbourhood"}}, {"type": "node", "id": 3642851807, "lat": 17.0847065, "lon": 120.8630637, "tags": {"admin_level": "10", "admin_type:PH": "barangay", "is_in": "Besao", "name": "Besao West", "place": "village", "ref": "144403005"}}, {"type": "node", "id": 3644459393, "lat": 17.0846785, "lon": 120.8659614, "tags": {"admin_level": "10", "admin_type:PH": "barangay", "alt_name": "Besao Proper", "is_in": "Besao", "name": "Besao East", "place": "village", "ref": "144403004"}}, {"type": "node", "id": 3858074236, "lat": 16.8820545, "lon": 120.8775264, "tags": {"alt_name": "Sitio Lukib", "is_in:province": "Mountain Province", "is_in:town": "Bauko", "is_in:village": "Monamon Sur", "name": "Lukib", "place": "neighbourhood"}}, {"type": "node", "id": 3858082959, "lat": 16.8642465, "lon": 120.8740889, "tags": {"admin_level": "10", "admin_type:PH": "barangay", "alt_name": "Mt. Data", "is_in:town": "Bauko", "name": "Mount Data", "place": "village"}}, {"type": "node", "id": 3858109961, "lat": 16.9232578, "lon": 120.9013451, "tags": {"name": "Napua", "note": "Barangay Napua, Sabangan", "place": "village"}}, {"type": "node", "id": 3858112029, "lat": 16.9503545, "lon": 120.907818, "tags": {"admin_level": "10", "designation": "barangay", "is_in:town": "Sabangan", "name": "Capinitan", "name:pronunciation": "kapi\u02c8nitan", "place": "village"}}, {"type": "node", "id": 3884203930, "lat": 16.8877671, "lon": 121.0584675, "tags": {"admin_level": "10", "is_in:town": "Banaue", "name": "Amganad", "place": "village", "place:PH": "barangay"}}, {"type": "node", "id": 4214821451, "lat": 17.0866863, "lon": 120.9774733, "tags": {"name": "Loc-ong", "place": "neighbourhood"}}, {"type": "node", "id": 4214821528, "lat": 17.0875503, "lon": 120.9748689, "tags": {"name": "Chakalan", "place": "neighbourhood"}}, {"type": "node", "id": 4214821901, "lat": 17.0873041, "lon": 120.9836075, "tags": {"name": "Khefa", "place": "neighbourhood"}}, {"type": "node", "id": 4244182427, "lat": 17.095708, "lon": 121.0227509, "tags": {"name": "Chapyusen", "place": "hamlet"}}, {"type": "node", "id": 4245486193, "lat": 17.0936972, "lon": 120.9791435, "tags": {"name": "Lower Caluttit", "place": "hamlet"}}, {"type": "node", "id": 4245486195, "lat": 17.0945086, "lon": 120.975556, "tags": {"name": "Upper Caluttit", "place": "hamlet"}}, {"type": "node", "id": 4245630432, "lat": 17.083336, "lon": 120.9743173, "tags": {"name": "Chakchakan", "place": "hamlet"}}, {"type": "node", "id": 4250193618, "lat": 17.089746, "lon": 120.9746623, "tags": {"name": "Bogbogan", "place": "hamlet"}}, {"type": "node", "id": 4448789730, "lat": 17.0716063, "lon": 120.8806916, "tags": {"name": "Amabayen", "place": "hamlet"}}, {"type": "node", "id": 4449044976, "lat": 17.0717478, "lon": 120.8947337, "tags": {"name": "Bitin", "place": "hamlet"}}, {"type": "node", "id": 4449141126, "lat": 17.051668, "lon": 120.8917467, "tags": {"name": "Tap-ew", "place": "hamlet"}}, {"type": "node", "id": 4464686931, "lat": 17.0520176, "lon": 120.8629188}, {"type": "node", "id": 4464686932, "lat": 17.052574, "lon": 120.8629161}, {"type": "node", "id": 4467873924, "lat": 17.0415663, "lon": 120.9088235, "tags": {"admin_level": "10", "admin_type:PH": "barangay", "name": "Taccong", "place": "village"}}, {"type": "node", "id": 4467873970, "lat": 17.0338846, "lon": 120.8932821}, {"type": "node", "id": 4471930741, "lat": 16.8782373, "lon": 121.0628335, "tags": {"name": "Puhpu", "place": "hamlet", "source": "survey"}}, {"type": "node", "id": 4471930742, "lat": 16.8785233, "lon": 121.0638096, "tags": {"name": "Balluha", "place": "hamlet"}}, {"type": "node", "id": 4471982931, "lat": 16.8861892, "lon": 121.059662, "tags": {"alt_name": "Imanaklar", "name": "Bokoh", "place": "hamlet"}}, {"type": "node", "id": 4471982944, "lat": 16.8879244, "lon": 121.0634204, "tags": {"name": "Dopla", "place": "hamlet"}}, {"type": "node", "id": 4471982945, "lat": 16.8880452, "lon": 121.0626144, "tags": {"name": "Nanginalan", "place": "hamlet"}}, {"type": "node", "id": 4471983054, "lat": 16.8887446, "lon": 121.0652039, "tags": {"name": "Hinagang", "place": "hamlet"}}, {"type": "node", "id": 4472053233, "lat": 17.0391267, "lon": 120.9021584, "tags": {"admin_level": "10", "designation": "barangay", "name": "Nacagang", "place": "village"}}, {"type": "node", "id": 4472159430, "lat": 17.1213588, "lon": 120.8673721, "tags": {"admin_level": "10", "designation": "barangay", "is_in": "Besao", "name": "Gueday", "place": "village", "ref": "144403007"}}, {"type": "node", "id": 4486123457, "lat": 16.8944978, "lon": 121.0597862, "tags": {"name": "Ibug-a", "place": "hamlet", "source": "survey 2016"}}, {"type": "node", "id": 4486123496, "lat": 16.8950466, "lon": 121.0587871, "tags": {"name": "Awanlawa", "place": "hamlet", "source": "survey"}}, {"type": "node", "id": 4486123497, "lat": 16.8905455, "lon": 121.0582801, "tags": {"name": "Ikaluppi", "place": "hamlet", "source": "survey"}}, {"type": "node", "id": 4491643301, "lat": 17.0308795, "lon": 120.8877914, "tags": {"admin_level": "10", "designation": "barangay", "name": "Bagnen Oriente", "place": "village"}}, {"type": "node", "id": 4491704988, "lat": 17.0052801, "lon": 120.9077313, "tags": {"admin_level": "10", "designation": "barangay", "name": "Supang", "name:pronunciation": "\u02c8supa\u014b", "place": "village"}}, {"type": "node", "id": 4491704989, "lat": 17.0073936, "lon": 120.9077207, "tags": {"name": "Maggon", "place": "hamlet"}}, {"type": "node", "id": 4628508213, "lat": 17.0035277, "lon": 120.9236583, "tags": {"admin_level": "6", "gns_classification": "ADM2", "is_in:province": "Mountain Province", "name": "Sabangan", "name:pronunciation": "sa\u02c8ba\u014ban", "place": "town", "place:PH": "municipality", "population": "9315", "population:date": "2015-08-01", "source:population": "Philippine Statistics Authority", "wikidata": "Q36061", "wikimedia_commons": "Category:Sabangan", "wikipedia": "en:Sabangan, Mountain Province"}}, {"type": "node", "id": 4876718576, "lat": 16.9337544, "lon": 121.1364551}, {"type": "node", "id": 4878931024, "lat": 16.9344282, "lon": 121.1364939}, {"type": "node", "id": 4878931025, "lat": 16.9344931, "lon": 121.1364213}, {"type": "node", "id": 4878931038, "lat": 16.9347863, "lon": 121.1380745}, {"type": "node", "id": 4878931040, "lat": 16.9348917, "lon": 121.1385132}, {"type": "node", "id": 4878931041, "lat": 16.9347095, "lon": 121.1383962}, {"type": "node", "id": 4878931042, "lat": 16.934663, "lon": 121.1383906}, {"type": "node", "id": 4878931043, "lat": 16.9345738, "lon": 121.1383842}, {"type": "node", "id": 4878931044, "lat": 16.9345305, "lon": 121.1382545}, {"type": "node", "id": 4878931045, "lat": 16.9345718, "lon": 121.1381811}, {"type": "node", "id": 4878931046, "lat": 16.9345682, "lon": 121.1381007}, {"type": "node", "id": 4878931047, "lat": 16.9345986, "lon": 121.1380464}, {"type": "node", "id": 4878931048, "lat": 16.9345646, "lon": 121.1379024}, {"type": "node", "id": 4878931049, "lat": 16.9345038, "lon": 121.1377958}, {"type": "node", "id": 4878931050, "lat": 16.9344483, "lon": 121.1377303}, {"type": "node", "id": 4878931051, "lat": 16.9344649, "lon": 121.1379011}, {"type": "node", "id": 4878931052, "lat": 16.9344566, "lon": 121.138029}, {"type": "node", "id": 4878931053, "lat": 16.9343758, "lon": 121.1380424}, {"type": "node", "id": 4878931054, "lat": 16.9343213, "lon": 121.1378644}, {"type": "node", "id": 4878931055, "lat": 16.9342944, "lon": 121.137792}, {"type": "node", "id": 4878931056, "lat": 16.934255, "lon": 121.1379286}, {"type": "node", "id": 4878931057, "lat": 16.934187, "lon": 121.1379099}, {"type": "node", "id": 4878931058, "lat": 16.9341137, "lon": 121.1375844}, {"type": "node", "id": 4878931059, "lat": 16.9341727, "lon": 121.1374572}, {"type": "node", "id": 4878931060, "lat": 16.934196, "lon": 121.1371916}, {"type": "node", "id": 5349714044, "lat": 16.9781924, "lon": 121.3281101, "tags": {"admin_level": "6", "gns_classification": "ADM2", "is_in:province": "Ifugao", "name": "Aguinaldo", "place": "town", "place:PH": "municipality", "population": "19408", "population:date": "2015-08-01", "source:population": "Philippine Statistics Authority", "wikidata": "Q30365", "wikimedia_commons": "Category:Aguinaldo, Ifugao", "wikipedia": "en:Aguinaldo, Ifugao"}}, {"type": "node", "id": 5516491900, "lat": 16.911248, "lon": 121.1263279}, {"type": "node", "id": 5516491901, "lat": 16.9110976, "lon": 121.1262293}, {"type": "node", "id": 5516491902, "lat": 16.9111242, "lon": 121.1260506}, {"type": "node", "id": 5516491903, "lat": 16.911021, "lon": 121.1260414}, {"type": "node", "id": 5516491904, "lat": 16.9108884, "lon": 121.1261061}, {"type": "node", "id": 5516491905, "lat": 16.9107469, "lon": 121.1261246}, {"type": "node", "id": 5516491906, "lat": 16.910455, "lon": 121.1260013}, {"type": "node", "id": 5516491907, "lat": 16.9103194, "lon": 121.1259551}, {"type": "node", "id": 5516491908, "lat": 16.9101543, "lon": 121.1259366}, {"type": "node", "id": 5516491909, "lat": 16.9100748, "lon": 121.125949}, {"type": "node", "id": 5516491910, "lat": 16.9100158, "lon": 121.1261153}, {"type": "node", "id": 5516491911, "lat": 16.9100128, "lon": 121.126177}, {"type": "node", "id": 5516491912, "lat": 16.9100806, "lon": 121.1262293}, {"type": "node", "id": 5516491913, "lat": 16.9101249, "lon": 121.1262016}, {"type": "node", "id": 5516491914, "lat": 16.9102192, "lon": 121.1262694}, {"type": "node", "id": 5516491915, "lat": 16.910228, "lon": 121.126331}, {"type": "node", "id": 5516491916, "lat": 16.9103106, "lon": 121.1264265}, {"type": "node", "id": 5516491917, "lat": 16.9103666, "lon": 121.126445}, {"type": "node", "id": 5516491918, "lat": 16.9103931, "lon": 121.1265128}, {"type": "node", "id": 5516491919, "lat": 16.9103666, "lon": 121.1266638}, {"type": "node", "id": 5516491920, "lat": 16.9104079, "lon": 121.1266514}, {"type": "node", "id": 5516493621, "lat": 16.9105022, "lon": 121.1266699}, {"type": "node", "id": 5516493622, "lat": 16.9105582, "lon": 121.1265929}, {"type": "node", "id": 5516493623, "lat": 16.9105818, "lon": 121.1266145}, {"type": "node", "id": 5516493624, "lat": 16.910567, "lon": 121.1266699}, {"type": "node", "id": 5516493625, "lat": 16.9106054, "lon": 121.126673}, {"type": "node", "id": 5516493626, "lat": 16.910797, "lon": 121.1266514}, {"type": "node", "id": 5516493627, "lat": 16.9109001, "lon": 121.1266638}, {"type": "node", "id": 5516493628, "lat": 16.9110328, "lon": 121.1265682}, {"type": "node", "id": 5516493629, "lat": 16.9110918, "lon": 121.1265775}, {"type": "node", "id": 5516493630, "lat": 16.9111065, "lon": 121.1264974}, {"type": "node", "id": 5516493631, "lat": 16.9110623, "lon": 121.1263988}, {"type": "node", "id": 5516493632, "lat": 16.9110564, "lon": 121.1263156}, {"type": "node", "id": 5516493633, "lat": 16.9110947, "lon": 121.126294}, {"type": "node", "id": 5516493634, "lat": 16.9111713, "lon": 121.1263279}, {"type": "node", "id": 5517174354, "lat": 16.9343338, "lon": 121.1369936}, {"type": "node", "id": 5517174359, "lat": 16.9345247, "lon": 121.137555}, {"type": "node", "id": 5517174360, "lat": 16.9346014, "lon": 121.1377253}, {"type": "node", "id": 5517210033, "lat": 16.934258, "lon": 121.1371544}, {"type": "node", "id": 5517210034, "lat": 16.9344946, "lon": 121.1375448}, {"type": "node", "id": 5517210035, "lat": 16.9345716, "lon": 121.1375949}, {"type": "node", "id": 5517210036, "lat": 16.9348056, "lon": 121.1381201}, {"type": "node", "id": 5517210037, "lat": 16.9349157, "lon": 121.1381974}, {"type": "node", "id": 5517210038, "lat": 16.9349276, "lon": 121.1382518}, {"type": "node", "id": 5517210039, "lat": 16.9348988, "lon": 121.1383065}, {"type": "node", "id": 5517210040, "lat": 16.9348275, "lon": 121.1385124}, {"type": "node", "id": 5517210041, "lat": 16.9344133, "lon": 121.138182}, {"type": "node", "id": 5517210042, "lat": 16.9344674, "lon": 121.1381425}, {"type": "node", "id": 5517210043, "lat": 16.9346676, "lon": 121.1364204}, {"type": "node", "id": 5517210044, "lat": 16.9347176, "lon": 121.1363478}, {"type": "node", "id": 5517210045, "lat": 16.9347808, "lon": 121.136353}, {"type": "node", "id": 5517210046, "lat": 16.9344394, "lon": 121.1358916}, {"type": "node", "id": 5517210047, "lat": 16.934316, "lon": 121.136016}, {"type": "node", "id": 5517210048, "lat": 16.9342467, "lon": 121.1359979}, {"type": "node", "id": 5517210049, "lat": 16.9341723, "lon": 121.135965}, {"type": "node", "id": 5517210050, "lat": 16.9341097, "lon": 121.1360594}, {"type": "node", "id": 5517210051, "lat": 16.9340679, "lon": 121.1361468}, {"type": "node", "id": 5517210052, "lat": 16.9339968, "lon": 121.1361359}, {"type": "node", "id": 5517210053, "lat": 16.9339589, "lon": 121.1361186}, {"type": "node", "id": 5517210054, "lat": 16.9338597, "lon": 121.1361745}, {"type": "node", "id": 5517210055, "lat": 16.933885, "lon": 121.1362792}, {"type": "node", "id": 5517210056, "lat": 16.9338491, "lon": 121.1363178}, {"type": "node", "id": 5517210057, "lat": 16.9337391, "lon": 121.1363339}, {"type": "node", "id": 5517210058, "lat": 16.933638, "lon": 121.1363888}, {"type": "node", "id": 5517210059, "lat": 16.9334025, "lon": 121.1363779}, {"type": "node", "id": 5517210060, "lat": 16.9332006, "lon": 121.1364232}, {"type": "node", "id": 5517210061, "lat": 16.9332545, "lon": 121.1364849}, {"type": "node", "id": 5517210062, "lat": 16.933373, "lon": 121.1364889}, {"type": "node", "id": 5517210063, "lat": 16.9334456, "lon": 121.1364562}, {"type": "node", "id": 5517210064, "lat": 16.9335048, "lon": 121.136497}, {"type": "node", "id": 5517210065, "lat": 16.9334892, "lon": 121.1365519}, {"type": "node", "id": 5517210066, "lat": 16.9336221, "lon": 121.1365823}, {"type": "node", "id": 5517210067, "lat": 16.9336453, "lon": 121.1365424}, {"type": "node", "id": 5517210068, "lat": 16.9336968, "lon": 121.1365647}, {"type": "node", "id": 5517210069, "lat": 16.9340349, "lon": 121.1365707}, {"type": "node", "id": 5517210070, "lat": 16.9341832, "lon": 121.1367244}, {"type": "node", "id": 5517210071, "lat": 16.9342229, "lon": 121.1368093}, {"type": "node", "id": 5517210072, "lat": 16.9342128, "lon": 121.1368438}, {"type": "node", "id": 5517210073, "lat": 16.9342466, "lon": 121.1369031}, {"type": "node", "id": 5517210074, "lat": 16.9342255, "lon": 121.1369524}, {"type": "node", "id": 5517210075, "lat": 16.9343892, "lon": 121.1366787}, {"type": "node", "id": 5517210076, "lat": 16.9344685, "lon": 121.1366244}, {"type": "node", "id": 5517210077, "lat": 16.9344288, "lon": 121.1366679}, {"type": "node", "id": 5517210078, "lat": 16.934352, "lon": 121.1368003}, {"type": "node", "id": 5517210079, "lat": 16.9343234, "lon": 121.136895}, {"type": "node", "id": 5517210080, "lat": 16.9342733, "lon": 121.1369984}, {"type": "node", "id": 5517210969, "lat": 16.9345055, "lon": 121.1383346}, {"type": "node", "id": 6120590722, "lat": 17.1707123, "lon": 121.0237087, "tags": {"name": "Demang", "place": "neighbourhood"}}, {"type": "node", "id": 6120590768, "lat": 17.1629186, "lon": 121.0209444, "tags": {"admin_level": "10", "designation": "barangay", "name": "Sacasacan", "place": "village", "postal_code": "2617"}}, {"type": "node", "id": 6128557840, "lat": 17.1629079, "lon": 121.0209702, "tags": {"name": "Rong-odan", "place": "hamlet"}}, {"type": "node", "id": 6166411688, "lat": 17.1629088, "lon": 121.0195566, "tags": {"name": "Rokno", "place": "hamlet"}}, {"type": "node", "id": 6166411689, "lat": 17.1637464, "lon": 121.0175118, "tags": {"name": "Fekish", "place": "hamlet"}}, {"type": "node", "id": 6284089791, "lat": 17.2144143, "lon": 121.0634422, "tags": {"admin_level": "10", "designation": "barangay", "name": "Saclit", "place": "village"}}, {"type": "node", "id": 6634819803, "lat": 16.9750527, "lon": 120.9090004, "tags": {"admin_level": "10", "admin_type:PH": "barangay", "name": "Bun-ayan", "name:pronunciation": "bun\u02c8\u0294ajan", "place": "village"}}, {"type": "node", "id": 6660382773, "lat": 16.9346918, "lon": 121.1363852}, {"type": "node", "id": 7395687019, "lat": 17.0337525, "lon": 120.9291682}, {"type": "node", "id": 7395687020, "lat": 17.0332241, "lon": 120.926103}, {"type": "node", "id": 7695567315, "lat": 17.03559, "lon": 120.881238, "tags": {"is_in:province": "Mountain Province", "is_in:town": "Bauko", "name": "Bagnen Proper", "place": "village"}}, {"type": "node", "id": 7695614237, "lat": 17.0519869, "lon": 120.8622479, "tags": {"name": "Maket-An", "place": "neighbourhood"}}, {"type": "node", "id": 7695614246, "lat": 17.0511253, "lon": 120.8796743, "tags": {"name": "Balintaugan", "place": "village"}}, {"type": "node", "id": 7695760015, "lat": 16.9902182, "lon": 120.8830994}, {"type": "node", "id": 7695760062, "lat": 17.0029158, "lon": 120.8842997, "tags": {"admin_level": "10", "name": "Otucan Norte", "place": "village", "place:PH": "barangay"}}, {"type": "node", "id": 7695760202, "lat": 16.9975441, "lon": 120.8815142, "tags": {"admin_level": "10", "name": "Otucan Sur", "place": "village", "place:PH": "barangay"}}, {"type": "node", "id": 7697874526, "lat": 16.964134, "lon": 120.8835313, "tags": {"admin_level": "10", "is_in:province": "Mountain Province", "is_in:town": "Bauko", "name": "Lagawa", "place": "village", "place:PH": "barangay"}}, {"type": "node", "id": 7699959004, "lat": 16.9522348, "lon": 120.8908859, "tags": {"is_in:province": "Mountain Province", "is_in:town": "Bauko", "is_in:village": "Lagawa", "name": "Coputan", "place": "neighbourhood"}}, {"type": "node", "id": 7699986744, "lat": 16.971407, "lon": 120.8761847, "tags": {"admin_level": "10", "is_in:province": "Mountain Province", "is_in:town": "Bauko", "name": "Banao", "place": "village", "place:PH": "barangay"}}, {"type": "node", "id": 7700056346, "lat": 16.9612067, "lon": 120.8660996, "tags": {"admin_level": "10", "name": "Guinzadan Sur", "place": "village", "place:PH": "barangay"}}, {"type": "node", "id": 7700062170, "lat": 16.9650601, "lon": 120.8689052, "tags": {"admin_level": "10", "is_in:province": "Mountain Province", "is_in:town": "Bauko", "name": "Guinzadan Norte", "place": "village", "place:PH": "barangay"}}, {"type": "node", "id": 7702649582, "lat": 16.8949733, "lon": 120.8760935, "tags": {"admin_level": "10", "name": "Sadsadan", "place": "village", "place:PH": "barangay"}}, {"type": "node", "id": 7702752411, "lat": 16.8664914, "lon": 120.8748865, "tags": {"alt_name": "Sitio Boga", "is_in:province": "Mountain Province", "is_in:town": "Bauko", "is_in:village": "Monamon Sur", "name": "Boga", "place": "neighbourhood"}}, {"type": "node", "id": 7702752412, "lat": 16.8717251, "lon": 120.8750206, "tags": {"alt_name": "Sitio Pactil", "is_in:province": "Mountain Province", "is_in:town": "Bauko", "is_in:village": "Monamon Sur", "name": "Pactil", "place": "neighbourhood"}}, {"type": "node", "id": 7702880578, "lat": 16.8640246, "lon": 120.8870745, "tags": {"is_in:province": "Mountain Province", "is_in:town": "Bauko", "is_in:village": "Monamon Sur", "name": "Sengyew", "place": "neighbourhood"}}, {"type": "node", "id": 7703166764, "lat": 16.8719997, "lon": 120.8814821, "tags": {"fixme": "name of sitio", "is_in:town": "Bauko", "is_in:village": "Mount Data", "place": "neighbourhood"}}, {"type": "node", "id": 7705132060, "lat": 17.1051372, "lon": 120.8731457, "tags": {"admin_level": "10", "admin_type:PH": "barangay", "designation": "barangay", "is_in": "Besao", "name": "Lacmaan", "old_ref": "144403009", "place": "hamlet", "population": "184", "ref": "1404403009", "source:population": "Philippine Statistics Authority"}}, {"type": "node", "id": 7705132085, "lat": 17.1184852, "lon": 120.8730948, "tags": {"alt_name": "Sabaan", "is_in:province": "Mountain Province", "is_in:town": "Besao", "is_in:village": "Agawa", "name": "Sabean", "place": "neighbourhood"}}, {"type": "node", "id": 7705193677, "lat": 17.0836148, "lon": 120.8710268, "tags": {"admin_level": "10", "alt_name": "Soquib", "designation": "barangay", "is_in": "Besao", "name": "Suquib", "place": "village", "ref": "144403013"}}, {"type": "node", "id": 7707446195, "lat": 17.1039811, "lon": 121.2611007, "tags": {"admin_level": "10", "admin_type:PH": "barangay", "is_in:province": "Mountain Province", "is_in:town": "Natonin", "name": "Santa Isabel", "place": "village"}}, {"type": "node", "id": 7707446196, "lat": 17.1573574, "lon": 121.2843286, "tags": {"admin_level": "10", "is_in:province": "Mountain Province", "is_in:town": "Natonin", "name": "Maducayan", "place": "village", "place:PH": "barangay"}}, {"type": "node", "id": 7707446197, "lat": 17.0983669, "lon": 121.2985308, "tags": {"admin_level": "11", "designation": "sitio", "is_in:province": "Mountain Province", "is_in:town": "Natonin", "name": "Pangtor", "place": "hamlet"}}, {"type": "node", "id": 7707446198, "lat": 17.1525759, "lon": 121.3210635, "tags": {"admin_level": "10", "is_in:province": "Mountain Province", "is_in:town": "Natonin", "name": "Saliok", "place": "village", "place:PH": "barangay"}}, {"type": "node", "id": 7707446199, "lat": 17.07078, "lon": 121.2111471, "tags": {"admin_level": "10", "admin_type:PH": "barangay", "is_in:province": "Mountain Province", "is_in:town": "Natonin", "name": "Banao", "place": "village"}}, {"type": "node", "id": 7707446200, "lat": 17.0877839, "lon": 121.229622, "tags": {"admin_level": "10", "is_in:province": "Mountain Province", "is_in:town": "Natonin", "name": "Tonglayan", "place": "village", "place:PH": "barangay"}}, {"type": "node", "id": 7707446201, "lat": 17.093378, "lon": 121.2379316, "tags": {"admin_level": "10", "is_in:province": "Mountain Province", "is_in:town": "Natonin", "name": "Pudo", "place": "village", "place:PH": "barangay"}}, {"type": "node", "id": 7707446202, "lat": 17.0973671, "lon": 121.2498674, "tags": {"admin_level": "10", "is_in:province": "Mountain Province", "is_in:town": "Natonin", "name": "Alunogan", "place": "village", "place:PH": "barangay"}}, {"type": "node", "id": 7707446203, "lat": 17.0983619, "lon": 121.262978, "tags": {"admin_level": "10", "admin_type:PH": "barangay", "is_in:province": "Mountain Province", "is_in:town": "Natonin", "name": "Butac", "place": "village"}}, {"type": "node", "id": 7707446204, "lat": 17.0964801, "lon": 121.2731812, "tags": {"admin_level": "10", "admin_type:PH": "barangay", "is_in:province": "Mountain Province", "is_in:town": "Natonin", "name": "Balangao", "place": "village"}}, {"type": "node", "id": 7768489231, "lat": 16.9865532, "lon": 120.9606548}, {"type": "node", "id": 7768489236, "lat": 16.9525799, "lon": 120.962014}, {"type": "node", "id": 7768489237, "lat": 16.9609277, "lon": 120.9598039}, {"type": "node", "id": 7768489238, "lat": 16.9581601, "lon": 120.9609559}, {"type": "node", "id": 7768489239, "lat": 16.9658528, "lon": 120.9588665}, {"type": "node", "id": 7768489240, "lat": 16.9692123, "lon": 120.9585433}, {"type": "node", "id": 7768489241, "lat": 16.9836782, "lon": 120.9593748}, {"type": "node", "id": 7768489242, "lat": 16.9819454, "lon": 120.9588651}, {"type": "node", "id": 7768489243, "lat": 16.9776349, "lon": 120.9580132}, {"type": "node", "id": 7768489244, "lat": 16.9740442, "lon": 120.957801}, {"type": "node", "id": 7768489245, "lat": 16.9886906, "lon": 120.961493}, {"type": "node", "id": 7768489246, "lat": 16.947478, "lon": 120.9626175}, {"type": "node", "id": 7768489247, "lat": 16.9417063, "lon": 120.9616674}, {"type": "node", "id": 7768489248, "lat": 16.9402682, "lon": 120.9595129}, {"type": "node", "id": 7768489249, "lat": 16.9422025, "lon": 120.9621938}, {"type": "node", "id": 7768489250, "lat": 16.9432727, "lon": 120.9626712}, {"type": "node", "id": 7768489251, "lat": 16.9312164, "lon": 120.9580873}, {"type": "node", "id": 7768489252, "lat": 16.9251228, "lon": 120.9583582}, {"type": "node", "id": 7768489253, "lat": 16.9266136, "lon": 120.9584641}, {"type": "node", "id": 7768489254, "lat": 16.9336412, "lon": 120.9577473}, {"type": "node", "id": 7768489255, "lat": 16.9281314, "lon": 120.9584226}, {"type": "node", "id": 7768489256, "lat": 16.9365676, "lon": 120.9573215}, {"type": "node", "id": 7768489257, "lat": 16.9376805, "lon": 120.9575368}, {"type": "node", "id": 7768489258, "lat": 16.9228024, "lon": 120.9580719}, {"type": "node", "id": 7768489259, "lat": 16.9143669, "lon": 120.9571106}, {"type": "node", "id": 7768489260, "lat": 16.9194967, "lon": 120.957866}, {"type": "node", "id": 7768489261, "lat": 16.9069756, "lon": 120.9556006}, {"type": "node", "id": 7768489262, "lat": 16.9008774, "lon": 120.9500849}, {"type": "node", "id": 7768489263, "lat": 16.9016113, "lon": 120.9508668}, {"type": "node", "id": 7768489264, "lat": 16.8998139, "lon": 120.9488628}, {"type": "node", "id": 7768489265, "lat": 16.9046688, "lon": 120.9541069}, {"type": "node", "id": 7768489266, "lat": 16.8970692, "lon": 120.9457203}, {"type": "node", "id": 7768489268, "lat": 16.8863768, "lon": 120.942277}, {"type": "node", "id": 7768489269, "lat": 16.8907695, "lon": 120.9424017}, {"type": "node", "id": 7768489284, "lat": 16.8933206, "lon": 120.9431755}, {"type": "node", "id": 8163429852, "lat": 17.2224217, "lon": 121.1236131, "tags": {"admin_level": "10", "designation": "barangay", "is_in:town": "Tinglayan", "name": "Basao", "place": "village"}}, {"type": "node", "id": 8163429853, "lat": 17.2650988, "lon": 121.0960507, "tags": {"admin_level": "10", "designation": "barangay", "is_in:town": "Tinglayan", "name": "Tulgao", "place": "village"}}, {"type": "node", "id": 8163429854, "lat": 17.2417276, "lon": 121.1010826, "tags": {"admin_level": "10", "designation": "barangay", "is_in:town": "Tinglayan", "name": "Butbut", "place": "village"}}, {"type": "node", "id": 8170750883, "lat": 17.2739711, "lon": 121.105063, "tags": {"admin_level": "10", "designation": "barangay", "is_in:town": "Tinglayan", "name": "Dananao", "place": "village"}}, {"type": "node", "id": 8172553841, "lat": 17.2937735, "lon": 121.1372065, "tags": {"admin_level": "10", "designation": "barangay", "is_in:town": "Tinglayan", "name": "Sumadel", "place": "village"}}, {"type": "node", "id": 8172553842, "lat": 17.2906549, "lon": 121.1660967, "tags": {"admin_level": "10", "designation": "barangay", "is_in:town": "Tinglayan", "name": "Lower Bangad", "place": "village"}}, {"type": "node", "id": 8172553843, "lat": 17.2706056, "lon": 121.1559552, "tags": {"admin_level": "10", "designation": "barangay", "is_in:town": "Tinglayan", "name": "Ambato - Legleg", "place": "village"}}, {"type": "node", "id": 8259152064, "lat": 16.9655835, "lon": 121.1079651, "tags": {"place": "hamlet"}}, {"type": "node", "id": 8259152447, "lat": 16.883732, "lon": 121.1051381, "tags": {"admin_level": "10", "name": "Ubuag", "place": "village", "place:PH": "barangay"}}, {"type": "node", "id": 8259153047, "lat": 16.9038222, "lon": 121.0246074, "tags": {"admin_level": "10", "name": "Bokiawan", "place": "village", "place:PH": "barangay"}}, {"type": "node", "id": 8259153048, "lat": 16.9278979, "lon": 121.0294193, "tags": {"admin_level": "10", "name": "Lubo-ong", "place": "village", "place:PH": "barangay"}}, {"type": "node", "id": 8259153049, "lat": 16.901995, "lon": 121.0136694, "tags": {"admin_level": "10", "name": "Nungulunan", "place": "village", "place:PH": "barangay"}}, {"type": "node", "id": 8259153050, "lat": 16.8784601, "lon": 121.0091954, "tags": {"admin_level": "10", "name": "Hapao", "place": "village", "place:PH": "barangay"}}, {"type": "node", "id": 8259153051, "lat": 16.8799591, "lon": 121.0157883, "tags": {"admin_level": "11", "name": "Tabag", "place": "hamlet", "place:PH": "sitio"}}, {"type": "node", "id": 8259153054, "lat": 16.8743021, "lon": 121.0481679, "tags": {"place": "hamlet"}}, {"type": "node", "id": 8259153350, "lat": 16.8743842, "lon": 121.0798663, "tags": {"admin_level": "10", "name": "Cababuyan", "place": "village", "place:PH": "barangay"}}, {"type": "node", "id": 8662543538, "lat": 16.9166996, "lon": 121.2086499, "tags": {"admin_level": "10", "is_in:town": "Mayoyao", "name": "Palaad", "place": "village", "place:PH": "barangay"}}, {"type": "node", "id": 8662553006, "lat": 16.899521, "lon": 121.2417859, "tags": {"admin_level": "10", "is_in:town": "Mayoyao", "name": "Alimit", "place": "village", "place:PH": "barangay"}}, {"type": "node", "id": 8751517229, "lat": 16.9807397, "lon": 121.2222648, "tags": {"admin_level": "10", "name": "Chaya", "place": "village", "place:PH": "barangay"}}, {"type": "node", "id": 8751517230, "lat": 16.9755116, "lon": 121.2320924, "tags": {"admin_level": "10", "name": "Chumang", "place": "village", "place:PH": "barangay"}}, {"type": "node", "id": 8751517231, "lat": 16.9791903, "lon": 121.163342, "tags": {"admin_level": "10", "admin_type:PH": "barangay", "name": "Magulon", "place": "village"}}, {"type": "node", "id": 8751517232, "lat": 16.942231, "lon": 121.1774987, "tags": {"admin_level": "10", "name": "Talboc", "place": "village", "place:PH": "barangay"}}, {"type": "node", "id": 8751517233, "lat": 16.9579741, "lon": 121.1880398, "tags": {"admin_level": "10", "name": "Guinihon", "place": "village", "place:PH": "barangay"}}, {"type": "node", "id": 8751517234, "lat": 16.9608219, "lon": 121.180889, "tags": {"admin_level": "10", "name": "Epeng", "place": "village", "place:PH": "barangay"}}, {"type": "node", "id": 8751517235, "lat": 16.9740545, "lon": 121.1945093, "tags": {"admin_level": "10", "name": "Inwaloy", "place": "village", "place:PH": "barangay"}}, {"type": "node", "id": 8751517236, "lat": 16.9630128, "lon": 121.2111229, "tags": {"admin_level": "10", "name": "Mapawoy", "place": "village", "place:PH": "barangay"}}, {"type": "node", "id": 8751517237, "lat": 16.9538024, "lon": 121.2391144, "tags": {"admin_level": "10", "name": "Langayan", "place": "village", "place:PH": "barangay"}}, {"type": "node", "id": 8751517238, "lat": 16.9609091, "lon": 121.2528956, "tags": {"admin_level": "10", "name": "Buninan", "place": "village", "place:PH": "barangay"}}, {"type": "node", "id": 8751517239, "lat": 16.9636183, "lon": 121.3166571, "tags": {"admin_level": "10", "name": "Majlong", "place": "village", "place:PH": "barangay"}}, {"type": "node", "id": 8751517240, "lat": 16.9938837, "lon": 121.2986541, "tags": {"admin_level": "10", "name": "Talite", "place": "village", "place:PH": "barangay"}}, {"type": "node", "id": 8751517241, "lat": 17.0147368, "lon": 121.317172, "tags": {"admin_level": "10", "designation": "barangay", "name": "Jacmal", "place": "village"}}, {"type": "node", "id": 8767300728, "lat": 16.9032577, "lon": 120.8668828, "tags": {"place": "hamlet"}}, {"type": "node", "id": 8767300730, "lat": 16.8937825, "lon": 120.8639431, "tags": {"place": "hamlet"}}, {"type": "node", "id": 8767300737, "lat": 16.9194967, "lon": 120.8700371, "tags": {"place": "hamlet"}}, {"type": "node", "id": 8767300738, "lat": 16.9186807, "lon": 120.8828044, "tags": {"place": "hamlet"}}, {"type": "node", "id": 8767300739, "lat": 16.899521, "lon": 120.8915484, "tags": {"name": "Bansa", "place": "hamlet"}}, {"type": "node", "id": 8767300740, "lat": 16.9180391, "lon": 120.9098196, "tags": {"place": "hamlet"}}, {"type": "node", "id": 8767300741, "lat": 16.9170897, "lon": 120.9014726, "tags": {"place": "hamlet"}}, {"type": "node", "id": 8767301380, "lat": 16.921452, "lon": 120.8760023, "tags": {"name": "Leseb", "place": "village"}}, {"type": "node", "id": 8774955393, "lat": 16.9890869, "lon": 120.8649301, "tags": {"admin_level": "10", "name": "Poblacion", "place": "village", "place:PH": "barangay"}}, {"type": "node", "id": 8774955873, "lat": 16.9456486, "lon": 120.8764744, "tags": {"place": "hamlet"}}, {"type": "node", "id": 8774955874, "lat": 16.9486659, "lon": 120.8683205, "tags": {"admin_level": "10", "name": "Tapapan", "place": "village", "place:PH": "barangay"}}, {"type": "node", "id": 8774955875, "lat": 16.9658657, "lon": 120.9140897, "tags": {"admin_level": "10", "designation": "barangay", "is_in:town": "Sabangan", "name": "Camatagan", "name:pronunciation": "kama\u02c8ta\u0261an", "place": "village", "place:PH": "barangay"}}, {"type": "node", "id": 8774955876, "lat": 16.9679181, "lon": 120.9075236, "tags": {"admin_level": "10", "name": "Pingad", "name:pronunciation": "\u02c8pi\u014bad", "place": "village", "place:PH": "barangay"}}, {"type": "node", "id": 8774955877, "lat": 16.9696369, "lon": 120.921439, "tags": {"admin_level": "10", "name": "Gayang", "name:pronunciation": "\u02c8\u0261aja\u014b", "place": "village", "place:PH": "barangay"}}, {"type": "node", "id": 8987925143, "lat": 17.1508861, "lon": 121.0733432, "tags": {"admin_level": "10", "designation": "barangay", "name": "Betwagan", "place": "village", "postal_code": "2617"}}, {"type": "node", "id": 9150295320, "lat": 17.1105026, "lon": 121.2880969, "tags": {"place": "hamlet"}}, {"type": "node", "id": 9150295353, "lat": 17.0516561, "lon": 121.1974221, "tags": {"admin_level": "10", "admin_type:PH": "barangay", "name": "Kaleo", "place": "village"}}, {"type": "node", "id": 9150295354, "lat": 17.0444708, "lon": 121.1904752, "tags": {"admin_level": "10", "admin_type:PH": "barangay", "name": "Ogoog", "place": "village"}}, {"type": "node", "id": 9150295355, "lat": 17.0564872, "lon": 121.1968481, "tags": {"place": "hamlet"}}, {"type": "node", "id": 9150295356, "lat": 17.0614104, "lon": 121.2052917, "tags": {"place": "hamlet"}}, {"type": "node", "id": 9150295366, "lat": 17.0840455, "lon": 121.1448187, "tags": {"admin_level": "10", "admin_type:PH": "barangay", "name": "Lias Silangan", "place": "village"}}, {"type": "node", "id": 9150295914, "lat": 17.1107488, "lon": 121.2976455, "tags": {"admin_level": "10", "admin_type:PH": "barangay", "name": "Banawel", "place": "village"}}, {"type": "node", "id": 9150296127, "lat": 17.1616706, "lon": 121.2957144, "tags": {"place": "hamlet"}}, {"type": "node", "id": 9150298751, "lat": 17.0889065, "lon": 121.274144, "tags": {"place": "hamlet"}}, {"type": "node", "id": 9151248118, "lat": 17.1888777, "lon": 120.9426713, "tags": {"place": "hamlet"}}, {"type": "node", "id": 9151248119, "lat": 17.0571898, "lon": 120.9336698, "tags": {"name": "Bilig", "place": "hamlet"}}, {"type": "node", "id": 9151248415, "lat": 17.1816953, "lon": 121.0128356, "tags": {"admin_level": "10", "designation": "barangay", "name": "Bekigan", "place": "village"}}, {"type": "node", "id": 9151248416, "lat": 17.1801807, "lon": 121.0100484, "tags": {"admin_level": "10", "designation": "barangay", "name": "Belwang", "place": "village"}}, {"type": "node", "id": 9151248636, "lat": 17.059195, "lon": 121.0845011, "tags": {"place": "hamlet"}}, {"type": "node", "id": 9151248837, "lat": 17.0384495, "lon": 121.0954016, "tags": {"admin_level": "10", "admin_type:PH": "barangay", "name": "Latang", "place": "village"}}, {"type": "node", "id": 9154980123, "lat": 17.3085803, "lon": 121.2311161, "tags": {"place": "hamlet"}}, {"type": "node", "id": 9154980204, "lat": 17.3011643, "lon": 121.2377089, "tags": {"admin_level": "10", "designation": "barangay", "name": "Mangali Centro", "place": "village"}}, {"type": "node", "id": 9154980205, "lat": 17.2988748, "lon": 121.2415928, "tags": {"place": "hamlet"}}, {"type": "node", "id": 9154980356, "lat": 17.2932613, "lon": 121.2387228, "tags": {"name": "Poblacion", "place": "village"}}, {"type": "node", "id": 9310334333, "lat": 16.9375317, "lon": 120.8714278, "tags": {"name": "Soysoyoc", "place": "hamlet"}}, {"type": "node", "id": 9310336428, "lat": 16.9935349, "lon": 120.8618349, "tags": {"name": "Cotcot", "place": "hamlet"}}, {"type": "node", "id": 9310336810, "lat": 16.8713965, "lon": 120.8962208, "tags": {"name": "Tipunan", "place": "hamlet"}}, {"type": "node", "id": 9310337140, "lat": 16.8794355, "lon": 120.8941193, "tags": {"name": "Tamog-o", "place": "hamlet"}}, {"type": "node", "id": 9310340258, "lat": 16.9449379, "lon": 120.8753747, "tags": {"name": "Letang", "place": "hamlet"}}, {"type": "node", "id": 9326075441, "lat": 17.1666363, "lon": 121.0312913, "tags": {"admin_level": "11", "designation": "sitio", "name": "Sangey", "place": "hamlet"}}, {"type": "node", "id": 9711792200, "lat": 16.924249, "lon": 121.0464299, "tags": {"admin_level": "10", "designation": "barangay", "is_in:town": "Banaue", "name": "San Fernando", "place": "village"}}, {"type": "node", "id": 9739886868, "lat": 16.9269305, "lon": 121.0558391, "tags": {"admin_level": "10", "designation": "barangay", "is_in:town": "Banaue", "name": "Viewpoint", "place": "village"}}, {"type": "node", "id": 9857424860, "lat": 17.1244821, "lon": 120.8982472, "tags": {"admin_level": "10", "admin_type:PH": "barangay", "is_in:town": "Sagada", "name": "Fidelisan", "place": "village"}}, {"type": "node", "id": 10251033458, "lat": 16.9869527, "lon": 120.861631, "tags": {"admin_level": "11", "designation": "sitio", "is_in:village": "Poblacion", "name": "Domog", "place": "hamlet"}}, {"type": "node", "id": 10251075106, "lat": 16.9928346, "lon": 120.883373}, {"type": "node", "id": 10251075107, "lat": 16.993758, "lon": 120.8824584}, {"type": "node", "id": 10251382689, "lat": 17.0155729, "lon": 120.9319639, "tags": {"admin_level": "11", "designation": "sitio", "is_in:village": "Lagan", "name": "Palingaew", "place": "hamlet"}}, {"type": "node", "id": 10251382690, "lat": 17.0070627, "lon": 120.9272325, "tags": {"admin_level": "10", "designation": "barangay", "is_in:town": "Sabangan", "name": "Lagan", "name:pronunciation": "la\u02c8\u0261an", "place": "village"}}, {"type": "node", "id": 10862817050, "lat": 17.0847993, "lon": 120.8948421, "tags": {"admin_level": "11", "admin_type:PH": "sitio", "is_in:town": "Sagada", "is_in:village": "Poblacion", "name": "Danonoy", "place": "hamlet"}}, {"type": "node", "id": 10863300810, "lat": 17.1127047, "lon": 120.8995172, "tags": {"admin_level": "11", "admin_type:PH": "sitio", "is_in:town": "Sagada", "is_in:village": "Madongo", "name": "Guesang", "place": "hamlet"}}, {"type": "node", "id": 10863300811, "lat": 17.1106462, "lon": 120.8963442, "tags": {"admin_level": "11", "admin_type:PH": "sitio", "is_in:town": "Sagada", "is_in:village": "Madongo", "name": "Nadatngan", "place": "hamlet"}}, {"type": "node", "id": 10863523980, "lat": 16.9499924, "lon": 120.9072018, "tags": {"admin_level": "11", "designation": "sitio", "is_in:town": "Sabangan", "is_in:village": "Capinitan", "name": "Mayag", "place": "hamlet"}}, {"type": "node", "id": 10863523981, "lat": 16.9496409, "lon": 120.9081781, "tags": {"admin_level": "11", "designation": "sitio", "is_in:town": "Sabangan", "is_in:village": "Capinitan", "name": "Lower Kalsa", "place": "hamlet"}}, {"type": "node", "id": 10863563025, "lat": 16.960319, "lon": 120.9093583, "tags": {"admin_level": "11", "designation": "sitio", "is_in:town": "Sabangan", "is_in:village": "Camatagan", "name": "Legleg", "place": "hamlet"}}, {"type": "node", "id": 10892547809, "lat": 17.263064, "lon": 121.1476492, "tags": {"admin_level": "10", "designation": "barangay", "is_in:town": "Tinglayan", "name": "Poblacion", "place": "village"}}, {"type": "node", "id": 10892547810, "lat": 17.2588999, "lon": 121.1466016, "tags": {"admin_level": "10", "designation": "barangay", "is_in:town": "Tinglayan", "name": "Old Tinglayan", "place": "village"}}, {"type": "node", "id": 10892547811, "lat": 17.2341007, "lon": 121.1182664, "tags": {"admin_level": "11", "designation": "sitio", "is_in:town": "TInglayan", "is_in:village": "Basao", "name": "Maswa", "place": "hamlet"}}, {"type": "node", "id": 10892547812, "lat": 17.2047875, "lon": 121.0916946, "tags": {"admin_level": "11", "designation": "sitio", "is_in:town": "Tinglayan", "is_in:village": "Bugnay", "name": "Mar-o", "place": "hamlet"}}, {"type": "node", "id": 10892547813, "lat": 17.2981548, "lon": 121.1340295, "tags": {"admin_level": "11", "designation": "sitio", "is_in:town": "Tinglayan", "is_in:village": "Belong-Manubal", "name": "Belong", "place": "hamlet"}}, {"type": "node", "id": 10892547814, "lat": 17.2989649, "lon": 121.1349443, "tags": {"admin_level": "10", "designation": "barangay", "is_in:town": "Tinglayan", "name": "Belong-Manubal", "place": "village"}}, {"type": "node", "id": 10892547815, "lat": 17.305213, "lon": 121.1453621, "tags": {"admin_level": "11", "designation": "sitio", "is_in:town": "TInglayan", "is_in:village": "Belong-Manubal", "name": "Manubal", "place": "hamlet"}}, {"type": "node", "id": 10892547816, "lat": 17.3003808, "lon": 121.1516333, "tags": {"admin_level": "10", "designation": "barangay", "is_in:town": "Tinglayan", "name": "Mallango", "place": "village"}}, {"type": "node", "id": 10892547817, "lat": 17.2934281, "lon": 121.1636742, "tags": {"admin_level": "10", "designation": "barangay", "is_in:town": "Tinglayan", "name": "Bangad Centro", "place": "village"}}, {"type": "node", "id": 10892547818, "lat": 17.2753439, "lon": 121.0690141, "tags": {"admin_level": "11", "designation": "sitio", "is_in:town": "Tinglayan", "is_in:village": "Tulgao", "name": "Balay", "place": "hamlet"}}, {"type": "node", "id": 12630023893, "lat": 17.0947833, "lon": 120.9800392, "tags": {"name": "Pospos", "place": "hamlet"}}, {"type": "node", "id": 12645470117, "lat": 17.0841199, "lon": 121.1428606, "tags": {"admin_level": "10", "admin_type:PH": "barangay", "name": "Lias Kanluran", "place": "village"}}, {"type": "node", "id": 12645477715, "lat": 16.9128118, "lon": 121.0600622, "tags": {"is_in:town": "Banaue", "is_in:village": "Poblacion", "name": "Pan-ngat", "place": "hamlet"}}, {"type": "node", "id": 12662100069, "lat": 17.0051236, "lon": 120.9237456, "tags": {"admin_level": "10", "admin_type:PH": "barangay", "name": "Poblacion", "place": "village"}}, {"type": "node", "id": 12662100070, "lat": 16.9972414, "lon": 120.9229973, "tags": {"admin_level": "10", "admin_type:PH": "barangay", "name": "Losad", "place": "village"}}, {"type": "node", "id": 12662100071, "lat": 16.9344166, "lon": 120.9087681, "tags": {"admin_level": "10", "designation": "barangay", "name": "Namatec", "place": "village"}}, {"type": "node", "id": 12662100072, "lat": 16.9440465, "lon": 120.909182, "tags": {"admin_level": "10", "designation": "barangay", "name": "Busa", "place": "village"}}, {"type": "node", "id": 12662100073, "lat": 16.9725445, "lon": 120.9066764, "tags": {"admin_level": "10", "admin_type:PH": "barangay", "name": "Bao-angan", "place": "village"}}, {"type": "node", "id": 12662100075, "lat": 16.9849377, "lon": 120.9599355}, {"type": "node", "id": 12662100076, "lat": 16.9940693, "lon": 120.9646701}, {"type": "node", "id": 12662100077, "lat": 17.0138168, "lon": 120.9427375}, {"type": "node", "id": 12662100078, "lat": 17.0199514, "lon": 120.9393968}, {"type": "node", "id": 12662100079, "lat": 17.0210256, "lon": 120.9383324}, {"type": "node", "id": 12662100080, "lat": 17.0311458, "lon": 120.9303796}, {"type": "node", "id": 12662100084, "lat": 17.0228631, "lon": 120.9307196}, {"type": "node", "id": 12662100099, "lat": 16.9625948, "lon": 120.9594866}, {"type": "node", "id": 12662145506, "lat": 17.0330256, "lon": 120.9101576}, {"type": "node", "id": 12662145507, "lat": 17.0335627, "lon": 120.9050726}, {"type": "node", "id": 12662145528, "lat": 16.9503141, "lon": 120.962282}, {"type": "node", "id": 12662145531, "lat": 16.9308236, "lon": 120.95813}, {"type": "node", "id": 12662145534, "lat": 16.9077642, "lon": 120.9557617}, {"type": "node", "id": 12662145539, "lat": 17.0240504, "lon": 120.8929512}, {"type": "node", "id": 12662145540, "lat": 17.0096327, "lon": 120.8934833}, {"type": "node", "id": 12662145541, "lat": 16.9915101, "lon": 120.9005196}, {"type": "node", "id": 12662145542, "lat": 16.985318, "lon": 120.8964102}, {"type": "node", "id": 12662145543, "lat": 16.975153, "lon": 120.8895956}, {"type": "node", "id": 12662145544, "lat": 16.9726222, "lon": 120.8898026}, {"type": "node", "id": 12662145545, "lat": 16.9713639, "lon": 120.8899652}, {"type": "node", "id": 12662145546, "lat": 16.9706994, "lon": 120.8910591}, {"type": "node", "id": 12662145547, "lat": 16.9698087, "lon": 120.891946}, {"type": "node", "id": 12662145548, "lat": 16.9688755, "lon": 120.8920199}, {"type": "node", "id": 12662145549, "lat": 16.9682393, "lon": 120.8931729}, {"type": "node", "id": 12662145550, "lat": 16.9665992, "lon": 120.8931581}, {"type": "node", "id": 12662145551, "lat": 16.965864, "lon": 120.8936312}, {"type": "node", "id": 12662145552, "lat": 16.9643653, "lon": 120.8929068}, {"type": "node", "id": 12662145553, "lat": 16.9636442, "lon": 120.8932912}, {"type": "node", "id": 12662145554, "lat": 16.9634462, "lon": 120.8940746}, {"type": "node", "id": 12662145555, "lat": 16.9578754, "lon": 120.9002536}, {"type": "node", "id": 12662145556, "lat": 16.9476806, "lon": 120.899411}, {"type": "node", "id": 12662145557, "lat": 16.9432688, "lon": 120.8989675}, {"type": "node", "id": 12662145558, "lat": 16.9397619, "lon": 120.8970163}, {"type": "node", "id": 12662145559, "lat": 16.8941908, "lon": 120.9437662}, {"type": "node", "id": 12662145563, "lat": 16.9385741, "lon": 120.8950798}, {"type": "node", "id": 12662145564, "lat": 16.9377822, "lon": 120.8948432}, {"type": "node", "id": 12662145565, "lat": 16.9313904, "lon": 120.8898173}, {"type": "node", "id": 12662145566, "lat": 16.9182384, "lon": 120.8925077}, {"type": "node", "id": 12662145567, "lat": 16.9164423, "lon": 120.8932912}, {"type": "node", "id": 12662145568, "lat": 16.9058492, "lon": 120.8900538}, {"type": "node", "id": 12662145569, "lat": 16.9003898, "lon": 120.9083837}, {"type": "node", "id": 12662145570, "lat": 16.9002201, "lon": 120.9238163}, {"type": "node", "id": 12662145571, "lat": 16.8839026, "lon": 120.9424038}, {"type": "node", "id": 12751743037, "lat": 16.9267638, "lon": 121.2392378, "tags": {"admin_level": "11", "admin_type:PH": "sitio", "is_in:town": "Mayoyao", "is_in:village": "Nalbu", "name": "Gulon", "place": "hamlet"}}, {"type": "node", "id": 12751765295, "lat": 16.9761769, "lon": 121.1720209, "tags": {"admin_level": "10", "admin_type:PH": "barangay", "name": "Maga", "place": "village"}}, {"type": "node", "id": 12751782627, "lat": 16.9582307, "lon": 121.122272, "tags": {"is_in:town": "Banaue", "is_in:village": "Cambulo", "name": "Mattao", "place": "hamlet"}}, {"type": "node", "id": 12752888091, "lat": 16.8659498, "lon": 121.2700832, "tags": {"admin_level": "10", "admin_type:PH": "barangay", "is_in:town": "Mayoyao", "name": "Nattum", "place": "village"}}, {"type": "node", "id": 12752888095, "lat": 16.9034758, "lon": 121.3240465, "tags": {"admin_level": "10", "admin_type:PH": "barangay", "is_in:town": "Aguinaldo", "name": "Itab", "place": "village"}}, {"type": "node", "id": 12752889031, "lat": 16.8906822, "lon": 121.0236847, "tags": {"admin_level": "11", "admin_type:PH": "sitio", "is_in:town": "Hungduan", "is_in:village": "Bokiawan", "name": "Am-iyong", "place": "hamlet"}}, {"type": "way", "id": 225524136, "nodes": [2342957348, 4464686931, 2342957349, 2342957350, 2342957351, 2342957352, 2342957353, 2342957354, 2342957356, 2342957357, 2342957358, 2342957359, 4464686932, 2342957348], "tags": {"landuse": "residential", "name": "Maket-an", "place": "neighbourhood"}}, {"type": "way", "id": 311670298, "nodes": [3173776423, 3173776424, 3173776425, 3173776426, 3173776427, 3173776428, 3173776429, 3173776430, 3173776431, 3173776432, 3173776433, 3173776434, 3173776435, 3173776436, 3173776437, 3173776438, 3173776439, 3173776440, 3173776441, 3173776442, 3173776443, 3173776444, 3173776423], "tags": {"landuse": "residential", "name": "Bila", "place": "village"}}, {"type": "way", "id": 343558725, "nodes": [3504037004, 3504037000, 3504036993, 3504036990, 3504036987, 3504036983, 3504036981, 3504036978, 7695760015, 3504036979, 3504036985, 3504036989, 3504036995, 10251075106, 3504036998, 3504037001, 3504037003, 10251075107, 3504037006, 3504037004], "tags": {"admin_level": "11", "designation": "sitio", "is_in:village": "Otucan Sur", "landuse": "residential", "name": "Kalimbatawa", "place": "hamlet"}}, {"type": "way", "id": 496174954, "nodes": [5517174354, 5517210033, 4878931060, 4878931059, 4878931058, 4878931057, 4878931056, 4878931055, 4878931054, 4878931053, 5517210041, 5517210042, 4878931052, 4878931051, 4878931050]}, {"type": "way", "id": 574781174, "nodes": [5516491900, 5516491901, 5516491902, 5516491903, 5516491904, 5516491905, 5516491906, 5516491907, 5516491908, 5516491909, 5516491910, 5516491911, 5516491912, 5516491913, 5516491914, 5516491915, 5516491916, 5516491917, 5516491918, 5516491919, 5516491920, 5516493621, 5516493622, 5516493623, 5516493624, 5516493625, 1278955904, 5516493626, 5516493627, 5516493628, 5516493629, 5516493630, 5516493631, 5516493632, 5516493633, 5516493634, 5516491900], "tags": {"area": "yes", "name": "Bangaan", "place": "hamlet"}}, {"type": "way", "id": 574866170, "nodes": [4878931050, 4878931049, 4878931048, 4878931047, 4878931046, 4878931045, 4878931044, 5517210969, 4878931043, 4878931042, 4878931041, 5517210040, 4878931040, 5517210039, 5517210038, 5517210037, 3101751054, 5517210036, 4878931038, 3101698371, 3101698427, 3101698426, 3101698425, 3101698424, 5517174360, 5517210035, 5517174359, 5517210034, 3101765412, 3101765411, 3101765408, 3101765407, 3101765406, 5517174354]}, {"type": "way", "id": 574866171, "nodes": [1278937304, 4878931024, 4878931025, 3103235891, 3103235890, 3103235889, 3103235888, 3103229803, 5517210043, 6660382773, 5517210044, 3103229805, 5517210045, 3103471647, 3103251544, 3103251545, 3103251546, 3103254045, 5517210046, 3103255311, 5517210047, 5517210048, 5517210049, 5517210050, 5517210051, 5517210052, 5517210053, 5517210054, 5517210055, 5517210056, 5517210057, 5517210058, 3105060708, 1278937293, 5517210059, 1278937292, 1278937290, 5517210060, 5517210061, 5517210062, 5517210063, 5517210064, 5517210065, 5517210066, 5517210067, 5517210068, 4876718576, 5517210069, 5517210070, 5517210071, 5517210072, 5517210073, 5517210074, 5517210080, 5517210079, 5517210078, 5517210075, 5517210077, 5517210076, 1278937304]}, {"type": "way", "id": 1367266200, "nodes": [12662145542, 12662145541]}, {"type": "way", "id": 1367266201, "nodes": [7395687019, 7395687020], "tags": {"admin_level": "6", "boundary": "administrative"}}, {"type": "way", "id": 1367266202, "nodes": [7395687019, 12662100080, 12662100084]}, {"type": "way", "id": 1367266205, "nodes": [12662100075, 7768489241, 7768489242, 7768489243, 7768489244], "tags": {"admin_level": "4", "boundary": "administrative", "source": "NAMRIA topo"}}, {"type": "way", "id": 1367266206, "nodes": [12662100084, 12662100079, 12662100078, 12662100077, 12662100076]}, {"type": "way", "id": 1367266215, "nodes": [12662145541, 12662145540]}, {"type": "way", "id": 1367266220, "nodes": [7768489244, 7768489240, 7768489239, 12662100099], "tags": {"admin_level": "4", "boundary": "administrative", "source": "NAMRIA topo"}}, {"type": "way", "id": 1367266227, "nodes": [12662145540, 12662145539, 368394224]}, {"type": "way", "id": 1367266229, "nodes": [12662100099, 7768489237, 7768489238], "tags": {"admin_level": "4", "boundary": "administrative", "source": "NAMRIA topo"}}, {"type": "way", "id": 1367266232, "nodes": [12662145556, 12662145555]}, {"type": "way", "id": 1367266233, "nodes": [368394224, 4467873970]}, {"type": "way", "id": 1367266234, "nodes": [4467873970, 12662145507, 12662145506, 7395687020]}, {"type": "way", "id": 1367266239, "nodes": [12662145544, 12662145543, 12662145542]}, {"type": "way", "id": 1367266241, "nodes": [7768489238, 7768489236, 12662145528], "tags": {"admin_level": "4", "boundary": "administrative", "source": "NAMRIA topo"}}, {"type": "way", "id": 1367266242, "nodes": [12662145528, 7768489246, 7768489250, 7768489249, 7768489247], "tags": {"admin_level": "4", "boundary": "administrative", "source": "NAMRIA topo"}}, {"type": "way", "id": 1367266244, "nodes": [7768489247, 7768489248, 7768489257, 7768489256, 7768489254, 7768489251, 12662145531], "tags": {"admin_level": "4", "boundary": "administrative", "source": "NAMRIA topo"}}, {"type": "way", "id": 1367266245, "nodes": [12662145555, 12662145554]}, {"type": "way", "id": 1367266246, "nodes": [12662145557, 12662145556], "tags": {"admin_level": "6", "boundary": "administrative"}}, {"type": "way", "id": 1367266248, "nodes": [12662145531, 7768489255, 7768489253, 7768489252, 7768489258, 7768489260, 7768489259, 12662145534], "tags": {"admin_level": "4", "boundary": "administrative", "source": "NAMRIA topo"}}, {"type": "way", "id": 1367266250, "nodes": [12662145563, 12662145558, 12662145557]}, {"type": "way", "id": 1367266251, "nodes": [12662145534, 7768489261, 7768489265, 7768489263, 7768489262, 7768489264, 7768489266, 12662145559], "tags": {"admin_level": "4", "boundary": "administrative", "source": "NAMRIA topo"}}, {"type": "way", "id": 1367266253, "nodes": [12662145554, 12662145553, 12662145552, 12662145551, 12662145550, 12662145549, 12662145548, 12662145547, 12662145546, 12662145545, 12662145544]}, {"type": "way", "id": 1367266255, "nodes": [12662145559, 7768489284, 7768489269, 7768489268, 12662145571], "tags": {"admin_level": "4", "boundary": "administrative", "source": "NAMRIA topo"}}, {"type": "way", "id": 1367266257, "nodes": [12662145571, 12662145570, 12662145569, 12662145568, 12662145567, 12662145566, 12662145565, 12662145564, 12662145563]}, {"type": "way", "id": 1368021832, "nodes": [12662100076, 7768489245, 7768489231, 12662100075], "tags": {"admin_level": "4", "boundary": "administrative", "source": "NAMRIA topo"}}, {"type": "relation", "id": 7284500, "members": [{"type": "way", "ref": 496174954, "role": "outer"}, {"type": "way", "ref": 574866170, "role": "outer"}, {"type": "way", "ref": 574866171, "role": "outer"}], "tags": {"name": "Batad Residential", "place": "hamlet", "type": "multipolygon"}}, {"type": "relation", "id": 18820899, "members": [{"type": "node", "ref": 4628508213, "role": "label"}, {"type": "way", "ref": 1367266201, "role": "outer"}, {"type": "way", "ref": 1367266202, "role": "outer"}, {"type": "way", "ref": 1367266206, "role": "outer"}, {"type": "way", "ref": 1368021832, "role": "outer"}, {"type": "way", "ref": 1367266205, "role": "outer"}, {"type": "way", "ref": 1367266220, "role": "outer"}, {"type": "way", "ref": 1367266229, "role": "outer"}, {"type": "way", "ref": 1367266241, "role": "outer"}, {"type": "way", "ref": 1367266242, "role": "outer"}, {"type": "way", "ref": 1367266244, "role": "outer"}, {"type": "way", "ref": 1367266248, "role": "outer"}, {"type": "way", "ref": 1367266251, "role": "outer"}, {"type": "way", "ref": 1367266255, "role": "outer"}, {"type": "way", "ref": 1367266257, "role": "outer"}, {"type": "way", "ref": 1367266250, "role": "outer"}, {"type": "way", "ref": 1367266246, "role": "outer"}, {"type": "way", "ref": 1367266232, "role": "outer"}, {"type": "way", "ref": 1367266245, "role": "outer"}, {"type": "way", "ref": 1367266253, "role": "outer"}, {"type": "way", "ref": 1367266239, "role": "outer"}, {"type": "way", "ref": 1367266200, "role": "outer"}, {"type": "way", "ref": 1367266215, "role": "outer"}, {"type": "way", "ref": 1367266227, "role": "outer"}, {"type": "way", "ref": 1367266233, "role": "outer"}, {"type": "way", "ref": 1367266234, "role": "outer"}], "tags": {"admin_level": "6", "boundary": "administrative", "gns_classification": "ADM2", "is_in:province": "Mountain Province", "name": "Sabangan", "name:pronunciation": "sa\u02c8ba\u014ban", "place": "town", "place:PH": "municipality", "population": "9315", "population:date": "2015-08-01", "source:population": "Philippine Statistics Authority", "type": "boundary", "wikidata": "Q36061", "wikipedia": "en:Sabangan"}}]}