{"version": 0.6, "generator": "Overpass API 0.7.62.5 1bd436f1", "osm3s": {"timestamp_osm_base": "2025-05-24T17:55:15Z", "copyright": "The data included in this document is from www.openstreetmap.org. The data is made available under ODbL."}, "elements": [{"type": "node", "id": 198499908, "lat": 13.3241764, "lon": 121.8467339, "tags": {"admin_level": "6", "admin_type:PH": "municipality", "name": "Gasan", "old_ref": "174003000", "place": "town", "population": "36197", "population:date": "2020-05-01", "postal_code": "4905", "ref": "1704003000", "wikidata": "Q107029", "wikimedia_commons": "Category:Gasan, Marinduque", "wikipedia": "en:Gasan, Marinduque"}}, {"type": "node", "id": 198502053, "lat": 13.688262, "lon": 122.1711441, "tags": {"admin_level": "6", "gns_classification": "ADM2", "gns_uni": "-3345799", "is_in:province": "Quezon", "name": "General Luna", "place": "town", "place:PH": "municipality", "population": "26494", "population:date": "2015-08-01", "source": "GNS", "source:population": "Philippine Statistics Authority", "wikidata": "Q103889", "wikimedia_commons": "Category:General Luna, Quezon", "wikipedia": "en:General Luna, Quezon"}}, {"type": "node", "id": 198509662, "lat": 13.4735672, "lon": 121.8608199, "tags": {"admin_level": "6", "admin_type:PH": "municipality", "name": "Mogpog", "name:en": "Mogpog", "name:tl": "Mogpog", "old_ref": "174004000", "place": "town", "population": "34516", "population:date": "2020-05-01", "postal_code": "4901", "ref": "1704004000", "wikidata": "Q107034", "wikimedia_commons": "Category:Mogpog", "wikipedia": "en:Mogpog"}}, {"type": "node", "id": 198520873, "lat": 13.4479146, "lon": 121.8400274, "tags": {"admin_level": "6", "admin_type:PH": "municipality", "capital": "4", "name": "Boac", "name:en": "Boac", "name:ja": "\u30dc\u30a2\u30af", "name:tl": "Boac", "old_ref": "174001000", "place": "town", "population": "57283", "population:date": "2020-05-01", "postal_code": "4900", "ref": "1704001000", "wikidata": "Q107011", "wikimedia_commons": "Category:Boac, Marinduque", "wikipedia": "en:Boac, Marinduque"}}, {"type": "node", "id": 198521607, "lat": 13.4763975, "lon": 122.0278552, "tags": {"admin_level": "6", "admin_type:PH": "municipality", "name": "Santa Cruz", "old_ref": "174005000", "place": "town", "population": "54692", "population:date": "2020-05-01", "postal_code": "4902", "ref": "1704005000", "wikidata": "Q107042", "wikimedia_commons": "Category:Santa Cruz, Marinduque", "wikipedia": "en:Santa Cruz, Marinduque"}}, {"type": "node", "id": 198525298, "lat": 13.7476253, "lon": 122.1404468, "tags": {"admin_level": "6", "gns_classification": "ADM2", "gns_uni": "-3356689", "is_in:province": "Quezon", "name": "Macalelon", "name:uk": "\u041c\u0430\u043a\u0430\u043b\u0435\u043b\u043e\u043d", "place": "town", "place:PH": "municipality", "population": "28188", "population:date": "2015-08-01", "source": "GNS", "source:population": "Philippine Statistics Authority", "wikidata": "Q103947", "wikimedia_commons": "Category:Macalelon", "wikipedia": "en:Macalelon"}}, {"type": "node", "id": 198526991, "lat": 13.3203645, "lon": 122.0859961, "tags": {"admin_level": "6", "admin_type:PH": "municipality", "name": "Torrijos", "old_ref": "174006000", "place": "town", "population": "30476", "population:date": "2020-05-01", "postal_code": "4903", "ref": "1704006000", "wikidata": "Q107048", "wikimedia_commons": "Category:Torrijos, Marinduque", "wikipedia": "en:Torrijos, Marinduque"}}, {"type": "node", "id": 824009236, "lat": 13.7468895, "lon": 122.1391919}, {"type": "node", "id": 824009248, "lat": 13.7476494, "lon": 122.1384237}, {"type": "node", "id": 824009275, "lat": 13.7466002, "lon": 122.1377778}, {"type": "node", "id": 824009281, "lat": 13.7474227, "lon": 122.1386533}, {"type": "node", "id": 824009289, "lat": 13.7478834, "lon": 122.1372586}, {"type": "node", "id": 824009291, "lat": 13.7473785, "lon": 122.1377497}, {"type": "node", "id": 824009297, "lat": 13.7475829, "lon": 122.1379657}, {"type": "node", "id": 824009301, "lat": 13.7470293, "lon": 122.1373916}, {"type": "node", "id": 824009302, "lat": 13.7467898, "lon": 122.1371687}, {"type": "node", "id": 824009306, "lat": 13.7463427, "lon": 122.1367049}, {"type": "node", "id": 824009316, "lat": 13.7452807, "lon": 122.1356633}, {"type": "node", "id": 824009347, "lat": 13.7468465, "lon": 122.1362153}, {"type": "node", "id": 824009353, "lat": 13.7457633, "lon": 122.1349883}, {"type": "node", "id": 824009374, "lat": 13.7463804, "lon": 122.1379857}, {"type": "node", "id": 824009376, "lat": 13.746171, "lon": 122.1377349}, {"type": "node", "id": 824009385, "lat": 13.7455113, "lon": 122.1369465}, {"type": "node", "id": 824009398, "lat": 13.7448094, "lon": 122.1390441}, {"type": "node", "id": 824009418, "lat": 13.7455205, "lon": 122.1331189}, {"type": "node", "id": 824021648, "lat": 13.7473849, "lon": 122.1381623}, {"type": "node", "id": 824021652, "lat": 13.7467971, "lon": 122.1371501}, {"type": "node", "id": 824021663, "lat": 13.7444085, "lon": 122.138753}, {"type": "node", "id": 824031308, "lat": 13.7471841, "lon": 122.1393957}, {"type": "node", "id": 824031310, "lat": 13.7469139, "lon": 122.1396424}, {"type": "node", "id": 824031322, "lat": 13.7463352, "lon": 122.1366972}, {"type": "node", "id": 824031326, "lat": 13.7452946, "lon": 122.1330743}, {"type": "node", "id": 824031327, "lat": 13.7455228, "lon": 122.1349655}, {"type": "node", "id": 1374378624, "lat": 13.4782976, "lon": 121.9069636, "tags": {"name": "Banto", "place": "village"}}, {"type": "node", "id": 2528989257, "lat": 13.418553, "lon": 121.8222962, "tags": {"fixme": "location", "name": "Alijogan", "nga:ufi": "-2407795", "place": "hamlet", "source": "Bing; USGS, 2013-10-11; NGA"}}, {"type": "node", "id": 2528989258, "lat": 13.4, "lon": 121.916667, "tags": {"FIXME": "location", "name": "Bagacay", "nga:ufi": "-2410010", "place": "hamlet", "source": "Bing; USGS, 2013-10-11; NGA"}}, {"type": "node", "id": 2528989259, "lat": 13.35, "lon": 122.05, "tags": {"FIXME": "location", "name": "Bahay Nayon", "nga:ufi": "-2410460", "place": "hamlet", "source": "Bing; USGS, 2013-10-11; NGA"}}, {"type": "node", "id": 2528989260, "lat": 13.35, "lon": 121.95, "tags": {"FIXME": "location", "name": "Barok", "nga:ufi": "-2412705", "place": "hamlet", "source": "Bing; USGS, 2013-10-11; NGA"}}, {"type": "node", "id": 2528989261, "lat": 13.366667, "lon": 121.933333, "tags": {"FIXME": "location", "name": "Canaraw", "nga:ufi": "-2419954", "place": "hamlet", "source": "Bing; USGS, 2013-10-11; NGA"}}, {"type": "node", "id": 2528989262, "lat": 13.4337746, "lon": 121.8193481, "tags": {"ele": "11", "fixme": "location", "name": "Capala", "nga:ufi": "-2420615", "place": "hamlet", "source": "Bing;USGS, 2013-10-11;NGA"}}, {"type": "node", "id": 2528989263, "lat": 13.4644133, "lon": 121.8661788, "tags": {"admin_level": "10", "name": "Danao", "place": "village", "place:PH": "barangay", "population": "663", "population:date": "2015-08-01", "ref": "174004010", "source:population": "Philippine Statistics Authority"}}, {"type": "node", "id": 2528989264, "lat": 13.379167, "lon": 121.928611, "tags": {"FIXME": "location", "name": "Guyguy", "nga:ufi": "-2427402", "place": "hamlet", "source": "Bing; USGS, 2013-10-11; NGA"}}, {"type": "node", "id": 2528989265, "lat": 13.4027623, "lon": 121.8261081, "tags": {"FIXME": "location", "name": "Caganhao", "nga:ufi": "-2429659", "place": "village", "source": "Bing; USGS, 2013-10-11; NGA"}}, {"type": "node", "id": 2528989266, "lat": 13.533611, "lon": 122.020833, "tags": {"FIXME": "location", "admin_level": "10", "name": "Kalangkang", "nga:ufi": "-2429773", "place": "village", "place:PH": "barangay", "population": "478", "source": "Bing; USGS, 2013-10-11; NGA", "source:population": "Philippine Statistics Authority"}}, {"type": "node", "id": 2528989269, "lat": 13.413182, "lon": 122.1003695, "tags": {"FIXME": "location", "name": "Kaymanas", "nga:ufi": "-2430521", "place": "hamlet", "source": "Bing; USGS, 2013-10-11; NGA"}}, {"type": "node", "id": 2528989272, "lat": 13.525, "lon": 121.964444, "tags": {"FIXME": "location", "admin_level": "10", "name": "Lamesa", "nga:ufi": "-2431705", "place": "village", "place:PH": "barangay", "population": "937", "source": "Bing; USGS, 2013-10-11; NGA", "source:population": "Philippine Statistics Authority"}}, {"type": "node", "id": 2528989273, "lat": 13.480902, "lon": 121.8384995, "tags": {"fixme": "location", "name": "Luauan", "nga:ufi": "-2434048", "place": "hamlet", "source": "Bing; USGS, 2013-10-11; NGA"}}, {"type": "node", "id": 2528989274, "lat": 13.483333, "lon": 121.883333, "tags": {"FIXME": "location", "name": "Mababad", "nga:ufi": "-2437851", "place": "hamlet", "source": "Bing; USGS, 2013-10-11; NGA"}}, {"type": "node", "id": 2528989275, "lat": 13.416667, "lon": 121.9, "tags": {"FIXME": "location", "name": "Mambuyo", "nga:ufi": "-2437304", "place": "hamlet", "source": "Bing; USGS, 2013-10-11; NGA"}}, {"type": "node", "id": 2528989276, "lat": 13.483333, "lon": 121.916667, "tags": {"FIXME": "location", "name": "Mangamnan", "nga:ufi": "-2437697", "place": "hamlet", "source": "Bing; USGS, 2013-10-11; NGA"}}, {"type": "node", "id": 2528989277, "lat": 13.4682387, "lon": 122.0340924, "tags": {"admin_level": "10", "is_in:town": "Santa Cruz", "name": "Manlibunan", "nga:ufi": "-2437979", "place": "village", "place:PH": "barangay", "population": "889", "source": "Bing; USGS, 2013-10-11; NGA", "source:population": "Philippine Statistics Authority"}}, {"type": "node", "id": 2528989278, "lat": 13.466667, "lon": 121.95, "tags": {"FIXME": "location", "name": "Mesang Bato", "nga:ufi": "-2439758", "place": "hamlet", "source": "Bing; USGS, 2013-10-11; NGA"}}, {"type": "node", "id": 2528989280, "lat": 13.5, "lon": 121.916667, "tags": {"FIXME": "location", "name": "Santikin", "nga:ufi": "-2451888", "place": "hamlet", "source": "Bing; USGS, 2013-10-11; NGA"}}, {"type": "node", "id": 2528990604, "lat": 13.5187944, "lon": 122.1702107, "tags": {"admin_level": "10", "admin_type:PH": "barangay", "designation": "barangay", "is_in:town": "Santa Cruz", "name": "Mongpong", "old_ref": "174005041", "place": "village", "population": "1362", "population:2015": "1353", "population:date": "2020-05-01", "ref": "1704005041", "source:population": "Philippine Statistics Authority", "wikidata": "Q115337150"}}, {"type": "node", "id": 4555521589, "lat": 13.3909697, "lon": 121.8269944, "tags": {"admin_level": "10", "name": "Bunganay", "place": "village", "place:PH": "barangay", "population": "1903", "source:population": "Philippine Statistics Authority"}}, {"type": "node", "id": 4555521689, "lat": 13.3820898, "lon": 121.8251618, "tags": {"admin_level": "10", "admin_type:PH": "barangay", "alt_name": "Kawit", "is_in:town": "Boac", "name": "Cawit", "place": "village"}}, {"type": "node", "id": 4555521790, "lat": 13.3977111, "lon": 121.8266422, "tags": {"admin_level": "10", "name": "Amoingon", "place": "village", "place:PH": "barangay", "population": "1306", "source:population": "Philippine Statistics Authority"}}, {"type": "node", "id": 5152159929, "lat": 13.44965, "lon": 122.091239, "tags": {"name": "Tamayo", "place": "village"}}, {"type": "node", "id": 5152161567, "lat": 13.4737728, "lon": 122.0960201, "tags": {"admin_level": "10", "admin_type:PH": "barangay", "is_in:town": "Santa Cruz", "name": "Alobo", "old_ref": "174005001", "place": "village", "population": "971", "population:2015": "1087", "ref": "1704005001", "source:name": "extrapolated from OSMaPaaralan, relation/13370769", "source:population": "Philippine Statistics Authority"}}, {"type": "node", "id": 5152162938, "lat": 13.4740128, "lon": 122.0986272, "tags": {"name": "Payte", "place": "neighbourhood"}}, {"type": "node", "id": 5152165432, "lat": 13.4368248, "lon": 122.1076608, "tags": {"name": "Angas", "place": "village"}}, {"type": "node", "id": 5152169561, "lat": 13.4496628, "lon": 122.102831, "tags": {"name": "Tagum", "place": "village"}}, {"type": "node", "id": 5152179144, "lat": 13.3974996, "lon": 122.1159056, "tags": {"admin_level": "10", "is_in:province": "Marinduque", "is_in:town": "Torrijos", "name": "Suha", "place": "village", "place:PH": "barangay", "population": "1654", "source:population": "Philippine Statistics Authority"}}, {"type": "node", "id": 5152179211, "lat": 13.3833801, "lon": 122.1126265, "tags": {"admin_level": "10", "is_in:province": "Marinduque", "is_in:town": "Torrijos", "name": "Malinao", "place": "village", "place:PH": "barangay", "population": "759", "source:population": "Philippine Statistics Authority"}}, {"type": "node", "id": 5152188457, "lat": 13.373732, "lon": 122.1150696, "tags": {"admin_level": "10", "is_in:province": "Marinduque", "is_in:town": "Torrijos", "name": "Bonliw", "place": "village", "place:PH": "barangay", "population": "1199", "source:population": "Philippine Statistics Authority"}}, {"type": "node", "id": 5152192308, "lat": 13.3400436, "lon": 122.1122454, "tags": {"admin_level": "10", "name": "Cagpo", "place": "village", "place:PH": "barangay", "population": "547", "source:population": "Philippine Statistics Authority"}}, {"type": "node", "id": 5152192966, "lat": 13.3302604, "lon": 122.1002319, "tags": {"admin_level": "10", "name": "Poctoy", "place": "village", "place:PH": "barangay", "population": "1145", "source:population": "Philippine Statistics Authority"}}, {"type": "node", "id": 5152198284, "lat": 13.3650015, "lon": 122.0704965, "tags": {"admin_level": "10", "name": "Marlangga", "place": "village", "place:PH": "barangay", "population": "1321", "source:population": "Philippine Statistics Authority"}}, {"type": "node", "id": 5152198343, "lat": 13.3279923, "lon": 122.0557041, "tags": {"admin_level": "10", "name": "Bayakbakin", "place": "village", "place:PH": "barangay", "population": "316", "source:population": "Philippine Statistics Authority"}}, {"type": "node", "id": 5152205960, "lat": 13.3212955, "lon": 122.0393969, "tags": {"admin_level": "10", "name": "Payanas", "place": "village", "place:PH": "barangay", "population": "746", "source:population": "Philippine Statistics Authority"}}, {"type": "node", "id": 5152212940, "lat": 13.3400972, "lon": 122.0091979, "tags": {"admin_level": "10", "name": "Sibuyao", "place": "village", "place:PH": "barangay", "population": "1689", "source:population": "Philippine Statistics Authority"}}, {"type": "node", "id": 5837600255, "lat": 13.7445009, "lon": 122.182762, "tags": {"name": "Candangal", "place": "village"}}, {"type": "node", "id": 5837600256, "lat": 13.7324549, "lon": 122.1784323, "tags": {"admin_level": "10", "admin_type:PH": "barangay", "is_in:town": "Macalelon", "name": "Olongtao Ibaba", "place": "village", "postal_code": "4309", "source:name": "extrapolated from OSMaPaaralan"}}, {"type": "node", "id": 6561497286, "lat": 13.5016585, "lon": 122.0885836, "tags": {"admin_level": "10", "admin_type:PH": "barangay", "is_in:town": "Santa Cruz", "name": "Polo", "old_ref": "174005047", "place": "village", "population": "845", "population:2015": "946", "population:date": "2020-05-01", "ref": "1704005047", "source:population": "Philippine Statistics Authority", "wikidata": "Q115337342"}}, {"type": "node", "id": 6561497287, "lat": 13.5274483, "lon": 122.1186506, "tags": {"admin_level": "10", "admin_type:PH": "barangay", "name": "Maniwaya", "old_ref": "174005036", "place": "village", "population": "1573", "population:date": "2020-05-01", "ref": "1704005036", "wikidata": "Q115313805"}}, {"type": "node", "id": 7068640613, "lat": 13.4373468, "lon": 121.9904923, "tags": {"is_in:town": "Santa Cruz", "name": "Kilo-kilo", "place": "village"}}, {"type": "node", "id": 7068691002, "lat": 13.4479826, "lon": 121.9813138, "tags": {"is_in:town": "Santa Cruz", "name": "San Antonio", "place": "village"}}, {"type": "node", "id": 7068691121, "lat": 13.4364102, "lon": 121.9704455, "tags": {"is_in:town": "Santa Cruz", "name": "Labo", "place": "village"}}, {"type": "node", "id": 7100885872, "lat": 13.323363, "lon": 121.847139, "tags": {"name": "Barangay II", "place": "village"}}, {"type": "node", "id": 7119696513, "lat": 13.3749444, "lon": 122.1311152, "tags": {"admin_level": "10", "is_in:province": "Marinduque", "is_in:town": "Torrijos", "name": "Kay Duke", "place": "village", "place:PH": "barangay", "population": "512", "source:population": "Philippine Statistics Authority"}}, {"type": "node", "id": 7119696514, "lat": 13.3822952, "lon": 122.0946345, "tags": {"is_in:province": "Marinduque", "is_in:town": "Torrijos", "name": "Bolo", "place": "village"}}, {"type": "node", "id": 7119696516, "lat": 13.3944363, "lon": 122.1059131, "tags": {"admin_level": "10", "is_in:province": "Marinduque", "is_in:town": "Torrijos", "name": "Matuyatuya", "place": "village", "place:PH": "barangay", "population": "1006", "source:population": "Philippine Statistics Authority"}}, {"type": "node", "id": 7186987162, "lat": 13.466739, "lon": 122.051855, "tags": {"admin_level": "10", "name": "Buyabod", "place": "village", "place:PH": "barangay", "population": "2719", "source:population": "Philippine Statistics Authority"}}, {"type": "node", "id": 7194890380, "lat": 13.3353087, "lon": 121.8612152, "tags": {"admin_level": "10", "name": "Tiguion", "place": "village", "place:PH": "barangay", "population": "2966", "source:population": "Philippine Statistics Authority"}}, {"type": "node", "id": 7194892737, "lat": 13.3538382, "lon": 121.8426865, "tags": {"admin_level": "10", "name": "Cabugao", "place": "village", "place:PH": "barangay", "population": "814", "source:population": "Philippine Statistics Authority"}}, {"type": "node", "id": 7194892738, "lat": 13.5008648, "lon": 121.8568191, "tags": {"admin_level": "10", "name": "Capayang", "place": "village", "place:PH": "barangay", "population": "1311", "source:population": "Philippine Statistics Authority"}}, {"type": "node", "id": 7194892739, "lat": 13.500711, "lon": 122.04577, "tags": {"admin_level": "10", "admin_type:PH": "barangay", "name": "Balogo", "old_ref": "174005007", "place": "village", "place:PH": "barangay", "population": "1002", "population:2015": "1114", "ref": "1704005007", "source:population": "Philippine Statistics Authority"}}, {"type": "node", "id": 7194892748, "lat": 13.5013734, "lon": 122.0281894, "tags": {"admin_level": "10", "admin_type:PH": "barangay", "is_in:town": "Santa Cruz", "name": "Hupi", "old_ref": "174005018", "place": "village", "population": "1632", "population:2015": "1619", "ref": "1704005018", "source:population": "Philippine Statistics Authority"}}, {"type": "node", "id": 7194893297, "lat": 13.3202909, "lon": 121.8996781, "tags": {"admin_level": "10", "name": "Tabionan", "place": "village", "place:PH": "barangay", "population": "1222", "source:population": "Philippine Statistics Authority"}}, {"type": "node", "id": 7194893382, "lat": 13.3090623, "lon": 121.8727326, "tags": {"admin_level": "10", "name": "Bachao Ilaya", "place": "village", "place:PH": "barangay", "source:population": "Philippine Statistics Authority"}}, {"type": "node", "id": 7194893391, "lat": 13.533422, "lon": 121.9391978, "tags": {"admin_level": "10", "name": "Botilao", "place": "village", "place:PH": "barangay", "population": "1100", "source:population": "Philippine Statistics Authority"}}, {"type": "node", "id": 7194893392, "lat": 13.4992165, "lon": 121.9999203, "tags": {"admin_level": "10", "is_in:town": "Santa Cruz", "name": "Lusok", "place": "village", "place:PH": "barangay", "population": "917", "source:population": "Philippine Statistics Authority"}}, {"type": "node", "id": 7194893393, "lat": 13.5163564, "lon": 122.0179099, "tags": {"name": "Kasily", "place": "village", "population": "1045", "source:population": "Philippine Statistics Authority"}}, {"type": "node", "id": 7194893394, "lat": 13.4918119, "lon": 121.97445, "tags": {"admin_level": "10", "admin_type:PH": "barangay", "is_in:town": "?", "is_in:village": "?", "name": "Dolores", "place": "village", "place:PH": "barangay", "population": "1535", "source:name": "extrapolated from OSMaPaaralan, relation/13370779", "source:population": "Philippine Statistics Authority"}}, {"type": "node", "id": 7194893395, "lat": 13.5520301, "lon": 121.8672931, "tags": {"admin_level": "10", "name": "Argao", "place": "village", "place:PH": "barangay", "population": "1249", "source:population": "Philippine Statistics Authority"}}, {"type": "node", "id": 7194893396, "lat": 13.4614325, "lon": 121.8373007, "tags": {"admin_level": "10", "name": "Buliasnin", "place": "village", "place:PH": "barangay", "population": "1296", "source:population": "Philippine Statistics Authority"}}, {"type": "node", "id": 7194893397, "lat": 13.4594787, "lon": 121.829651, "tags": {"name": "Poras", "place": "village", "population": "982"}}, {"type": "node", "id": 7194893400, "lat": 13.4562989, "lon": 121.8250269, "tags": {"admin_level": "10", "name": "Tabigue", "place": "village", "place:PH": "barangay", "population": "876", "source:population": "Philippine Statistics Authority"}}, {"type": "node", "id": 7194893401, "lat": 13.4675207, "lon": 121.8251717, "tags": {"admin_level": "10", "name": "Balugo", "place": "village", "place:PH": "barangay", "population": "1565", "source:population": "Philippine Statistics Authority"}}, {"type": "node", "id": 7194893402, "lat": 13.4553545, "lon": 121.8369251, "tags": {"admin_level": "10", "name": "Tabi", "place": "village", "place:PH": "barangay", "population": "1525", "source:population": "Philippine Statistics Authority"}}, {"type": "node", "id": 7194893403, "lat": 13.4564372, "lon": 121.8429609, "tags": {"admin_level": "10", "is_in:town": "Boac", "name": "Tanza", "place": "village", "place:PH": "barangay", "population": "1810", "source:population": "Philippine Statistics Authority"}}, {"type": "node", "id": 7194893405, "lat": 13.3428773, "lon": 121.8346453, "tags": {"admin_level": "10", "name": "Bangbang", "place": "village", "place:PH": "barangay", "population": "1602", "source:population": "Philippine Statistics Authority"}}, {"type": "node", "id": 7194893410, "lat": 13.4784107, "lon": 121.9137785, "tags": {"admin_level": "10", "name": "Butansapa", "place": "village", "place:PH": "barangay", "population": "966", "source:population": "Philippine Statistics Authority"}}, {"type": "node", "id": 7194893411, "lat": 13.5220859, "lon": 121.9179708, "tags": {"name": "Sayao", "place": "village"}}, {"type": "node", "id": 7194893412, "lat": 13.5283942, "lon": 121.8680978, "tags": {"admin_level": "10", "admin_type:PH": "barangay", "is_in:town": "Mogpog", "name": "Balanacan", "old_ref": "174004003", "place": "village", "place:PH": "barangay", "population": "3482", "population:2015": "3258", "ref": "1704004003", "source:population": "Philippine Statistics Authority"}}, {"type": "node", "id": 7194893414, "lat": 13.4643696, "lon": 121.8224291, "tags": {"name": "Pili", "place": "village", "population": "367"}}, {"type": "node", "id": 7591160445, "lat": 13.3231359, "lon": 121.8588495, "tags": {"name": "Matandang Gasan", "place": "village"}}, {"type": "node", "id": 7591537655, "lat": 13.4254792, "lon": 121.821996, "tags": {"is_in:town": "Boac", "name": "Ihatub", "place": "village"}}, {"type": "node", "id": 7593757116, "lat": 13.4818433, "lon": 121.8672287, "tags": {"is_in:town": "Mogpog", "name": "Candahon", "place": "village"}}, {"type": "node", "id": 7593757143, "lat": 13.477923, "lon": 121.8572509, "tags": {"is_in:town": "Mogpog", "name": "Nangka I", "place": "village"}}, {"type": "node", "id": 7593757144, "lat": 13.4701813, "lon": 121.8634844, "tags": {"admin_level": "10", "name": "Mataas na Bayan", "place": "neighbourhood", "place:PH": "barangay", "population": "739", "population:date": "2015-08-01", "ref": "174004026", "source:population": "Philippine Statistics Authority"}}, {"type": "node", "id": 7593757145, "lat": 13.4764519, "lon": 121.860888, "tags": {"is_in:town": "Mogpog", "name": "Viila Mendez", "place": "village"}}, {"type": "node", "id": 7593757146, "lat": 13.4746573, "lon": 121.8639189, "tags": {"is_in:town": "Mogpog", "name": "Dulong Bayan", "place": "village"}}, {"type": "node", "id": 7593757147, "lat": 13.4743495, "lon": 121.8619019, "tags": {"is_in:town": "Mogpog", "name": "Gitnang Bayan", "place": "village"}}, {"type": "node", "id": 7593757148, "lat": 13.47412, "lon": 121.8594986, "tags": {"is_in:town": "Mogpog", "name": "Market Site", "place": "village"}}, {"type": "node", "id": 7593789091, "lat": 13.4778239, "lon": 121.8405139, "tags": {"is_in:town": "Mogpog", "name": "Maligaya", "place": "village"}}, {"type": "node", "id": 7593797269, "lat": 13.4453739, "lon": 122.0246905, "tags": {"is_in:town": "Santa Cruz", "name": "Kaganhao", "place": "village"}}, {"type": "node", "id": 7593931592, "lat": 13.4395356, "lon": 121.8289858, "tags": {"is_in:town": "Boac", "name": "Bangbangalon", "place": "village"}}, {"type": "node", "id": 7594010327, "lat": 13.4790967, "lon": 122.0286065, "tags": {"is_in:town": "Santa Cruz", "name": "Bagong Silang", "place": "village"}}, {"type": "node", "id": 7594010328, "lat": 13.4844751, "lon": 122.0191812, "tags": {"is_in:town": "Santa Cruz", "name": "Lipa", "place": "village"}}, {"type": "node", "id": 7594010329, "lat": 13.4764258, "lon": 122.0254523, "tags": {"is_in:town": "Santa Cruz", "name": "Banahaw", "place": "village"}}, {"type": "node", "id": 7594010330, "lat": 13.4749025, "lon": 122.0279065, "tags": {"is_in:town": "Santa Cruz", "name": "Pag-asa", "place": "village"}}, {"type": "node", "id": 7594010335, "lat": 13.476714, "lon": 122.0291778, "tags": {"name": "Maharlika", "place": "village"}}, {"type": "node", "id": 7594018547, "lat": 13.4905092, "lon": 122.0059218, "tags": {"admin_level": "10", "admin_type:PH": "barangay", "is_in:town": "Santa Cruz", "name": "Landy", "place": "village", "population": "1315", "population:2015": "1564", "ref": "174005029"}}, {"type": "node", "id": 7594034502, "lat": 13.5100373, "lon": 121.9888535, "tags": {"is_in:town": "Santa Cruz", "name": "Ipil", "place": "village"}}, {"type": "node", "id": 7594561387, "lat": 13.4989401, "lon": 122.0122182, "tags": {"is_in:town": "Santa Cruz", "name": "Baliis", "place": "village"}}, {"type": "node", "id": 7610872356, "lat": 13.5196662, "lon": 122.1697286, "tags": {"name": "Bayanan", "place": "neighbourhood"}}, {"type": "node", "id": 7611753115, "lat": 13.4601191, "lon": 122.0604122, "tags": {"name": "Matalaba", "place": "village"}}, {"type": "node", "id": 7611775466, "lat": 13.4611282, "lon": 122.0253223, "tags": {"alt_name": "Kinyaman", "name": "Ki\u00f1aman", "place": "village"}}, {"type": "node", "id": 7611822981, "lat": 13.4906759, "lon": 121.9928355, "tags": {"name": "Aturan", "place": "village"}}, {"type": "node", "id": 7611874950, "lat": 13.5074408, "lon": 121.9606911, "tags": {"name": "Dating Bayan", "place": "village"}}, {"type": "node", "id": 7614576870, "lat": 13.307642, "lon": 122.0039399, "tags": {"name": "Talawan", "place": "village"}}, {"type": "node", "id": 7614762475, "lat": 13.4492522, "lon": 122.1034328, "tags": {"name": "Sitio 1", "place": "neighbourhood"}}, {"type": "node", "id": 7614822646, "lat": 13.4590734, "lon": 122.1024851, "tags": {"name": "Morales", "place": "village"}}, {"type": "node", "id": 7614835036, "lat": 13.4788358, "lon": 122.0778116, "tags": {"name": "Central 1", "place": "neighbourhood"}}, {"type": "node", "id": 7614888139, "lat": 13.4157126, "lon": 122.079974, "tags": {"name": "Taytay", "place": "village"}}, {"type": "node", "id": 7614891788, "lat": 13.4092522, "lon": 122.094791, "tags": {"name": "Masaguisi", "place": "village"}}, {"type": "node", "id": 7614905702, "lat": 13.4393597, "lon": 122.0414034, "tags": {"name": "Banogbog", "place": "village"}}, {"type": "node", "id": 7614914170, "lat": 13.427336, "lon": 122.0543376, "tags": {"name": "Pansoy", "place": "village"}}, {"type": "node", "id": 7614918756, "lat": 13.4127762, "lon": 122.0314962, "tags": {"name": "Devilla", "place": "village"}}, {"type": "node", "id": 7614942797, "lat": 13.4028158, "lon": 122.0985985, "tags": {"name": "Maligaya", "place": "neighbourhood"}}, {"type": "node", "id": 7614960375, "lat": 13.4069837, "lon": 122.0004059, "tags": {"name": "Makulapnit", "place": "village"}}, {"type": "node", "id": 7614988863, "lat": 13.3991999, "lon": 122.0679533, "tags": {"name": "Haguimit", "place": "village"}}, {"type": "node", "id": 7619003455, "lat": 13.3268225, "lon": 122.0892883, "tags": {"name": "Purok 1", "place": "neighbourhood"}}, {"type": "node", "id": 7619137789, "lat": 13.3282293, "lon": 122.051929, "tags": {"name": "Santolan", "place": "neighbourhood"}}, {"type": "node", "id": 7619140502, "lat": 13.3133295, "lon": 122.0688553, "tags": {"name": "Buangan", "place": "village"}}, {"type": "node", "id": 7628508139, "lat": 13.3349238, "lon": 121.8605049, "tags": {"name": "Central Dos", "place": "neighbourhood"}}, {"type": "node", "id": 7628575370, "lat": 13.3709545, "lon": 121.8358352, "tags": {"name": "Bahi", "place": "village"}}, {"type": "node", "id": 7628633624, "lat": 13.3816247, "lon": 121.8605, "tags": {"name": "Tugos", "place": "village"}}, {"type": "node", "id": 7628641251, "lat": 13.4211629, "lon": 121.854633, "tags": {"name": "Maybo", "place": "village"}}, {"type": "node", "id": 7628653630, "lat": 13.4238442, "lon": 121.8766737, "tags": {"name": "Catubugan", "place": "village"}}, {"type": "node", "id": 7628679181, "lat": 13.3591964, "lon": 121.9982609, "tags": {"name": "Tumagabok", "place": "village"}}, {"type": "node", "id": 7628726136, "lat": 13.3794294, "lon": 121.9302017, "tags": {"admin_level": "10", "admin_type:PH": "barangay", "name": "Canat", "old_ref": "174001021", "place": "village", "population": "492", "population:date": "2020-05-01", "ref": "1704001021", "wikidata": "Q24018413"}}, {"type": "node", "id": 7628819381, "lat": 13.3734265, "lon": 121.8750876, "tags": {"name": "Duyay", "place": "village"}}, {"type": "node", "id": 7628836583, "lat": 13.4260518, "lon": 121.8997823, "tags": {"name": "Bantay", "place": "village"}}, {"type": "node", "id": 7628840428, "lat": 13.4125574, "lon": 121.9484969, "tags": {"name": "Hinapulan", "place": "village"}}, {"type": "node", "id": 7628843658, "lat": 13.4137162, "lon": 121.8974618, "tags": {"name": "Mainit", "place": "village"}}, {"type": "node", "id": 7628891455, "lat": 13.5153461, "lon": 121.9270594, "tags": {"name": "Hinadharan", "place": "village"}}, {"type": "node", "id": 7630733306, "lat": 13.5330505, "lon": 121.8975425, "tags": {"name": "Paye", "place": "village"}}, {"type": "node", "id": 7630740704, "lat": 13.5634145, "lon": 121.8568572, "tags": {"name": "Silangan", "place": "village"}}, {"type": "node", "id": 7630741011, "lat": 13.5565324, "lon": 121.8595366, "tags": {"name": "Hinanggayon", "place": "village"}}, {"type": "node", "id": 7630935551, "lat": 13.4423507, "lon": 121.9449299, "tags": {"name": "Mahinhin", "place": "village"}}, {"type": "node", "id": 7632119574, "lat": 13.4457912, "lon": 121.9591381, "tags": {"is_in:town": "Boac", "name": "Puting Buhangin", "place": "village"}}, {"type": "node", "id": 7632120339, "lat": 13.4561444, "lon": 121.9513271, "tags": {"is_in:town": "Mogpog", "name": "Puting Buhangin", "place": "village"}}, {"type": "node", "id": 7632174804, "lat": 13.4716582, "lon": 121.9334124, "tags": {"name": "Bocboc", "place": "village"}}, {"type": "node", "id": 7632202741, "lat": 13.456477, "lon": 121.8869472, "tags": {"name": "Mampaitan", "place": "village"}}, {"type": "node", "id": 7632282023, "lat": 13.4882064, "lon": 121.9026342, "tags": {"name": "Pili", "place": "village"}}, {"type": "node", "id": 7632294891, "lat": 13.5061411, "lon": 121.9068215, "tags": {"name": "Mendez", "place": "village"}}, {"type": "node", "id": 7634676733, "lat": 13.4327403, "lon": 121.8693042, "tags": {"name": "Bamban", "place": "village"}}, {"type": "node", "id": 7634677747, "lat": 13.4338292, "lon": 121.8805828, "tags": {"name": "Balimbing", "place": "village"}}, {"type": "node", "id": 7634693802, "lat": 13.4323414, "lon": 121.8591175, "tags": {"name": "Poctoy", "place": "village"}}, {"type": "node", "id": 7634723401, "lat": 13.4396874, "lon": 121.81955, "tags": {"admin_level": "10", "admin_type:PH": "barangay", "ele": "8.6", "households": "587", "name": "Laylay", "old_ref": "174001030", "place": "village", "population": "2860", "population:date": "2020-05-01", "ref": "1704001030", "wikidata": "Q31811820"}}, {"type": "node", "id": 7634732223, "lat": 13.4434794, "lon": 121.856922, "tags": {"name": "Sawi", "place": "village"}}, {"type": "node", "id": 7634882780, "lat": 13.4798788, "lon": 121.85005, "tags": {"name": "Nangka II", "place": "village"}}, {"type": "node", "id": 7634912658, "lat": 13.4740107, "lon": 121.8870624, "tags": {"name": "Magapua", "place": "village"}}, {"type": "node", "id": 7634957098, "lat": 13.4137598, "lon": 121.8229537, "tags": {"name": "Balaring", "place": "village"}}, {"type": "node", "id": 8091828332, "lat": 13.367951, "lon": 122.0497048, "tags": {"FIXME": "missing name", "place": "village"}}, {"type": "node", "id": 8091828333, "lat": 13.3875217, "lon": 122.0528886, "tags": {"FIXME": "missing name", "place": "village"}}, {"type": "node", "id": 8094728248, "lat": 13.3058021, "lon": 122.065959, "tags": {"FIXME": "missing name", "place": "hamlet"}}, {"type": "node", "id": 8094728907, "lat": 13.3071934, "lon": 121.9866621, "tags": {"FIXME": "missing name", "place": "village"}}, {"type": "node", "id": 8094729080, "lat": 13.3212932, "lon": 122.0011461, "tags": {"FIXME": "missing name", "place": "hamlet"}}, {"type": "node", "id": 8094729413, "lat": 13.3273484, "lon": 122.0361328, "tags": {"FIXME": "missing name", "place": "hamlet"}}, {"type": "node", "id": 8094729440, "lat": 13.3601223, "lon": 122.1251392, "tags": {"FIXME": "missing name", "place": "hamlet"}}, {"type": "node", "id": 8094729467, "lat": 13.3648143, "lon": 122.1216845, "tags": {"FIXME": "missing name", "place": "village"}}, {"type": "node", "id": 8094729715, "lat": 13.3420839, "lon": 121.9825315, "tags": {"FIXME": "missing name", "place": "hamlet"}}, {"type": "node", "id": 8094730794, "lat": 13.3477262, "lon": 121.9470593, "tags": {"FIXME": "missing name", "place": "hamlet"}}, {"type": "node", "id": 8094730833, "lat": 13.36769, "lon": 121.9446467, "tags": {"FIXME": "missing name", "place": "hamlet"}}, {"type": "node", "id": 8668890598, "lat": 13.620984, "lon": 122.2157657, "tags": {"admin_level": "10", "designation": "barangay", "name": "Tuhian", "place": "village", "postal_code": "4311"}}, {"type": "node", "id": 8718817117, "lat": 13.6324744, "lon": 122.2435641, "tags": {"admin_level": "10", "designation": "barangay", "name": "San Isidro", "place": "village", "postal_code": "4311"}}, {"type": "node", "id": 8718817131, "lat": 13.6226315, "lon": 122.2618031, "tags": {"admin_level": "10", "designation": "barangay", "name": "Bolo", "place": "village", "postal_code": "4311"}}, {"type": "node", "id": 8807421645, "lat": 13.7218236, "lon": 122.1757471, "tags": {"admin_level": "10", "designation": "barangay", "name": "Santa Maria Ilaya", "place": "village", "postal_code": "4310"}}, {"type": "node", "id": 8807421650, "lat": 13.7102022, "lon": 122.1804571, "tags": {"admin_level": "10", "designation": "barangay", "name": "San Ignacio Ibaba", "place": "village", "postal_code": "4310"}}, {"type": "node", "id": 8807421653, "lat": 13.7027391, "lon": 122.1969795, "tags": {"admin_level": "10", "designation": "barangay", "name": "San Ignacio Ilaya", "place": "village", "postal_code": "4310"}}, {"type": "node", "id": 8807421699, "lat": 13.6872493, "lon": 122.2097039, "tags": {"admin_level": "10", "designation": "barangay", "name": "San Nicolas", "place": "village", "postal_code": "4310"}}, {"type": "node", "id": 8807432622, "lat": 13.6817557, "lon": 122.1931708, "tags": {"admin_level": "10", "designation": "barangay", "name": "San Vicente", "place": "village", "postal_code": "4310"}}, {"type": "node", "id": 8807432654, "lat": 13.6564543, "lon": 122.2015714, "tags": {"admin_level": "10", "designation": "barangay", "name": "Bacong Ibaba", "place": "village", "postal_code": "4310"}}, {"type": "node", "id": 8807432663, "lat": 13.6729886, "lon": 122.2204757, "tags": {"admin_level": "10", "admin_type:PH": "barangay", "alt_name": "Pidac", "name": "San Isidro Ilaya", "place": "village", "postal_code": "4310"}}, {"type": "node", "id": 8807432867, "lat": 13.6424263, "lon": 122.2214305, "tags": {"admin_level": "10", "designation": "barangay", "name": "Bacong Ilaya", "place": "village", "postal_code": "4310"}}, {"type": "node", "id": 8809112107, "lat": 13.716383, "lon": 122.2265223, "tags": {"admin_level": "10", "designation": "barangay", "name": "Sumilang", "place": "village", "postal_code": "4310"}}, {"type": "node", "id": 8809112108, "lat": 13.7049861, "lon": 122.1635352, "tags": {"admin_level": "10", "designation": "barangay", "name": "Santa Maria Ibaba", "place": "village", "postal_code": "4310"}}, {"type": "node", "id": 8809112109, "lat": 13.6785418, "lon": 122.1792135, "tags": {"admin_level": "10", "designation": "barangay", "name": "San Isidro Ibaba", "place": "village", "postal_code": "4310"}}, {"type": "node", "id": 8942960292, "lat": 13.6819902, "lon": 122.2730362, "tags": {"admin_level": "10", "designation": "barangay", "is_in:town": "Catanauan", "name": "San Vicente Silangan", "place": "village", "source:name": "extrapolated from OSMaPaaralan"}}, {"type": "node", "id": 8943022595, "lat": 13.6487862, "lon": 122.2622564, "tags": {"admin_level": "10", "designation": "barangay", "is_in:town": "Catanauan", "name": "Tagabas Ilaya", "place": "village", "source:name": "extrapolated from OSMaPaaralan, way/872429791"}}, {"type": "node", "id": 8943030597, "lat": 13.6758358, "lon": 122.2494838, "tags": {"is_in:town": "Catanauan", "is_in:village": "San Vicente Kanluran", "name": "Sentro", "place": "neighbourhood", "source:name": "extrapolated from OSMaPaaralan, way/966631182"}}, {"type": "node", "id": 8943046626, "lat": 13.6768581, "lon": 122.2528171, "tags": {"admin_level": "10", "designation": "barangay", "is_in:town": "Catanauan", "name": "San Vicente Kanluran", "place": "village", "source:name": "extrapolated from OSMaPaaralan, way/966631182"}}, {"type": "node", "id": 8945590544, "lat": 13.7014512, "lon": 122.2669319, "tags": {"admin_level": "10", "designation": "barangay", "is_in:town": "General Luna", "name": "Magsaysay", "place": "village", "source:name": "extrapolated from OSMaPaaralan, way/966901766"}}, {"type": "node", "id": 8945592729, "lat": 13.7042973, "lon": 122.2407156, "tags": {"admin_level": "10", "designation": "barangay", "is_in:town": "General Luna", "name": "Nieva", "place": "village", "source:name": "extrapolated from OSMaPaaralan, way/966902846"}}, {"type": "node", "id": 8978548490, "lat": 13.7425312, "lon": 122.196537, "tags": {"admin_level": "10", "admin_type:PH": "barangay", "is_in:town": "Macalelon", "name": "San Nicolas", "place": "village", "source:name": "extrapolated from OSMaPaaralan, way/970239226"}}, {"type": "node", "id": 8978576938, "lat": 13.7207507, "lon": 122.1974241, "tags": {"admin_level": "10", "admin_type:PH": "barangay", "is_in:town": "Macalelon", "name": "Olongtao Ilaya", "place": "village", "source:name": "extrapolated from OSMaPaaralan, way/970233092"}}, {"type": "node", "id": 9201405659, "lat": 13.4644114, "lon": 122.1158481, "tags": {"fixme": "name", "place": "neighbourhood"}}, {"type": "node", "id": 9201405681, "lat": 13.4694509, "lon": 122.1083862, "tags": {"fixme": "name", "place": "neighbourhood"}}, {"type": "node", "id": 9201445228, "lat": 13.477728, "lon": 122.0793492, "tags": {"admin_level": "10", "admin_type:PH": "barangay", "is_in:town": "Santa Cruz", "name": "Biga", "old_ref": "174005011", "place": "hamlet", "population": "376", "population:2015": "336", "ref": "1704005011", "source:name": "extrapolated from OSMaPaaralan, way/815235874", "source:population": "Philippine Statistics Authority"}}, {"type": "node", "id": 10285431299, "lat": 13.4356198, "lon": 121.8988439, "tags": {"admin_level": "10", "designation": "barangay", "is_in:town": "Boac", "name": "Puyog", "place": "village"}}, {"type": "node", "id": 11559100237, "lat": 13.4967988, "lon": 122.0446085, "tags": {"name": "Pantay 1", "place": "neighbourhood"}}, {"type": "way", "id": 68520998, "nodes": [824009289, 824009291, 824021652, 824009306, 824009347, 824009289], "tags": {"landuse": "residential", "name": "Barangay Rizal", "place": "village", "place:PH": "barangay"}}, {"type": "way", "id": 68521402, "nodes": [824021652, 824009301, 824009291, 824009297, 824021648, 824009248, 824009281, 824009275, 824009374, 824009376, 824021652], "tags": {"landuse": "residential", "name": "Barangay Rodriguez", "place": "village", "place:PH": "barangay"}}, {"type": "way", "id": 68521403, "nodes": [824021652, 824031322, 824009316, 824009385, 824009376, 824009302, 824021652], "tags": {"landuse": "residential", "name": "Barangay Pag-asa", "place": "village", "place:PH": "barangay"}}, {"type": "way", "id": 68521404, "nodes": [824009376, 824009398, 824021663, 824009385, 824009376], "tags": {"landuse": "residential", "name": "Barangay Masipag", "place": "village", "place:PH": "barangay"}}, {"type": "way", "id": 68521676, "nodes": [824009275, 824009281, 824009236, 824031308, 824031310, 824009398, 824009376, 824009374, 824009275], "tags": {"landuse": "residential", "name": "Barangay Damayan", "place": "village", "place:PH": "barangay"}}, {"type": "way", "id": 68521677, "nodes": [824009347, 824031322, 824009316, 824031326, 824009418, 824031327, 824009353, 824009347], "tags": {"landuse": "residential", "name": "Barangay Castillo", "place": "village"}}]}