{"version": 0.6, "generator": "Overpass API 0.7.62.5 1bd436f1", "osm3s": {"timestamp_osm_base": "2025-05-24T18:01:29Z", "copyright": "The data included in this document is from www.openstreetmap.org. The data is made available under ODbL."}, "elements": [{"type": "node", "id": 198491523, "lat": 12.7038417, "lon": 124.0320966, "tags": {"admin_level": "6", "gns_classification": "ADM2", "gns_uni": "-3349009", "is_in:province": "Sorsogon", "name": "Irosin", "place": "town", "place:PH": "municipality", "population": "56662", "population:date": "2015-08-01", "postal_code": "4707", "source": "GNS", "source:population": "Philippine Statistics Authority", "website": "http://irosin.gov.ph/", "wikidata": "Q174215", "wikimedia_commons": "Category:Irosin", "wikipedia": "en:Irosin"}}, {"type": "node", "id": 198504420, "lat": 12.828538, "lon": 123.8344127, "tags": {"admin_level": "6", "designation": "municipality", "is_in:province": "Sorsogon", "name": "Magallanes", "place": "town", "population": "37038", "population:date": "2015-08-01", "postal_code": "4705", "ref": "056211000", "source:population": "Philippine Statistics Authority", "wikidata": "Q174236", "wikimedia_commons": "Category:Magallanes, Sorsogon", "wikipedia": "en:Magallanes, Sorsogon"}}, {"type": "node", "id": 198509767, "lat": 12.4216283, "lon": 123.779537, "tags": {"admin_level": "6", "gns_classification": "ADM2", "gns_uni": "-3329658", "is_in:province": "Masbate", "name": "Batuan", "place": "town", "place:PH": "municipality", "population": "15086", "population:date": "2015-08-01", "source": "GNS", "source:population": "Philippine Statistics Authority", "wikidata": "Q191463", "wikimedia_commons": "Category:Batuan, Masbate", "wikipedia": "en:Batuan, Masbate"}}, {"type": "node", "id": 198519139, "lat": 12.6689078, "lon": 123.8769586, "tags": {"admin_level": "6", "designation": "municipality", "is_in:province": "Sorsogon", "name": "Bulan", "place": "town", "population": "100076", "population:date": "2015-08-01", "ref": "056203000", "source:population": "Philippine Statistics Authority", "wikidata": "Q174132", "wikimedia_commons": "Category:Bulan, Sorsogon", "wikipedia": "en:Bulan, Sorsogon"}}, {"type": "node", "id": 369921831, "lat": 12.6286298, "lon": 123.9327726, "tags": {"admin_level": "10", "admin_type:PH": "barangay", "gns_classification": "ADM3", "is_in:town": "Bulan", "name": "Butag", "old_ref": "056203014", "place": "village", "population": "3062", "ref": "0506203014", "source:population": "Philippine Statistics Authority"}}, {"type": "node", "id": 369925585, "lat": 12.5854588, "lon": 124.0847727, "tags": {"admin_level": "6", "admin_type:PH": "municipality", "gns_classification": "ADM2", "is_in:province": "Sorsogon", "name": "Matnog", "place": "town", "population": "41101", "population:date": "2015-08-01", "source:population": "Philippine Statistics Authority", "wikidata": "Q174246", "wikimedia_commons": "Category:Matnog", "wikipedia": "en:Matnog"}}, {"type": "node", "id": 369925688, "lat": 12.6463261, "lon": 124.1079114, "tags": {"admin_level": "6", "designation": "municipality", "is_in:province": "Sorsogon", "name": "Santa Magdalena", "note": "Population data as of 2000", "place": "town", "population": "16848", "population:date": "2015-08-01", "ref": "056215000", "short_name": "Sta. Magdalena", "source:population": "Philippine Statistics Authority", "wikidata": "Q174281", "wikimedia_commons": "Category:Santa Magdalena", "wikipedia": "en:Santa Magdalena"}}, {"type": "node", "id": 369925697, "lat": 12.7250051, "lon": 123.9782462, "tags": {"admin_level": "10", "name": "Gabao", "place": "village", "place:PH": "barangay", "postal_code": "4707"}}, {"type": "node", "id": 369925706, "lat": 12.738552, "lon": 124.0871164, "tags": {"admin_level": "10", "admin_type:PH": "barangay", "is_in:town": "Bulusan", "name": "San Roque", "old_ref": "056204020", "place": "village", "population": "2830", "population:2015": "2378", "postal_code": "4704", "ref": "0506204020"}}, {"type": "node", "id": 398248725, "lat": 12.5399071, "lon": 124.0517002}, {"type": "node", "id": 398248727, "lat": 12.5397841, "lon": 124.0507668}, {"type": "node", "id": 398248730, "lat": 12.5394804, "lon": 124.0497637}, {"type": "node", "id": 398248733, "lat": 12.5386896, "lon": 124.0485245}, {"type": "node", "id": 398248735, "lat": 12.5382629, "lon": 124.0481275}, {"type": "node", "id": 398248820, "lat": 12.5458256, "lon": 124.0348935}, {"type": "node", "id": 398248823, "lat": 12.545205, "lon": 124.0346494}, {"type": "node", "id": 398248824, "lat": 12.5436276, "lon": 124.0336691}, {"type": "node", "id": 398248826, "lat": 12.5432912, "lon": 124.0333995}, {"type": "node", "id": 398249155, "lat": 12.6014652, "lon": 123.9467111}, {"type": "node", "id": 398249157, "lat": 12.6019576, "lon": 123.9460698}, {"type": "node", "id": 398249158, "lat": 12.602268, "lon": 123.9455355}, {"type": "node", "id": 911666184, "lat": 12.8340475, "lon": 124.1045311, "tags": {"name": "Olandia", "place": "village", "source": "NGA-GNS-07092010"}}, {"type": "node", "id": 911666195, "lat": 12.8571043, "lon": 124.020545, "tags": {"admin_level": "10", "admin_type:PH": "barangay", "alt_name": "Boho", "is_in:town": "Casiguran", "name": "San Antonio", "place": "village", "source": "NGA-GNS-07092010"}}, {"type": "node", "id": 911666216, "lat": 12.8257325, "lon": 124.0491354, "tags": {"name": "Escuala", "place": "village", "source": "NGA-GNS-07092010"}}, {"type": "node", "id": 911666219, "lat": 12.8066325, "lon": 124.1147769, "tags": {"name": "Santa Cruz", "place": "village", "source": "NGA-GNS-07092010"}}, {"type": "node", "id": 911666224, "lat": 12.8508312, "lon": 124.0715266, "tags": {"name": "Bentuco", "place": "village", "source": "NGA-GNS-07092010"}}, {"type": "node", "id": 911666228, "lat": 12.8153322, "lon": 124.0797841, "tags": {"name": "Santa Lourdes", "place": "village", "source": "NGA-GNS-07092010"}}, {"type": "node", "id": 911666238, "lat": 12.8352742, "lon": 124.0569777, "tags": {"name": "Casay", "place": "village", "source": "NGA-GNS-07092010"}}, {"type": "node", "id": 911666244, "lat": 12.8096387, "lon": 124.0641692, "tags": {"name": "Inlagadian", "place": "village", "source": "NGA-GNS-07092010"}}, {"type": "node", "id": 911666256, "lat": 12.8496089, "lon": 124.0338808, "tags": {"admin_level": "10", "admin_type:PH": "barangay", "is_in:town": "Casiguran", "name": "Gogon", "place": "village", "source": "NGA-GNS-07092010"}}, {"type": "node", "id": 911666272, "lat": 12.8440259, "lon": 124.0893836, "tags": {"name": "Bagacay", "place": "village", "source": "NGA-GNS-07092010"}}, {"type": "node", "id": 911666276, "lat": 12.8201238, "lon": 124.104362, "tags": {"name": "Paghaluban", "place": "village", "source": "NGA-GNS-07092010"}}, {"type": "node", "id": 911666278, "lat": 12.811181, "lon": 124.0184051, "tags": {"name": "Mabini", "place": "village", "source": "NGA-GNS-07092010"}}, {"type": "node", "id": 911666296, "lat": 12.8245316, "lon": 124.0054435, "tags": {"name": "Aroroy", "place": "village", "source": "NGA-GNS-07092010"}}, {"type": "node", "id": 911666302, "lat": 12.829985, "lon": 124.0383206, "tags": {"name": "San Juan", "place": "village", "source": "NGA-GNS-07092010"}}, {"type": "node", "id": 911666310, "lat": 12.8512052, "lon": 124.0909631, "tags": {"name": "Alegria", "place": "village", "source": "NGA-GNS-07092010"}}, {"type": "node", "id": 911666311, "lat": 12.8196728, "lon": 124.0889726, "tags": {"name": "Fabrica", "place": "village", "source": "NGA-GNS-07092010"}}, {"type": "node", "id": 911666317, "lat": 12.7973067, "lon": 124.0965337, "tags": {"name": "San Ramon", "place": "village", "source": "NGA-GNS-07092010"}}, {"type": "node", "id": 911666318, "lat": 12.7647648, "lon": 124.1086099, "tags": {"admin_level": "10", "is_in:town": "Bulusan", "name": "San Jose", "place": "village", "place:PH": "barangay", "postal_code": "4704", "source": "NGA-GNS-07092010"}}, {"type": "node", "id": 1375482218, "lat": 12.6617873, "lon": 123.8889618, "tags": {"name": "BLISS", "place": "neighbourhood"}}, {"type": "node", "id": 2528648995, "lat": 12.511437, "lon": 123.7216306, "tags": {"name": "Aburas", "nga:ufi": "-2406933", "place": "hamlet", "source": "Bing; USGS, 2013-10-11; NGA"}}, {"type": "node", "id": 2528648996, "lat": 12.5704076, "lon": 123.7192724, "tags": {"name": "Pinamibo", "nga:ufi": "-2407878", "place": "village", "source": "Bing; USGS, 2013-10-11; NGA"}}, {"type": "node", "id": 2528648997, "lat": 12.5558377, "lon": 123.6930848, "tags": {"nga:ufi": "-2409891", "place": "village", "source": "Bing; USGS, 2013-10-11; NGA"}}, {"type": "node", "id": 2528649000, "lat": 12.5844237, "lon": 123.7001133, "tags": {"name": "Bagahanglad", "nga:ufi": "-2410057", "place": "village", "source": "Bing; USGS, 2013-10-11; NGA"}}, {"type": "node", "id": 2528649002, "lat": 12.5551147, "lon": 123.6973419, "tags": {"name": "Balagon", "nga:ufi": "-2410707", "place": "village", "source": "Bing; USGS, 2013-10-11; NGA"}}, {"type": "node", "id": 2528649007, "lat": 12.549507, "lon": 123.7096895, "tags": {"name": "Burgos", "nga:ufi": "-2416914", "place": "hamlet", "source": "Bing; USGS, 2013-10-11; NGA"}}, {"type": "node", "id": 2528649010, "lat": 12.5415268, "lon": 123.7429591, "tags": {"name": "Calipat-an", "nga:ufi": "-2419118", "place": "village", "source": "Bing;USGS, 2013-10-11;NGA"}}, {"type": "node", "id": 2528649012, "lat": 12.5257127, "lon": 123.6656662, "tags": {"name": "Guintariban", "nga:ufi": "-2427166", "place": "hamlet", "source": "Bing; USGS, 2013-10-11; NGA"}}, {"type": "node", "id": 2528649013, "lat": 12.5307167, "lon": 123.7322033, "tags": {"name": "Interior", "nga:ufi": "-2428814", "place": "village", "source": "Bing; USGS, 2013-10-11; NGA"}}, {"type": "node", "id": 2528649016, "lat": 12.5612743, "lon": 123.6759164, "tags": {"name": "Labongan", "nga:ufi": "-2431206", "place": "village", "source": "Bing; USGS, 2013-10-11; NGA"}}, {"type": "node", "id": 2528649017, "lat": 12.5471056, "lon": 123.7418052, "tags": {"name": "Antonio Luna", "nga:ufi": "-2408795", "place": "village", "source": "Bing; USGS, 2013-10-11; NGA"}}, {"type": "node", "id": 2528649021, "lat": 12.5644201, "lon": 123.6918897, "tags": {"name": "Totuban", "nga:ufi": "10787597", "place": "village", "source": "Bing; USGS, 2013-10-11; NGA"}}, {"type": "node", "id": 2528649022, "lat": 12.5709761, "lon": 123.6725557, "tags": {"name": "Nagcaagao", "nga:ufi": "-2440841", "place": "village", "source": "Bing; USGS, 2013-10-11; NGA"}}, {"type": "node", "id": 2528649023, "lat": 12.5196273, "lon": 123.7401408, "tags": {"name": "Narangasan", "nga:ufi": "-2441472", "place": "village", "source": "Bing; USGS, 2013-10-11; NGA"}}, {"type": "node", "id": 2528649027, "lat": 12.5547855, "lon": 123.739984, "tags": {"name": "Pararatngan", "nga:ufi": "-2444883", "place": "village", "source": "Bing; USGS, 2013-10-11; NGA"}}, {"type": "node", "id": 2528649029, "lat": 12.5397085, "lon": 123.6649728, "tags": {"name": "Pi\u00f1a", "nga:ufi": "-2445887", "place": "village", "source": "Bing; USGS, 2013-10-11; NGA"}}, {"type": "node", "id": 2528649030, "lat": 12.5499537, "lon": 123.6867595, "tags": {"name": "Pongtod", "nga:ufi": "-2446619", "place": "hamlet", "source": "Bing; USGS, 2013-10-11; NGA"}}, {"type": "node", "id": 2528649031, "lat": 12.5627045, "lon": 123.7196653, "tags": {"name": "Puro", "nga:ufi": "-2447276", "place": "village", "source": "Bing; USGS, 2013-10-11; NGA"}}, {"type": "node", "id": 2528649032, "lat": 12.5570546, "lon": 123.7074613, "tags": {"name": "Roosevelt", "nga:ufi": "10787596", "place": "village", "source": "Bing; USGS, 2013-10-11; NGA"}}, {"type": "node", "id": 2528649033, "lat": 12.5677, "lon": 123.7337, "tags": {"admin_level": "6", "admin_type:PH": "municipality", "gns_classification": "ADM2", "is_in:province": "Masbate", "name": "San Jacinto", "nga:ufi": "-2450059", "place": "town", "population": "30372", "population:date": "2015-08-01", "source": "Bing;USGS, 2013-10-11;NGA", "source:population": "Philippine Statistics Authority", "wikidata": "Q191621", "wikimedia_commons": "Category:San Jacinto, Masbate", "wikipedia": "en:San Jacinto, Masbate"}}, {"type": "node", "id": 2528649034, "lat": 12.5707238, "lon": 123.7057213, "tags": {"name": "Tutuban", "nga:ufi": "-2458359", "place": "village", "source": "Bing;USGS, 2013-10-11;NGA"}}, {"type": "node", "id": 2528649035, "lat": 12.5297768, "lon": 123.7430984, "tags": {"name": "Washington", "nga:ufi": "-2460079", "place": "village", "source": "Bing; USGS, 2013-10-11; NGA"}}, {"type": "node", "id": 2529815924, "lat": 12.6261988, "lon": 123.6771086, "tags": {"name": "Bagaguimbal", "nga:ufi": "-2410055", "place": "hamlet", "source": "Bing; USGS, 2013-10-11; NGA"}}, {"type": "node", "id": 2529815925, "lat": 12.6415321, "lon": 123.6807687, "tags": {"name": "Bagasico", "nga:ufi": "-2410130", "place": "hamlet", "source": "Bing; USGS, 2013-10-11; NGA"}}, {"type": "node", "id": 2529815926, "lat": 12.6264229, "lon": 123.7049597, "tags": {"name": "Baladingan", "nga:ufi": "-2410675", "place": "village", "source": "Bing; USGS, 2013-10-11; NGA"}}, {"type": "node", "id": 2529815946, "lat": 12.5998932, "lon": 123.7213166, "tags": {"nga:ufi": "-2418110", "place": "village", "source": "Bing; USGS, 2013-10-11; NGA"}}, {"type": "node", "id": 2529815948, "lat": 12.6068832, "lon": 123.6761472, "tags": {"name": "Camitobitohan", "nga:ufi": "-2419715", "place": "village", "source": "Bing; USGS, 2013-10-11; NGA"}}, {"type": "node", "id": 2529815949, "lat": 12.601444, "lon": 123.678655, "tags": {"nga:ufi": "-2420419", "place": "village", "source": "Bing; USGS, 2013-10-11; NGA"}}, {"type": "node", "id": 2529815953, "lat": 12.6212776, "lon": 123.6674481, "tags": {"name": "Cuyap", "nga:ufi": "-2422997", "place": "village", "source": "Bing; USGS, 2013-10-11; NGA"}}, {"type": "node", "id": 2529815954, "lat": 12.5997756, "lon": 123.6913138, "tags": {"name": "Dabdob", "nga:ufi": "-2424869", "place": "village", "source": "Bing; USGS, 2013-10-11; NGA"}}, {"type": "node", "id": 2529815955, "lat": 12.6384347, "lon": 123.6855055, "tags": {"name": "Famosa", "nga:ufi": "-2425772", "place": "village", "source": "Bing; USGS, 2013-10-11; NGA"}}, {"type": "node", "id": 2529815966, "lat": 12.5011855, "lon": 123.7461089, "tags": {"name": "Minio", "nga:ufi": "-2440015", "place": "village", "source": "Bing;USGS, 2013-10-11;NGA"}}, {"type": "node", "id": 2529815967, "lat": 12.6441423, "lon": 123.6637788, "tags": {"admin_level": "6", "admin_type:PH": "municipality", "gns_classification": "ADM2", "is_in:province": "Masbate", "name": "Monreal", "nga:ufi": "-2440269", "place": "town", "population": "26614", "population:date": "2015-08-01", "source": "Bing;USGS, 2013-10-11;NGA", "source:population": "Philippine Statistics Authority", "wikidata": "Q191544", "wikimedia_commons": "Category:Monreal, Masbate", "wikipedia": "en:Monreal, Masbate"}}, {"type": "node", "id": 2529815992, "lat": 12.6106787, "lon": 123.7124314, "tags": {"name": "Rizal", "nga:ufi": "-2448018", "place": "village", "source": "Bing; USGS, 2013-10-11; NGA"}}, {"type": "node", "id": 2529816001, "lat": 12.6128964, "lon": 123.6820141, "tags": {"name": "San Roque", "nga:ufi": "-2451126", "place": "neighbourhood", "source": "Bing; USGS, 2013-10-11; NGA"}}, {"type": "node", "id": 2529816010, "lat": 12.5981937, "lon": 123.7142751, "tags": {"name": "Cacao", "nga:ufi": "-2455259", "place": "village", "source": "Bing; USGS, 2013-10-11; NGA"}}, {"type": "node", "id": 2529816014, "lat": 12.6138232, "lon": 123.70147, "tags": {"name": "Tagdogan", "place": "village", "source": "Bing; USGS, 2013-10-11; NGA"}}, {"type": "node", "id": 2529816020, "lat": 12.6059604, "lon": 123.7270229, "tags": {"name": "Tahiran", "nga:ufi": "-2455477", "place": "village", "source": "Bing; USGS, 2013-10-11; NGA"}}, {"type": "node", "id": 2530095677, "lat": 12.7206544, "lon": 123.9057718, "tags": {"admin_level": "10", "designation": "barangay", "is_in:town": "Bulan", "name": "San Francisco", "place": "village", "source:name": "extrapolated from OSMaPaaralan, way/781191526"}}, {"type": "node", "id": 2531188073, "lat": 12.624451, "lon": 123.6609532, "tags": {"place": "village", "source": "bing"}}, {"type": "node", "id": 2532445649, "lat": 12.4190466, "lon": 123.7242222, "tags": {"name": "Patong", "place": "hamlet"}}, {"type": "node", "id": 2532445683, "lat": 12.446922, "lon": 123.7398854, "tags": {"name": "Ubo", "place": "village", "source": "US Army Topo Map"}}, {"type": "node", "id": 2532445690, "lat": 12.4487041, "lon": 123.7072061, "tags": {"name": "Bugang", "place": "village", "source": "US Army Topo Map"}}, {"type": "node", "id": 2532445704, "lat": 12.4565062, "lon": 123.691793, "tags": {"name": "Altavista", "place": "village", "source": "US Army Topo Map"}}, {"type": "node", "id": 2532445718, "lat": 12.4644698, "lon": 123.689105, "tags": {"place": "village", "source": "US Army Topo Map"}}, {"type": "node", "id": 2532445725, "lat": 12.4698803, "lon": 123.6991919, "tags": {"name": "Tomalestis", "place": "neighbourhood", "source": "US Army Topo Map"}}, {"type": "node", "id": 2532445741, "lat": 12.4850339, "lon": 123.6985551, "tags": {"name": "Ipil", "place": "village", "source": "US Army Topo Map"}}, {"type": "node", "id": 2532445837, "lat": 12.6078828, "lon": 123.6675186, "tags": {"fixme": "name", "place": "neighbourhood", "source": "US Army Topo Map"}}, {"type": "node", "id": 2541615094, "lat": 12.4830672, "lon": 123.7633301, "tags": {"admin_level": "6", "gns_classification": "ADM2", "is_in:province": "Masbate", "name": "San Fernando", "place": "town", "place:PH": "municipality", "population": "23057", "population:date": "2015-08-01", "source:population": "Philippine Statistics Authority", "wikidata": "Q191606", "wikimedia_commons": "Category:San Fernando, Masbate", "wikipedia": "en:San Fernando, Masbate"}}, {"type": "node", "id": 2541681117, "lat": 12.4442041, "lon": 123.7112195, "tags": {"name": "Badiang", "place": "village"}}, {"type": "node", "id": 2541681119, "lat": 12.5160982, "lon": 123.6663319, "tags": {"name": "Bagacay", "place": "village"}}, {"type": "node", "id": 2541681133, "lat": 12.4968446, "lon": 123.6898522, "tags": {"name": "Ipil", "place": "village"}}, {"type": "node", "id": 2541681142, "lat": 12.5152535, "lon": 123.6858975, "tags": {"place": "hamlet"}}, {"type": "node", "id": 2541681377, "lat": 12.6358787, "lon": 123.65688, "tags": {"name": "Liac", "place": "village"}}, {"type": "node", "id": 2541683405, "lat": 12.536766, "lon": 124.0937826, "tags": {"name": "Calintaan", "place": "village"}}, {"type": "node", "id": 2541683414, "lat": 12.5414935, "lon": 124.0357238, "tags": {"alt_name": "Ginablan", "is_in:province": "Sorsogon", "is_in:town": "Matnog", "name": "Genablan Oriental", "place": "village"}}, {"type": "node", "id": 2541683422, "lat": 12.5413913, "lon": 124.0232629, "tags": {"is_in:province": "Sorsogon", "is_in:town": "Matnog", "name": "Mambajog", "place": "village"}}, {"type": "node", "id": 2541683456, "lat": 12.5409875, "lon": 124.0756148, "tags": {"fixme": "location", "name": "San Jose", "place": "neighbourhood"}}, {"type": "node", "id": 2542368723, "lat": 12.5651665, "lon": 123.7069699, "tags": {"name": "Alisoso", "place": "village"}}, {"type": "node", "id": 2542368729, "lat": 12.5923659, "lon": 123.6594036, "tags": {"name": "Canongo", "place": "village"}}, {"type": "node", "id": 2542368735, "lat": 12.586771, "lon": 123.6694514, "tags": {"name": "Madarag", "place": "village"}}, {"type": "node", "id": 2542368737, "lat": 12.5662638, "lon": 123.7235262, "tags": {"place": "village"}}, {"type": "node", "id": 2542368854, "lat": 12.6043164, "lon": 123.6649199, "tags": {"fixme": "name", "place": "neighbourhood", "source": "US Army Topo Map"}}, {"type": "node", "id": 2542369249, "lat": 12.6116217, "lon": 123.7066989, "tags": {"name": "Rizal", "place": "village"}}, {"type": "node", "id": 2544283241, "lat": 12.496462, "lon": 123.7172557, "tags": {"name": "Buenos Aires", "place": "village"}}, {"type": "node", "id": 2544283242, "lat": 12.5175381, "lon": 123.7490759, "tags": {"name": "Daplian", "place": "village"}}, {"type": "node", "id": 2544283243, "lat": 12.4324954, "lon": 123.738765, "tags": {"name": "Rizal", "place": "village"}}, {"type": "node", "id": 2544283244, "lat": 12.4313246, "lon": 123.7169052, "tags": {"admin_level": "10", "admin_type:PH": "barangay", "name": "Costa Rica", "place": "village", "population": "852", "population:2015": "1067", "ref": "054104004", "source:population": "Philippine Statistics Authority"}}, {"type": "node", "id": 2544283246, "lat": 12.538336, "lon": 123.712952, "tags": {"name": "Manislag", "place": "village"}}, {"type": "node", "id": 2544283247, "lat": 12.5121794, "lon": 123.7430707, "tags": {"name": "Dorong-an Daplian", "place": "village"}}, {"type": "node", "id": 2544283248, "lat": 12.5514992, "lon": 123.7412351, "tags": {"name": "Pararatngan", "place": "village"}}, {"type": "node", "id": 2544283249, "lat": 12.4659123, "lon": 123.7315261, "tags": {"name": "Progreso", "place": "village"}}, {"type": "node", "id": 2544283251, "lat": 12.4246303, "lon": 123.7437297, "tags": {"place": "village"}}, {"type": "node", "id": 2544283252, "lat": 12.4805713, "lon": 123.6874968}, {"type": "node", "id": 2544283253, "lat": 12.4805907, "lon": 123.6871504}, {"type": "node", "id": 2544283254, "lat": 12.4817053, "lon": 123.68685}, {"type": "node", "id": 2544283255, "lat": 12.4823016, "lon": 123.686987}, {"type": "node", "id": 2544283256, "lat": 12.4828449, "lon": 123.6861548}, {"type": "node", "id": 2544283257, "lat": 12.4835756, "lon": 123.6857093}, {"type": "node", "id": 2544283263, "lat": 12.4842215, "lon": 123.6855305}, {"type": "node", "id": 2544283271, "lat": 12.4845, "lon": 123.6846897}, {"type": "node", "id": 2544283294, "lat": 12.4853651, "lon": 123.6833424}, {"type": "node", "id": 2544283298, "lat": 12.4855488, "lon": 123.6835641}, {"type": "node", "id": 2544283366, "lat": 12.4897162, "lon": 123.7190317, "tags": {"place": "village"}}, {"type": "node", "id": 2544283369, "lat": 12.4927734, "lon": 123.6701603, "tags": {"place": "village"}}, {"type": "node", "id": 2544283370, "lat": 12.4965783, "lon": 123.7034838, "tags": {"place": "village"}}, {"type": "node", "id": 2544283372, "lat": 12.4901009, "lon": 123.728454, "tags": {"name": "Sinibaran", "place": "village"}}, {"type": "node", "id": 2544283373, "lat": 12.483352, "lon": 123.6860161, "tags": {"name": "Talisay", "place": "village"}}, {"type": "node", "id": 2544974305, "lat": 12.851558, "lon": 123.7291666, "tags": {"admin_level": "11", "admin_type:PH": "sitio", "is_in:town": "Pilar", "is_in:village": "Bantayan", "name": "Bantigui", "place": "neighbourhood"}}, {"type": "node", "id": 2791951339, "lat": 12.7388388, "lon": 124.0013409, "tags": {"admin_level": "10", "name": "Gulang-gulang", "place": "village", "place:PH": "barangay", "postal_code": "4707"}}, {"type": "node", "id": 3232426275, "lat": 12.8447712, "lon": 123.9858056, "tags": {"admin_level": "10", "admin_type:PH": "barangay", "name": "Binanuahan", "place": "village", "population": "1433", "population:2015": "1264", "ref": "056210004", "source:population": "Philippine Statistics Authority"}}, {"type": "node", "id": 3432081059, "lat": 12.6829658, "lon": 124.002121, "tags": {"name": "GH Salvacion Village", "place": "neighbourhood", "place:PH": "subdivision", "source": "Schadow1 Expeditions"}}, {"type": "node", "id": 3499277678, "lat": 12.6011814, "lon": 123.9469646}, {"type": "node", "id": 3499277679, "lat": 12.6019836, "lon": 123.9478605}, {"type": "node", "id": 3499277681, "lat": 12.6030712, "lon": 123.9476402}, {"type": "node", "id": 3499277682, "lat": 12.6031246, "lon": 123.9450168}, {"type": "node", "id": 3499277683, "lat": 12.6035053, "lon": 123.9470148}, {"type": "node", "id": 3571927893, "lat": 12.6427056, "lon": 123.909326, "tags": {"admin_level": "10", "admin_type:PH": "barangay", "is_in:town": "Bulan", "name": "Otavi", "place": "village"}}, {"type": "node", "id": 3571927894, "lat": 12.6482692, "lon": 123.8898019, "tags": {"admin_level": "10", "alt_name": "Togbongon", "is_in:town": "Bulan", "name": "San Rafael", "official_name": "San Rafael (Togbongon)", "place": "village", "place:PH": "barangay"}}, {"type": "node", "id": 3575510458, "lat": 12.8478899, "lon": 123.9890815, "tags": {"admin_level": "6", "admin_type:PH": "municipality", "gns_classification": "ADM2", "is_in:province": "Sorsogon", "name": "Juban", "place": "town", "population": "32320", "population:date": "2015-08-01", "ref": "056210000", "source:population": "Philippine Statistics Authority", "wikidata": "Q174226", "wikimedia_commons": "Category:Juban, Sorsogon", "wikipedia": "en:Juban, Sorsogon"}}, {"type": "node", "id": 4124853561, "lat": 12.7214326, "lon": 124.0369107, "tags": {"admin_level": "10", "is_in:town": "Irosin", "name": "Bagsangan", "place": "village", "place:PH": "barangay", "postal_code": "4707"}}, {"type": "node", "id": 4124853562, "lat": 12.7000267, "lon": 124.0001467, "tags": {"admin_level": "10", "name": "Batang", "place": "village", "place:PH": "barangay", "postal_code": "4707"}}, {"type": "node", "id": 4124853563, "lat": 12.7510773, "lon": 123.9853429, "tags": {"admin_level": "10", "is_in:town": "Irosin", "name": "Bolos", "place": "village", "place:PH": "barangay", "postal_code": "4707"}}, {"type": "node", "id": 4124853564, "lat": 12.6955298, "lon": 124.0174802, "tags": {"admin_level": "10", "name": "Buenavista", "place": "village", "place:PH": "barangay", "postal_code": "4707"}}, {"type": "node", "id": 4124853565, "lat": 12.6944104, "lon": 124.0351531, "tags": {"admin_level": "10", "is_in:town": "Irosin", "name": "Carriedo", "place": "village", "place:PH": "barangay", "postal_code": "4707"}}, {"type": "node", "id": 4124853566, "lat": 12.7503974, "lon": 124.0135039, "tags": {"admin_level": "10", "name": "Cogon", "place": "village", "place:PH": "barangay", "postal_code": "4707"}}, {"type": "node", "id": 4124853568, "lat": 12.7165273, "lon": 124.0582721, "tags": {"admin_level": "10", "name": "Patag", "place": "village", "place:PH": "barangay", "postal_code": "4707"}}, {"type": "node", "id": 4124853570, "lat": 12.7425753, "lon": 124.1087036, "tags": {"admin_level": "10", "admin_type:PH": "barangay", "is_in:town": "Bulusan", "name": "San Rafael", "old_ref": "056204019", "place": "village", "place:PH": "barangay", "population": "1175", "population:2015": "1129", "postal_code": "4704", "ref": "0506204019", "source": "NGA-GNS-07092010"}}, {"type": "node", "id": 4124853571, "lat": 12.7067158, "lon": 124.0498318, "tags": {"admin_level": "10", "is_in:town": "Irosin", "name": "Santo Domingo", "place": "village", "place:PH": "barangay", "postal_code": "4707"}}, {"type": "node", "id": 4124853572, "lat": 12.7035462, "lon": 124.0460903, "tags": {"admin_level": "10", "name": "Tabon-Tabon", "place": "village", "place:PH": "barangay", "postal_code": "4707"}}, {"type": "node", "id": 4830100524, "lat": 12.5309467, "lon": 124.0914804, "tags": {"name": "Calayuan", "place": "hamlet"}}, {"type": "node", "id": 5005306791, "lat": 12.5380089, "lon": 124.0479103}, {"type": "node", "id": 5005306792, "lat": 12.5390929, "lon": 124.0490046}, {"type": "node", "id": 5005306793, "lat": 12.5396558, "lon": 124.0502652}, {"type": "node", "id": 5005315753, "lat": 12.6024936, "lon": 123.9450633}, {"type": "node", "id": 6154804513, "lat": 12.846479, "lon": 123.7334778, "tags": {"admin_level": "10", "admin_type:PH": "barangay", "is_in:province": "Sorsogon", "is_in:town": "Pilar", "name": "Bantayan", "place": "village", "population": "1901", "population:2015": "1836", "ref": "056213003", "source:population": "Philippine Statistics Authority"}}, {"type": "node", "id": 6839226354, "lat": 12.805621, "lon": 123.9855301, "tags": {"admin_level": "10", "admin_type:PH": "barangay", "is_in:town": "Juban", "name": "Calateo", "place": "village"}}, {"type": "node", "id": 6839226355, "lat": 12.7936182, "lon": 123.961059, "tags": {"fixme": "name", "place": "hamlet"}}, {"type": "node", "id": 6839230094, "lat": 12.8312698, "lon": 123.8772011, "tags": {"admin_level": "10", "admin_type:PH": "barangay", "is_in:town": "Magallanes", "name": "Bacalon", "place": "village"}}, {"type": "node", "id": 6840075067, "lat": 12.5428984, "lon": 124.0329127}, {"type": "node", "id": 6840075068, "lat": 12.544201, "lon": 124.0336597}, {"type": "node", "id": 6840075069, "lat": 12.5446539, "lon": 124.0338421}, {"type": "node", "id": 6840075070, "lat": 12.5452718, "lon": 124.0339789}, {"type": "node", "id": 6840075071, "lat": 12.545929, "lon": 124.0339762}, {"type": "node", "id": 6840075072, "lat": 12.546196, "lon": 124.0340862}, {"type": "node", "id": 6840075073, "lat": 12.5466647, "lon": 124.0342605}, {"type": "node", "id": 6840075074, "lat": 12.546649, "lon": 124.0343732}, {"type": "node", "id": 6840075075, "lat": 12.5462458, "lon": 124.0344429}, {"type": "node", "id": 6840075076, "lat": 12.5461018, "lon": 124.0347178}, {"type": "node", "id": 6840075077, "lat": 12.5460311, "lon": 124.0349713}, {"type": "node", "id": 6840075078, "lat": 12.5428002, "lon": 124.0331005}, {"type": "node", "id": 6840195711, "lat": 12.5384147, "lon": 124.0475321}, {"type": "node", "id": 6840195713, "lat": 12.5393547, "lon": 124.0480202}, {"type": "node", "id": 6840195714, "lat": 12.5397081, "lon": 124.0482911}, {"type": "node", "id": 6840195715, "lat": 12.5401401, "lon": 124.0484789}, {"type": "node", "id": 6840195716, "lat": 12.5404543, "lon": 124.0486854}, {"type": "node", "id": 6840195717, "lat": 12.5414047, "lon": 124.0485299}, {"type": "node", "id": 6840195718, "lat": 12.5419277, "lon": 124.0487954}, {"type": "node", "id": 6840195719, "lat": 12.5412993, "lon": 124.0493506}, {"type": "node", "id": 6840195720, "lat": 12.5413124, "lon": 124.0498495}, {"type": "node", "id": 6840195721, "lat": 12.5409459, "lon": 124.0506113}, {"type": "node", "id": 6840195722, "lat": 12.540815, "lon": 124.0512496}, {"type": "node", "id": 6840195723, "lat": 12.5404641, "lon": 124.0515098}, {"type": "node", "id": 6840195724, "lat": 12.5401552, "lon": 124.051896}, {"type": "node", "id": 6862494417, "lat": 12.5450597, "lon": 124.0345784}, {"type": "node", "id": 6862494437, "lat": 12.5453176, "lon": 124.0346964}, {"type": "node", "id": 6862548229, "lat": 12.5441984, "lon": 124.034054}, {"type": "node", "id": 6862548230, "lat": 12.5442992, "lon": 124.0341224}, {"type": "node", "id": 6862548231, "lat": 12.5441198, "lon": 124.0339963}, {"type": "node", "id": 6862548234, "lat": 12.5440242, "lon": 124.0339212}, {"type": "node", "id": 6862548265, "lat": 12.5431681, "lon": 124.033307}, {"type": "node", "id": 6862548270, "lat": 12.5431249, "lon": 124.0332761}, {"type": "node", "id": 6862965186, "lat": 12.601378, "lon": 123.9472305}, {"type": "node", "id": 6862965187, "lat": 12.6013323, "lon": 123.9471892}, {"type": "node", "id": 6862965194, "lat": 12.6014141, "lon": 123.9472682}, {"type": "node", "id": 6862965195, "lat": 12.6014562, "lon": 123.9473027}, {"type": "node", "id": 6863542703, "lat": 12.6551632, "lon": 123.9748168}, {"type": "node", "id": 6863594396, "lat": 12.6642651, "lon": 123.9570264}, {"type": "node", "id": 6863594397, "lat": 12.6640184, "lon": 123.9569}, {"type": "node", "id": 6863594398, "lat": 12.66369, "lon": 123.9569272}, {"type": "node", "id": 6863594399, "lat": 12.6633333, "lon": 123.9569933}, {"type": "node", "id": 6863594400, "lat": 12.6628683, "lon": 123.9567405}, {"type": "node", "id": 6863594401, "lat": 12.6625456, "lon": 123.9569972}, {"type": "node", "id": 6863594402, "lat": 12.6625323, "lon": 123.9583025}, {"type": "node", "id": 6863594403, "lat": 12.662891, "lon": 123.9582052}, {"type": "node", "id": 6863594404, "lat": 12.6633522, "lon": 123.9580029}, {"type": "node", "id": 6863594405, "lat": 12.6640791, "lon": 123.9574505}, {"type": "node", "id": 7041794376, "lat": 12.5803451, "lon": 124.0751079, "tags": {"alt_name": "Sinibaran", "is_in:province": "Sorsogon", "is_in:town": "Matnog", "name": "Sinebaran", "place": "village"}}, {"type": "node", "id": 7041794377, "lat": 12.5996036, "lon": 124.0653875, "tags": {"is_in:province": "Sorsogon", "is_in:town": "Matnog", "name": "Balocawe", "place": "village"}}, {"type": "node", "id": 7041794378, "lat": 12.5711145, "lon": 124.0595537, "tags": {"is_in:province": "Sorsogon", "is_in:town": "Matnog", "name": "Cabagahan", "place": "village"}}, {"type": "node", "id": 7041794379, "lat": 12.5624595, "lon": 124.0760493, "tags": {"is_in:province": "Sorsogon", "is_in:town": "Matnog", "name": "Sinalmacan", "place": "village"}}, {"type": "node", "id": 7041794380, "lat": 12.5414885, "lon": 124.0479827, "tags": {"is_in:province": "Sorsogon", "is_in:town": "Matnog", "name": "Bon-Ot Big", "place": "village", "short_name": "Bon-Ot"}}, {"type": "node", "id": 7041794381, "lat": 12.5398823, "lon": 124.0545271, "tags": {"is_in:province": "Sorsogon", "is_in:town": "Matnog", "name": "Bon-Ot Small", "place": "village", "short_name": "Bon-Ot"}}, {"type": "node", "id": 7041794382, "lat": 12.5479554, "lon": 124.0825295, "tags": {"admin_level": "10", "admin_type:PH": "barangay", "is_in:province": "Sorsogon", "is_in:town": "Matnog", "name": "Poropandan", "place": "village", "population": "910", "population:2015": "891", "ref": "056212034", "source:population": "Philippine Statistics Authority"}}, {"type": "node", "id": 7041794383, "lat": 12.5410516, "lon": 124.0754542, "tags": {"admin_level": "10", "admin_type:PH": "barangay", "alt_name": "Ginablan", "is_in:province": "Sorsogon", "is_in:town": "Matnog", "name": "Culasi", "place": "village", "population": "2159", "population:2015": "2130", "ref": "056212017", "source:population": "Philippine Statistics Authority"}}, {"type": "node", "id": 7041861099, "lat": 12.6027212, "lon": 124.105382, "tags": {"is_in:province": "Sorsogon", "is_in:town": "Matnog", "name": "Santa Isabel", "place": "village"}}, {"type": "node", "id": 7041861100, "lat": 12.590125, "lon": 124.0953934, "tags": {"is_in:province": "Sorsogon", "is_in:town": "Matnog", "name": "Banuangdaan", "place": "village"}}, {"type": "node", "id": 7041861101, "lat": 12.5889523, "lon": 124.0898627, "tags": {"is_in:province": "Sorsogon", "is_in:town": "Matnog", "name": "Tablac", "place": "village"}}, {"type": "node", "id": 7041861102, "lat": 12.5922045, "lon": 124.0807359, "tags": {"admin_level": "10", "admin_type:PH": "barangay", "is_in:province": "Sorsogon", "is_in:town": "Matnog", "name": "Gadgaron", "place": "village"}}, {"type": "node", "id": 7041861103, "lat": 12.5862089, "lon": 124.086526, "tags": {"is_in:province": "Sorsogon", "is_in:town": "Matnog", "name": "Camcaman", "place": "village"}}, {"type": "node", "id": 7041861104, "lat": 12.5838136, "lon": 124.0848899, "tags": {"admin_level": "10", "admin_type:PH": "barangay", "is_in:province": "Sorsogon", "is_in:town": "Matnog", "name": "Caloocan", "place": "village"}}, {"type": "node", "id": 7041861105, "lat": 12.5803346, "lon": 124.0843481, "tags": {"is_in:province": "Sorsogon", "is_in:town": "Matnog", "name": "Tabunan", "place": "village"}}, {"type": "node", "id": 7041861106, "lat": 12.5629478, "lon": 124.0946974, "tags": {"is_in:province": "Sorsogon", "is_in:town": "Matnog", "name": "Paghuliran", "place": "village"}}, {"type": "node", "id": 7041867291, "lat": 12.6270243, "lon": 124.060699, "tags": {"is_in:province": "Sorsogon", "is_in:town": "Matnog", "name": "Banogao", "place": "village"}}, {"type": "node", "id": 7041867292, "lat": 12.6076369, "lon": 124.0829694, "tags": {"is_in:province": "Sorsogon", "is_in:town": "Matnog", "name": "Naburacan", "place": "village"}}, {"type": "node", "id": 7041867293, "lat": 12.6173295, "lon": 124.0756631, "tags": {"is_in:province": "Sorsogon", "is_in:town": "Matnog", "name": "Lajong", "place": "village"}}, {"type": "node", "id": 7041867294, "lat": 12.6137279, "lon": 124.0685928, "tags": {"is_in:province": "Sorsogon", "is_in:town": "Matnog", "name": "Bariis", "place": "village"}}, {"type": "node", "id": 7041867295, "lat": 12.6000905, "lon": 124.0765133, "tags": {"is_in:province": "Sorsogon", "is_in:town": "Matnog", "name": "Manjunlad", "place": "village"}}, {"type": "node", "id": 7041873218, "lat": 12.6607255, "lon": 123.9962563, "tags": {"is_in:province": "Sorsogon", "is_in:town": "Matnog", "name": "Laboy", "place": "village"}}, {"type": "node", "id": 7041873219, "lat": 12.653123, "lon": 124.004783, "tags": {"is_in:province": "Sorsogon", "is_in:town": "Matnog", "name": "Sisigon", "place": "village"}}, {"type": "node", "id": 7041873220, "lat": 12.6390088, "lon": 124.0197712, "tags": {"alt_name": "Pange", "is_in:province": "Sorsogon", "is_in:town": "Matnog", "name": "Pangi", "place": "village"}}, {"type": "node", "id": 7041873221, "lat": 12.6315156, "lon": 124.0354863, "tags": {"is_in:province": "Sorsogon", "is_in:town": "Matnog", "name": "Hidhid", "place": "village"}}, {"type": "node", "id": 7041873222, "lat": 12.6216142, "lon": 124.0450376, "tags": {"is_in:province": "Sorsogon", "is_in:town": "Matnog", "name": "Bolo", "place": "village"}}, {"type": "node", "id": 7041873223, "lat": 12.6112072, "lon": 124.0550771, "tags": {"is_in:province": "Sorsogon", "is_in:town": "Matnog", "name": "Pawa", "place": "village"}}, {"type": "node", "id": 7041873224, "lat": 12.6050665, "lon": 124.0635207, "tags": {"is_in:province": "Sorsogon", "is_in:town": "Matnog", "name": "Sulangan", "place": "village"}}, {"type": "node", "id": 7041873225, "lat": 12.6294688, "lon": 123.9549905, "tags": {"is_in:province": "Sorsogon", "is_in:town": "Bulan", "name": "Bonga", "place": "village"}}, {"type": "node", "id": 7041873227, "lat": 12.6025798, "lon": 123.9469573, "tags": {"is_in:province": "Sorsogon", "is_in:town": "Bulan", "name": "Marinab", "place": "village"}}, {"type": "node", "id": 7041873228, "lat": 12.5889313, "lon": 123.9520213, "tags": {"admin_level": "10", "admin_type:PH": "barangay", "is_in:municipality": "Bulan", "name": "Aguinaldo", "old_name": "Lipata Dako", "place": "village"}}, {"type": "node", "id": 7041873229, "lat": 12.5840309, "lon": 123.9567125, "tags": {"is_in:province": "Sorsogon", "is_in:town": "Bulan", "name": "Osme\u00f1a", "place": "village"}}, {"type": "node", "id": 7041873230, "lat": 12.5764157, "lon": 123.9622512, "tags": {"admin_level": "10", "admin_type:PH": "barangay", "is_in:municipality": "Bulan", "name": "Quezon", "old_name": "Cabarawan", "place": "village"}}, {"type": "node", "id": 7041873231, "lat": 12.5595509, "lon": 123.9743239, "tags": {"is_in:province": "Sorsogon", "is_in:town": "Bulan", "name": "Sagrada", "place": "village"}}, {"type": "node", "id": 7041873232, "lat": 12.555061, "lon": 123.9825194, "tags": {"is_in:province": "Sorsogon", "is_in:town": "Matnog", "name": "Coron-coron", "place": "village"}}, {"type": "node", "id": 7041873233, "lat": 12.5474685, "lon": 123.9976215, "tags": {"is_in:province": "Sorsogon", "is_in:town": "Matnog", "name": "Sua", "place": "village"}}, {"type": "node", "id": 7041873234, "lat": 12.5422059, "lon": 124.0126124, "tags": {"is_in:province": "Sorsogon", "is_in:town": "Matnog", "name": "Manurabi", "place": "village"}}, {"type": "node", "id": 7041873235, "lat": 12.5376083, "lon": 124.0274544, "tags": {"is_in:province": "Sorsogon", "is_in:town": "Matnog", "name": "Sinangatan", "place": "village"}}, {"type": "node", "id": 7041873236, "lat": 12.5456986, "lon": 124.0340567, "tags": {"alt_name": "Ginablan", "is_in:province": "Sorsogon", "is_in:town": "Matnog", "name": "Genablan Occidental", "place": "village"}}, {"type": "node", "id": 7041882476, "lat": 12.5810006, "lon": 124.0016351, "tags": {"is_in:province": "Sorsogon", "is_in:town": "Matnog", "name": "Calpi", "place": "village"}}, {"type": "node", "id": 7041882477, "lat": 12.6081055, "lon": 124.0333566, "tags": {"is_in:province": "Sorsogon", "is_in:town": "Matnog", "name": "Tugas", "place": "village"}}, {"type": "node", "id": 7041921336, "lat": 12.6792924, "lon": 123.8999408, "tags": {"is_in:province": "Sorsogon", "is_in:town": "Bulan", "name": "Lajong", "place": "village"}}, {"type": "node", "id": 7041921337, "lat": 12.6650802, "lon": 123.9011907, "tags": {"is_in:town": "Bulan", "name": "Fabrica", "place": "village"}}, {"type": "node", "id": 7041921338, "lat": 12.6642898, "lon": 123.925615, "tags": {"admin_level": "10", "designation": "barangay", "is_in:province": "Sorsogon", "is_in:town": "Bulan", "name": "G. Del Pilar", "old_name": "Tanga", "place": "village"}}, {"type": "node", "id": 7041921339, "lat": 12.6620287, "lon": 123.9333236, "tags": {"admin_level": "10", "admin_type:PH": "barangay", "alt_name": "Rizal", "is_in:town": "Bulan", "name": "N. Roque", "place": "village"}}, {"type": "node", "id": 7041921340, "lat": 12.6703414, "lon": 123.934245, "tags": {"is_in:province": "Sorsogon", "is_in:town": "Bulan", "name": "Magsaysay", "place": "village"}}, {"type": "node", "id": 7041921341, "lat": 12.6583545, "lon": 123.9417028, "tags": {"admin_level": "10", "admin_type:PH": "barangay", "is_in:town": "Bulan", "name": "San Ramon", "place": "village"}}, {"type": "node", "id": 7041921342, "lat": 12.6591265, "lon": 123.9559615, "tags": {"admin_level": "10", "admin_type:PH": "barangay", "is_in:town": "Bulan", "name": "San Isidro", "place": "village"}}, {"type": "node", "id": 7041921343, "lat": 12.665156, "lon": 123.9784464, "tags": {"is_in:province": "Sorsogon", "is_in:town": "Bulan", "name": "Gate", "place": "village"}}, {"type": "node", "id": 7041921344, "lat": 12.6670612, "lon": 123.9874184, "tags": {"is_in:province": "Sorsogon", "is_in:town": "Bulan", "name": "Santa Teresita", "place": "village"}}, {"type": "node", "id": 7042061138, "lat": 12.7062414, "lon": 123.9942017, "tags": {"admin_level": "10", "designation": "barangay", "is_in:province": "Sorsogon", "is_in:town": "Irosin", "name": "Gumapia", "place": "village"}}, {"type": "node", "id": 7042061140, "lat": 12.6941946, "lon": 124.0047629, "tags": {"is_in:province": "Sorsogon", "is_in:town": "Irosin", "name": "San Isidro", "place": "village"}}, {"type": "node", "id": 7042061141, "lat": 12.683366, "lon": 124.0060873, "tags": {"is_in:province": "Sorsogon", "is_in:town": "Irosin", "name": "Salvacion", "place": "village"}}, {"type": "node", "id": 7042061142, "lat": 12.6766127, "lon": 123.9950439, "tags": {"is_in:province": "Sorsogon", "is_in:town": "Irosin", "name": "Casini", "place": "village"}}, {"type": "node", "id": 7042061143, "lat": 12.6653575, "lon": 123.9889419, "tags": {"fixme": "location", "is_in:province": "Sorsogon", "is_in:town": "Bulan", "name": "Sisigon", "place": "neighbourhood"}}, {"type": "node", "id": 7044021204, "lat": 12.6939532, "lon": 124.0857455, "tags": {"is_in:province": "Sorsogon", "is_in:town": "Irosin", "name": "Cawayan", "place": "village"}}, {"type": "node", "id": 7044021205, "lat": 12.6524975, "lon": 124.0300722, "tags": {"is_in:province": "Sorsogon", "is_in:town": "Irosin", "name": "Liang", "place": "village"}}, {"type": "node", "id": 7044078143, "lat": 12.7050535, "lon": 124.016405, "tags": {"admin_level": "10", "designation": "barangay", "is_in:town": "Irosin", "name": "Macawayan", "place": "village", "postal_code": "4707"}}, {"type": "node", "id": 7044078144, "lat": 12.7022747, "lon": 124.0401775, "tags": {"admin_level": "10", "is_in:province": "Sorsogon", "is_in:town": "Irosin", "name": "San Agustin", "place": "village", "place:PH": "barangay"}}, {"type": "node", "id": 7044078147, "lat": 12.7059012, "lon": 124.0284991, "tags": {"admin_level": "10", "name": "San Pedro", "place": "village", "place:PH": "barangay", "postal_code": "4707"}}, {"type": "node", "id": 7044078149, "lat": 12.7380458, "lon": 124.0122181, "tags": {"admin_level": "10", "is_in:town": "Irosin", "name": "Tinampa", "place": "village", "place:PH": "barangay", "postal_code": "4707"}}, {"type": "node", "id": 7089950680, "lat": 12.6032787, "lon": 123.9464369}, {"type": "node", "id": 7089950681, "lat": 12.603263, "lon": 123.9458817}, {"type": "node", "id": 7112650645, "lat": 12.5390389, "lon": 124.0476976}, {"type": "node", "id": 7357652624, "lat": 12.5686275, "lon": 123.7289393, "tags": {"name": "District \u2161", "place": "neighbourhood"}}, {"type": "node", "id": 7441203577, "lat": 12.5732807, "lon": 123.6860086, "tags": {"name": "Mabini", "place": "village"}}, {"type": "node", "id": 7576672246, "lat": 12.8426223, "lon": 124.082889, "tags": {"is_in:town": "Gubat", "name": "Tigkiw", "place": "village"}}, {"type": "node", "id": 7647047470, "lat": 12.7421398, "lon": 123.8740945, "tags": {"name": "C.M. Recto", "place": "village"}}, {"type": "node", "id": 7647047471, "lat": 12.7518773, "lon": 123.8969354, "tags": {"admin_level": "10", "designation": "barangay", "is_in:town": "Bulan", "is_in:village": "Cocok-Cabitan", "name": "Cocok-Cabitan", "place": "village", "source:name": "extrapolated from OSMaPaaralan, way/908276294"}}, {"type": "node", "id": 7647047472, "lat": 12.7200924, "lon": 123.8510533, "tags": {"name": "Namo", "place": "village"}}, {"type": "node", "id": 7647047473, "lat": 12.7033622, "lon": 123.8574169, "tags": {"name": "Nasuje", "place": "village"}}, {"type": "node", "id": 7647136249, "lat": 12.6785221, "lon": 123.8704689, "tags": {"name": "Imelda", "place": "village"}}, {"type": "node", "id": 7647136250, "lat": 12.6809768, "lon": 123.8681022, "tags": {"name": "Laurel", "place": "village"}}, {"type": "node", "id": 7647136251, "lat": 12.6903946, "lon": 123.8605913, "tags": {"name": "Inararan", "place": "village"}}, {"type": "node", "id": 7647136252, "lat": 12.711797, "lon": 123.8538372, "tags": {"alt_name": "Sitio Costanera", "name": "Costanera", "place": "hamlet"}}, {"type": "node", "id": 7647136253, "lat": 12.6767466, "lon": 123.914666, "tags": {"name": "San Juan Bag-o", "place": "village"}}, {"type": "node", "id": 7647136254, "lat": 12.7113143, "lon": 123.9170632, "tags": {"admin_level": "10", "designation": "barangay", "is_in:town": "Bulan", "name": "Jamorawon", "place": "village", "source:name": "extrapolated from OSMaPaaralan"}}, {"type": "node", "id": 7647136255, "lat": 12.7134754, "lon": 123.9165084, "tags": {"is_in:town": "?", "is_in:village": "?", "place": "neighbourhood"}}, {"type": "node", "id": 7647136256, "lat": 12.7103917, "lon": 123.9322992, "tags": {"is_in:town": "Bulan", "name": "Montecalvario", "place": "village"}}, {"type": "node", "id": 7647136257, "lat": 12.7066173, "lon": 123.9460829, "tags": {"admin_level": "10", "designation": "barangay", "is_in:town": "Bulan", "name": "Daganas", "place": "village"}}, {"type": "node", "id": 7647136258, "lat": 12.6954541, "lon": 123.9039086, "tags": {"name": "Beguin", "place": "village"}}, {"type": "node", "id": 7647136259, "lat": 12.6848724, "lon": 123.9255307, "tags": {"admin_level": "10", "designation": "barangay", "is_in:town": "Bulan", "name": "Abad Santos", "place": "village", "source:name": "extrapolated from OSMaPaaralan, way/908582320"}}, {"type": "node", "id": 7647136260, "lat": 12.694558, "lon": 123.9255865, "tags": {"admin_level": "10", "designation": "barangay", "name": "San Juan Daan", "place": "village", "source:name": "extrapolated from OSMaPaaralan, way/908583440"}}, {"type": "node", "id": 8023501632, "lat": 12.4290486, "lon": 123.7551586, "tags": {"name": "Mabuhay", "place": "village"}}, {"type": "node", "id": 8023501633, "lat": 12.4270936, "lon": 123.7665221, "tags": {"name": "Nasandig", "place": "village"}}, {"type": "node", "id": 8023501634, "lat": 12.4354687, "lon": 123.7750423, "tags": {"name": "Camba\u00f1ez", "place": "village"}}, {"type": "node", "id": 8023501635, "lat": 12.4204232, "lon": 123.7805263, "tags": {"name": "Poblacion", "place": "village"}}, {"type": "node", "id": 8336383214, "lat": 12.7292029, "lon": 123.968195, "tags": {"admin_level": "11", "designation": "purok", "is_in:town": "Irosin", "name": "Buluwan", "place": "village", "source:name": "extrapolated from OSMaPaaralan, way/896842693"}}, {"type": "node", "id": 8336383215, "lat": 12.7209092, "lon": 123.9812332, "tags": {"admin_level": "11", "designation": "sitio", "name": "Tongdol", "place": "village", "source:name": "extrapolation from OSMaPaaralan, way 896841941"}}, {"type": "node", "id": 8336596511, "lat": 12.683788, "lon": 123.9622137, "tags": {"admin_level": "10", "designation": "barangay", "is_in:town": "Bulan", "name": "Padre Diaz", "place": "village", "source:name": "extrapolated from OSMaPaaralan"}}, {"type": "node", "id": 8336710233, "lat": 12.6531544, "lon": 123.9126921, "tags": {"admin_level": "10", "admin_type:PH": "barangay", "is_in:town": "Bulan", "name": "Sigad", "place": "village", "source:name": "extrapolated from OSMaPaaralan, way/896878727"}}, {"type": "node", "id": 8336732275, "lat": 12.6259852, "lon": 123.9265376, "tags": {"name": "Angas", "place": "neighbourhood", "source:name": "extrapolated from OSMaPaaralan, way 787008069"}}, {"type": "node", "id": 8336920483, "lat": 12.6188895, "lon": 124.0942132, "tags": {"admin_level": "10", "designation": "barangay", "is_in:town": "Santa Magdalena", "name": "San Sebastian", "place": "village", "source:name": "extrapolated from OSMaPaaralan"}}, {"type": "node", "id": 8341467289, "lat": 12.793014, "lon": 123.9898726, "tags": {"admin_level": "10", "designation": "barangay", "is_in:town": "Juban", "name": "Catanusan", "place": "village", "source:name": "extrapolated from OSMaPaaralan, way/897487775"}}, {"type": "node", "id": 8341467315, "lat": 12.7768541, "lon": 123.9532229, "tags": {"admin_level": "10", "designation": "barangay", "is_in:town": "Juban", "name": "Calmayon", "place": "village", "source:name": "extrapolated from OSMaPaaralan"}}, {"type": "node", "id": 8347988888, "lat": 12.7939688, "lon": 123.8752763, "tags": {"name": "Siuton", "place": "village"}}, {"type": "node", "id": 8427798361, "lat": 12.7584696, "lon": 123.9451843, "tags": {"admin_level": "10", "designation": "barangay", "is_in:town": "Bulan", "name": "Dolos", "place": "village", "source:name": "extrapolated from OSMaPaaralan, way/907620314"}}, {"type": "node", "id": 8427899239, "lat": 12.748704, "lon": 123.9337984, "tags": {"admin_level": "11", "designation": "sitio", "is_in:town": "Bulan", "is_in:village": "Calpi", "name": "Sabang", "place": "neighbourhood", "source:name": "extrapolated from OSMaPaaralan"}}, {"type": "node", "id": 8427899263, "lat": 12.7437098, "lon": 123.929472, "tags": {"admin_level": "10", "designation": "barangay", "is_in:town": "Bulan", "name": "Calpi", "place": "village", "source:name": "extrapolated from OSMaPaaralan"}}, {"type": "node", "id": 8430570705, "lat": 12.7648656, "lon": 124.1097218, "tags": {"is_in:town": "?", "is_in:village": "?", "name": "Upper San Jose", "place": "neighbourhood", "source:name": "extrapolated from OSMaPaaralan"}}, {"type": "node", "id": 8430749492, "lat": 12.8309168, "lon": 123.8179752, "tags": {"admin_level": "10", "designation": "barangay", "is_in:town": "Magallanes", "name": "Biga", "place": "village", "source:name": "extrapolated from OSMaPaaralan, way/907951795"}}, {"type": "node", "id": 8430749512, "lat": 12.8250089, "lon": 123.8279316, "tags": {"is_in:town": "Magallanes", "is_in:village": "Behia", "name": "Santa Lourdes", "place": "neighbourhood", "source:name": "extrapolated from OSMaPaaralan, way/907951426"}}, {"type": "node", "id": 8430765877, "lat": 12.8206204, "lon": 123.8194022, "tags": {"admin_level": "10", "admin_type:PH": "barangay", "is_in:town": "Magallanes", "name": "Behia", "old_ref": "056211008", "place": "village", "population": "2573", "population:2015": "2518", "ref": "0506211008", "source:name": "extrapolated from OSMaPaaralan", "source:population": "Philippine Statistics Authority"}}, {"type": "node", "id": 8431091944, "lat": 12.7739767, "lon": 123.9091569, "tags": {"admin_level": "10", "designation": "barangay", "is_in:town": "Magallanes", "name": "Tula-tula Sur", "place": "village", "source:name": "extrapolated from OSMaPaaralan, way/907987119"}}, {"type": "node", "id": 8431246329, "lat": 12.8032775, "lon": 123.8484746, "tags": {"admin_level": "10", "designation": "barangay", "is_in:town": "Magallanes", "name": "Caditaan", "place": "village", "source:name": "extrapolated from OSMaPaaralan"}}, {"type": "node", "id": 8431246419, "lat": 12.8166137, "lon": 123.8405085, "tags": {"admin_level": "10", "designation": "barangay", "is_in:town": "Magallanes", "name": "Aguada Sur", "place": "village", "source:name": "extrapolated from OSMaPaaralan, way/907996944"}}, {"type": "node", "id": 8433556474, "lat": 12.7814396, "lon": 123.9090282, "tags": {"admin_level": "10", "designation": "barangay", "is_in:town": "Magallanes", "name": "Busay", "place": "village", "source:name": "extrapolated from OSMaPaaralan"}}, {"type": "node", "id": 8433579544, "lat": 12.7630109, "lon": 123.8861757, "tags": {"admin_level": "10", "designation": "barangay", "is_in:town": "Magallanes", "name": "Lapinig", "place": "village", "source:name": "extrapolated from OSMaPaaralan"}}, {"type": "node", "id": 8433802718, "lat": 12.7582041, "lon": 123.9065069, "tags": {"admin_level": "10", "designation": "barangay", "is_in:town": "Bulan", "name": "Cadandanan", "place": "village", "source:name": "extrapolated from OSMaPaaralan"}}, {"type": "node", "id": 8436229834, "lat": 12.7345166, "lon": 123.9425853, "tags": {"admin_level": "10", "designation": "barangay", "is_in:town": "Bulan", "name": "Bical", "place": "village", "source:name": "extrapolated from OSMaPaaralan, way/908562312"}}, {"type": "node", "id": 8436229871, "lat": 12.7354767, "lon": 123.9180618, "tags": {"admin_level": "10", "designation": "barangay", "is_in:town": "Bulan", "name": "M.L. Roxas", "place": "village", "source:name": "extrapolated from OSMaPaaralan, way/908560448"}}, {"type": "node", "id": 8436334203, "lat": 12.6844029, "lon": 123.8982832, "tags": {"admin_level": "10", "designation": "barangay", "is_in:town": "Bulan", "name": "A. Bonifacio", "place": "hamlet", "source:name": "extrapolated from OSMaPaaralan, way/908577253"}}, {"type": "node", "id": 8436397588, "lat": 12.6931152, "lon": 123.8886353, "tags": {"admin_level": "10", "designation": "barangay", "is_in:town": "Bulan", "name": "Somagongsong", "place": "village", "source:name": "extrapolated from OSMaPaaralan, way/908584904"}}, {"type": "node", "id": 8519688314, "lat": 12.7590845, "lon": 123.9437511}, {"type": "node", "id": 8519688315, "lat": 12.7606638, "lon": 123.9458655}, {"type": "node", "id": 8519688316, "lat": 12.7611926, "lon": 123.9490899}, {"type": "node", "id": 8519717317, "lat": 12.7604198, "lon": 123.951412}, {"type": "node", "id": 8519717318, "lat": 12.7581777, "lon": 123.9503814}, {"type": "node", "id": 8519717319, "lat": 12.7572017, "lon": 123.9474656}, {"type": "node", "id": 8519717320, "lat": 12.7568882, "lon": 123.9443974}, {"type": "node", "id": 8519717321, "lat": 12.7576158, "lon": 123.9433718}, {"type": "node", "id": 8519737743, "lat": 12.7170382, "lon": 123.8737027}, {"type": "node", "id": 8519737744, "lat": 12.7182824, "lon": 123.8750375}, {"type": "node", "id": 8519737745, "lat": 12.7181103, "lon": 123.8773788}, {"type": "node", "id": 8519737746, "lat": 12.7164418, "lon": 123.8779031}, {"type": "node", "id": 8519737747, "lat": 12.715326, "lon": 123.8766893}, {"type": "node", "id": 8519737748, "lat": 12.7151594, "lon": 123.874198}, {"type": "node", "id": 8519737749, "lat": 12.7486819, "lon": 123.846593}, {"type": "node", "id": 8519737750, "lat": 12.7488662, "lon": 123.8488772}, {"type": "node", "id": 8519737751, "lat": 12.7478436, "lon": 123.8500184}, {"type": "node", "id": 8519737752, "lat": 12.7467339, "lon": 123.8502782}, {"type": "node", "id": 8519737753, "lat": 12.7458454, "lon": 123.849362}, {"type": "node", "id": 8519737754, "lat": 12.7455321, "lon": 123.8472797}, {"type": "node", "id": 8519737755, "lat": 12.7459974, "lon": 123.8468127}, {"type": "node", "id": 8519737756, "lat": 12.737735, "lon": 123.847625}, {"type": "node", "id": 8519737757, "lat": 12.7383011, "lon": 123.8493891}, {"type": "node", "id": 8519737758, "lat": 12.737997, "lon": 123.8511503}, {"type": "node", "id": 8519737759, "lat": 12.7365367, "lon": 123.8515375}, {"type": "node", "id": 8519737760, "lat": 12.7352019, "lon": 123.8507122}, {"type": "node", "id": 8519737761, "lat": 12.7348839, "lon": 123.8486859}, {"type": "node", "id": 8519737762, "lat": 12.7349761, "lon": 123.8479012}, {"type": "node", "id": 8519737763, "lat": 12.7214045, "lon": 123.8499894}, {"type": "node", "id": 8519737764, "lat": 12.7228777, "lon": 123.8523673}, {"type": "node", "id": 8519737765, "lat": 12.7232101, "lon": 123.8536085}, {"type": "node", "id": 8519737766, "lat": 12.7225821, "lon": 123.8551162}, {"type": "node", "id": 8519737767, "lat": 12.7210129, "lon": 123.8557474}, {"type": "node", "id": 8519737768, "lat": 12.7190763, "lon": 123.8554436}, {"type": "node", "id": 8519737769, "lat": 12.7179804, "lon": 123.8534254}, {"type": "node", "id": 8519737770, "lat": 12.7177002, "lon": 123.8511122}, {"type": "node", "id": 8519874365, "lat": 12.6569148, "lon": 123.9440713}, {"type": "node", "id": 8519874366, "lat": 12.6567048, "lon": 123.944843}, {"type": "node", "id": 8519874367, "lat": 12.6565351, "lon": 123.9455648}, {"type": "node", "id": 8519874368, "lat": 12.6566512, "lon": 123.946294}, {"type": "node", "id": 8519874369, "lat": 12.656988, "lon": 123.9472848}, {"type": "node", "id": 8519874370, "lat": 12.6564972, "lon": 123.9477324}, {"type": "node", "id": 8519874371, "lat": 12.6560504, "lon": 123.946795}, {"type": "node", "id": 8519874372, "lat": 12.6557913, "lon": 123.9456606}, {"type": "node", "id": 8519874373, "lat": 12.6560192, "lon": 123.9445131}, {"type": "node", "id": 8519874374, "lat": 12.6566866, "lon": 123.9438073}, {"type": "node", "id": 8519874381, "lat": 12.6411191, "lon": 123.979292}, {"type": "node", "id": 8519874382, "lat": 12.641611, "lon": 123.9817983}, {"type": "node", "id": 8519874383, "lat": 12.6390717, "lon": 123.9844098}, {"type": "node", "id": 8519874384, "lat": 12.6387385, "lon": 123.9804217}, {"type": "node", "id": 8519874385, "lat": 12.6399521, "lon": 123.9794576}, {"type": "node", "id": 8519874386, "lat": 12.6555703, "lon": 123.9768143}, {"type": "node", "id": 8519874387, "lat": 12.6541912, "lon": 123.9789224}, {"type": "node", "id": 8519874388, "lat": 12.6525167, "lon": 123.9793823}, {"type": "node", "id": 8519874389, "lat": 12.6517294, "lon": 123.9778463}, {"type": "node", "id": 8519874390, "lat": 12.6528895, "lon": 123.9753841}, {"type": "node", "id": 8519874391, "lat": 12.6122172, "lon": 123.9399383}, {"type": "node", "id": 8519874392, "lat": 12.6126423, "lon": 123.9413276}, {"type": "node", "id": 8519874393, "lat": 12.6120175, "lon": 123.9425673}, {"type": "node", "id": 8519874394, "lat": 12.6110743, "lon": 123.9428215}, {"type": "node", "id": 8519874395, "lat": 12.6099211, "lon": 123.9413715}, {"type": "node", "id": 8519874396, "lat": 12.6099229, "lon": 123.9408962}, {"type": "node", "id": 8519874397, "lat": 12.6113718, "lon": 123.9395135}, {"type": "node", "id": 8519886820, "lat": 12.5481262, "lon": 123.9949224}, {"type": "node", "id": 8519886821, "lat": 12.5486755, "lon": 123.995527}, {"type": "node", "id": 8519886822, "lat": 12.5487744, "lon": 123.9963131}, {"type": "node", "id": 8519886823, "lat": 12.5485008, "lon": 123.9972668}, {"type": "node", "id": 8519886824, "lat": 12.5478546, "lon": 123.9980901}, {"type": "node", "id": 8519886825, "lat": 12.5470012, "lon": 123.9987043}, {"type": "node", "id": 8519886826, "lat": 12.5460621, "lon": 123.9989745}, {"type": "node", "id": 8519886827, "lat": 12.5456871, "lon": 123.9989441}, {"type": "node", "id": 8519886828, "lat": 12.5455725, "lon": 123.9988255}, {"type": "node", "id": 8690613732, "lat": 12.6635701, "lon": 123.8807684, "tags": {"admin_level": "10", "is_in:town": "Bulan", "name": "San Vicente", "place": "village", "place:PH": "barangay"}}, {"type": "node", "id": 8946400562, "lat": 12.6016617, "lon": 123.9464824}, {"type": "node", "id": 8950115704, "lat": 12.5398679, "lon": 124.0512389}, {"type": "node", "id": 8950115705, "lat": 12.5392814, "lon": 124.0493399}, {"type": "node", "id": 8950115706, "lat": 12.5389148, "lon": 124.0487552}, {"type": "node", "id": 8950144678, "lat": 12.5456619, "lon": 124.0348171}, {"type": "node", "id": 8950144679, "lat": 12.5455559, "lon": 124.0347701}, {"type": "node", "id": 8950144682, "lat": 12.5446971, "lon": 124.0343826}, {"type": "node", "id": 8950144683, "lat": 12.5436839, "lon": 124.0337174}, {"type": "node", "id": 8950144684, "lat": 12.5435543, "lon": 124.0335926}, {"type": "node", "id": 8950144685, "lat": 12.543481, "lon": 124.0335283}, {"type": "node", "id": 8950144686, "lat": 12.5432152, "lon": 124.0333378}, {"type": "node", "id": 9004086802, "lat": 12.8011144, "lon": 124.0132843, "tags": {"name": "Anog", "place": "village"}}, {"type": "node", "id": 9004092521, "lat": 12.7234261, "lon": 123.8908213, "tags": {"name": "Pinaradan", "place": "hamlet"}}, {"type": "node", "id": 9004092636, "lat": 12.7341843, "lon": 123.9031112, "tags": {"name": "E. Quirino", "place": "village"}}, {"type": "node", "id": 9004092637, "lat": 12.7422736, "lon": 123.9058363, "tags": {"name": "Palale", "place": "village"}}, {"type": "node", "id": 9010815428, "lat": 12.5052932, "lon": 123.7615402, "tags": {"name": "Benitinan", "place": "village"}}, {"type": "node", "id": 9194864919, "lat": 12.6756314, "lon": 123.8880506, "tags": {"fixme": "name", "place": "neighbourhood"}}, {"type": "node", "id": 9289355750, "lat": 12.4703629, "lon": 123.6980222, "tags": {"admin_level": "10", "admin_type:PH": "barangay", "name": "Buenavista", "place": "village", "population": "835", "population:2015": "844", "ref": "054118004", "source:population": "Philippine Statistics Authority"}}, {"type": "node", "id": 9291955550, "lat": 12.8524262, "lon": 123.9401767, "tags": {"admin_level": "12", "admin_type:PH": "purok", "is_in:town": "Juban", "is_in:village": "Tinago", "name": "Baybay", "place": "neighbourhood", "source:name": "extrapolated from OSMaPaaralan, way/970049676"}}, {"type": "node", "id": 9291955551, "lat": 12.8521464, "lon": 123.9388651, "tags": {"admin_level": "10", "admin_type:PH": "barangay", "is_in:town": "Juban", "name": "Tinago", "place": "village", "population": "916", "population:2015": "822", "ref": "056210026", "source:name": "extrapolated from OSMaPaaralan, way/970049676", "source:population": "Philippine Statistics Authority"}}, {"type": "node", "id": 9291955559, "lat": 12.8439449, "lon": 123.9438801, "tags": {"admin_level": "10", "admin_type:PH": "barangay", "is_in:town": "Juban", "name": "Caruhayon", "place": "village", "population": "743", "population:2015": "662", "ref": "056210009", "source:population": "Philippine Statistics Authority"}}, {"type": "node", "id": 9291955564, "lat": 12.8502289, "lon": 123.9590299, "tags": {"fixme": "name", "place": "neighbourhood"}}, {"type": "node", "id": 9291955569, "lat": 12.8581595, "lon": 123.9576553, "tags": {"admin_level": "10", "admin_type:PH": "barangay", "is_in:town": "Juban", "name": "Biriran", "place": "village", "population": "2257", "population:2015": "2091", "ref": "056210005", "source:name": "extrapolated from OSMaPaaralan, way/1007194186", "source:population": "Philippine Statistics Authority"}}, {"type": "node", "id": 9292024307, "lat": 12.8390578, "lon": 123.995618, "tags": {"admin_level": "10", "admin_type:PH": "barangay", "is_in:town": "Juban", "name": "Cogon", "place": "village", "population": "2407", "population:2015": "2105", "ref": "056210012", "source:name": "extrapolated from OSMaPaaralan, way/649906069", "source:population": "Philippine Statistics Authority"}}, {"type": "node", "id": 9292024312, "lat": 12.8545208, "lon": 123.9888936, "tags": {"admin_level": "10", "admin_type:PH": "barangay", "is_in:town": "Juban", "name": "Embarcadero", "place": "village", "population": "1341", "population:2015": "1155", "ref": "056210013", "source:name": "extrapolated from OSMaPaaralan, way/970049548", "source:population": "Philippine Statistics Authority"}}, {"type": "node", "id": 9292036719, "lat": 12.8470026, "lon": 123.9846544, "tags": {"admin_level": "11", "admin_type:PH": "sitio", "name": "Tampi", "place": "neighbourhood", "source:name": "extrapolated from https://osm.org/note/1838492"}}, {"type": "node", "id": 9292036728, "lat": 12.8499301, "lon": 123.9935969, "tags": {"admin_level": "10", "admin_type:PH": "barangay", "is_in:town": "Juban", "name": "Tughan", "place": "village", "population": "2258", "population:2015": "1695", "ref": "056210027", "source:population": "Philippine Statistics Authority"}}, {"type": "node", "id": 9292036729, "lat": 12.8406374, "lon": 123.9827138, "tags": {"admin_level": "10", "admin_type:PH": "barangay", "is_in:town": "Juban", "name": "Taboc", "place": "village", "population": "1414", "population:2015": "1568", "ref": "056210025", "source:name": "extrapolated from OSMaPaaralan, way/970049616", "source:population": "Philippine Statistics Authority"}}, {"type": "node", "id": 9292044779, "lat": 12.8428158, "lon": 123.9930725, "tags": {"is_in:village": "Cogon", "name": "Santo Ni\u00f1o Village", "place": "neighbourhood", "source:name": "extrapolated from OSMaPaaralan, 1838494"}}, {"type": "node", "id": 9292198968, "lat": 12.8494659, "lon": 123.7339758, "tags": {"admin_level": "12", "admin_type:PH": "purok", "is_in:town": "Pilar", "is_in:village": "Bantayan", "name": "Purok 4", "place": "neighbourhood", "source:name": "extrapolated from OSMaPaaralan, way/657126134"}}, {"type": "node", "id": 9875478802, "lat": 12.7231238, "lon": 123.9217883, "tags": {"name": "Liman", "place": "village"}}, {"type": "node", "id": 9875478803, "lat": 12.7270934, "lon": 123.8884709, "tags": {"name": "San Jose", "place": "village"}}, {"type": "node", "id": 9875555683, "lat": 12.6281323, "lon": 123.9298393, "tags": {"admin_level": "11", "admin_type:PH": "sitio", "alt_name": "Sitio Salvacion", "is_in:town": "Bulan", "is_in:village": "Butag", "name": "Salvacion", "place": "neighbourhood"}}, {"type": "node", "id": 9875558945, "lat": 12.7491051, "lon": 123.8593263, "tags": {"name": "R.Gerona", "place": "village"}}, {"type": "node", "id": 9875558946, "lat": 12.7478354, "lon": 123.8481896, "tags": {"alt_name": "Sitio Inalapan", "name": "Inalapan", "place": "hamlet"}}, {"type": "node", "id": 9875559138, "lat": 12.7362834, "lon": 123.8490574, "tags": {"name": "Danao", "place": "village"}}, {"type": "node", "id": 9875579616, "lat": 12.6838448, "lon": 123.8987724, "tags": {"name": "A.Bonifacio", "place": "village"}}, {"type": "node", "id": 9875593238, "lat": 12.7306489, "lon": 123.8684455, "tags": {"alt_name": "Sitio Pili", "name": "Pili", "place": "hamlet"}}, {"type": "node", "id": 10964339457, "lat": 12.8542409, "lon": 123.8504009, "tags": {"admin_level": "10", "admin_type:PH": "barangay", "is_in:town": "Magallanes", "name": "Hubo", "old_ref": "056211020", "place": "village", "population": "965", "population:2015": "869", "ref": "0506211020", "source:population": "Philippine Statistics Authority"}}, {"type": "node", "id": 10964373233, "lat": 12.8586619, "lon": 123.8612892, "tags": {"admin_level": "10", "admin_type:PH": "barangay", "is_in:town": "Magallanes", "name": "Cagbolo", "old_ref": "056211015", "place": "village", "population": "1055", "population:2015": "1120", "ref": "0506211015", "source:population": "Philippine Statistics Authority"}}, {"type": "node", "id": 11134227576, "lat": 12.6595949, "lon": 123.9681494, "tags": {"admin_level": "10", "admin_type:PH": "barangay", "is_in:town": "Bulan", "name": "Taromata", "place": "village"}}, {"type": "node", "id": 11134391083, "lat": 12.8406518, "lon": 123.8835499, "tags": {"admin_level": "10", "admin_type:PH": "barangay", "is_in:town": "Magallanes", "name": "Incarizan", "place": "village"}}, {"type": "node", "id": 11134391084, "lat": 12.834973, "lon": 123.8892603, "tags": {"admin_level": "10", "admin_type:PH": "barangay", "is_in:town": "Magallanes", "name": "Santa Elena", "place": "village"}}, {"type": "node", "id": 11134391086, "lat": 12.82889, "lon": 123.902155, "tags": {"admin_level": "10", "admin_type:PH": "barangay", "is_in:town": "Magallanes", "name": "Tula-Tula Norte", "place": "village"}}, {"type": "node", "id": 11134473805, "lat": 12.8563905, "lon": 123.8950337, "tags": {"admin_level": "10", "admin_type:PH": "barangay", "is_in:town": "Magallanes", "name": "Tagas", "place": "village"}}, {"type": "way", "id": 247558711, "nodes": [2544283298, 2544283263, 2544283255, 2544283252, 2544283253, 2544283254, 2544283256, 2544283257, 2544283271, 2544283294, 2544283298], "tags": {"place": "village"}}, {"type": "way", "id": 342998429, "nodes": [3499277678, 6862965187, 6862965186, 6862965194, 6862965195, 3499277679, 3499277681, 3499277683, 7089950680, 7089950681, 3499277682, 5005315753]}, {"type": "way", "id": 511776021, "nodes": [5005315753, 398249158, 398249157, 8946400562, 398249155, 3499277678], "tags": {"natural": "coastline", "note": "Original way #4323621 has been split because it had too many segments.", "source": "SRTM and landsat"}}, {"type": "way", "id": 730149982, "nodes": [6840075077, 6840075076, 6840075075, 6840075074, 6840075073, 6840075072, 6840075071, 6840075070, 6840075069, 6840075068, 6840075067, 6840075078]}, {"type": "way", "id": 730149983, "nodes": [6840075078, 6862548270, 6862548265, 8950144686, 398248826, 8950144685, 8950144684, 398248824, 8950144683, 6862548234, 6862548231, 6862548229, 6862548230, 8950144682, 6862494417, 398248823, 6862494437, 8950144679, 8950144678, 398248820, 6840075077], "tags": {"natural": "coastline", "note": "Original way #4323621 has been split because it had too many segments.", "source": "SRTM and landsat"}}, {"type": "way", "id": 730157325, "nodes": [5005306791, 398248735, 398248733, 8950115706, 5005306792, 8950115705, 398248730, 5005306793, 398248727, 8950115704, 398248725], "tags": {"natural": "coastline", "note": "Original way #4323621 has been split because it had too many segments.", "source": "SRTM and landsat"}}, {"type": "way", "id": 730157326, "nodes": [6840195718, 6840195717, 6840195716, 6840195715, 6840195714, 6840195713, 7112650645, 6840195711, 5005306791]}, {"type": "way", "id": 732971130, "nodes": [6863594396, 6863594397, 6863594398, 6863594399, 6863594400, 6863594401, 6863594402, 6863594403, 6863594404, 6863594405, 6863594396], "tags": {"name": "Pawic", "place": "village"}}, {"type": "way", "id": 758829883, "nodes": [398248725, 6840195724, 6840195723, 6840195722, 6840195721, 6840195720, 6840195719, 6840195718]}, {"type": "way", "id": 917267250, "nodes": [8519688314, 8519688315, 8519688316, 8519717317, 8519717318, 8519717319, 8519717320, 8519717321, 8519688314], "tags": {"name": "Dolos", "place": "village"}}, {"type": "way", "id": 917269920, "nodes": [8519737743, 8519737744, 8519737745, 8519737746, 8519737747, 8519737748, 8519737743], "tags": {"name": "Antipolo", "place": "village"}}, {"type": "way", "id": 917269921, "nodes": [8519737749, 8519737750, 8519737751, 8519737752, 8519737753, 8519737754, 8519737755, 8519737749], "tags": {"name": "Inalapan", "place": "village"}}, {"type": "way", "id": 917269922, "nodes": [8519737756, 8519737757, 8519737758, 8519737759, 8519737760, 8519737761, 8519737762, 8519737756], "tags": {"name": "Danao", "place": "village"}}, {"type": "way", "id": 917269923, "nodes": [8519737763, 8519737764, 8519737765, 8519737766, 8519737767, 8519737768, 8519737769, 8519737770, 8519737763], "tags": {"name": "Namo", "place": "village"}}, {"type": "way", "id": 917295534, "nodes": [8519874365, 8519874366, 8519874367, 8519874368, 8519874369, 8519874370, 8519874371, 8519874372, 8519874373, 8519874374, 8519874365], "tags": {"name": "Parik", "place": "neighbourhood"}}, {"type": "way", "id": 917295536, "nodes": [8519874381, 8519874382, 8519874383, 8519874384, 8519874385, 8519874381], "tags": {"name": "Gabod", "place": "village"}}, {"type": "way", "id": 917295537, "nodes": [6863542703, 8519874386, 8519874387, 8519874388, 8519874389, 8519874390, 6863542703], "tags": {"name": "Taromata 2", "place": "village"}}, {"type": "way", "id": 917295538, "nodes": [8519874391, 8519874392, 8519874393, 8519874394, 8519874395, 8519874396, 8519874397, 8519874391], "tags": {"name": "J.Gerona (Biton)", "place": "village"}}, {"type": "way", "id": 917296734, "nodes": [8519886820, 8519886821, 8519886822, 8519886823, 8519886824, 8519886825, 8519886826, 8519886827, 8519886828, 8519886820], "tags": {"name": "Sua", "place": "village"}}, {"type": "relation", "id": 7432196, "members": [{"type": "way", "ref": 511776021, "role": "outer"}, {"type": "way", "ref": 342998429, "role": "outer"}], "tags": {"name": "Marinab", "place": "village", "type": "multipolygon"}}, {"type": "relation", "id": 10101377, "members": [{"type": "way", "ref": 730149982, "role": "outer"}, {"type": "way", "ref": 730149983, "role": "outer"}], "tags": {"name": "Genablan Occidental", "place": "village", "type": "multipolygon"}}, {"type": "relation", "id": 10101531, "members": [{"type": "way", "ref": 730157326, "role": "outer"}, {"type": "way", "ref": 758829883, "role": "outer"}, {"type": "way", "ref": 730157325, "role": "outer"}], "tags": {"name": "Bon-ot Big", "place": "village", "type": "multipolygon"}}]}