{"version": 0.6, "generator": "Overpass API 0.7.62.5 1bd436f1", "osm3s": {"timestamp_osm_base": "2025-05-24T17:53:13Z", "copyright": "The data included in this document is from www.openstreetmap.org. The data is made available under ODbL."}, "elements": [{"type": "node", "id": 198491046, "lat": 17.6118858, "lon": 121.7300377, "tags": {"admin_level": "6", "alt_name": "Tuguegarao City", "alt_name:en": "Tuguegarao City", "alt_name:ibg": "Siudad nat Tuguegarao", "alt_name:ilo": "Siudad ti Tuguegarao", "alt_name:tl": "Lungsod ng Tuguegarao", "capital": "3", "name": "Tuguegarao", "name:ar": "\u062a\u0648\u062c\u064a\u062c\u0627\u0631\u0627\u0648", "name:be": "\u0422\u0443\u0433\u0435\u0433\u0430\u0440\u0430\u043e", "name:bg": "\u0422\u0443\u0433\u0435\u0433\u0430\u0440\u0430\u043e", "name:ceb": "Tuguegarao", "name:en": "Tuguegarao", "name:es": "Tuguegarao", "name:fa": "\u062a\u0648\u06af\u0648\u06af\u0627\u0631\u0627\u0626\u0648", "name:ibg": "Tuguegarao", "name:ilo": "Tuguegarao", "name:ja": "\u30c8\u30a5\u30b2\u30ac\u30e9\u30aa", "name:ko": "\ud22c\uac8c\uac00\ub77c\uc624", "name:ru": "\u0422\u0443\u0433\u0435\u0433\u0430\u0440\u0430\u043e", "name:sr": "\u0422\u0443\u0433\u0435\u0433\u0430\u0440\u0430\u043e", "name:tl": "Tuguegarao", "name:uk": "\u0422\u0443\u0433\u0435\u0433\u0430\u0440\u0430\u043e", "name:ur": "\u0679\u0648\u06af\u06cc\u06af\u0627\u0631\u0627\u0624", "name:zh": "\u571f\u683c\u52a0\u52de", "name:zh-Hans": "\u571f\u683c\u52a0\u52b3", "name:zh-Hant": "\u571f\u683c\u52a0\u52de", "official_name": "Tuguegarao City", "official_name:en": "Tuguegarao City", "official_name:es": "Ciudad de Tuguegarao", "official_name:ibg": "Siudad nat Tuguegarao", "official_name:ilo": "Siudad ti Tuguegarao", "official_name:tl": "Lungsod ng Tuguegarao", "old_ref": "021529000", "place": "city", "population": "166334", "population:date": "2020-05-01", "postal_code": "3500", "ref": "0201529000", "source:population": "Philippine Statistics Authority", "wikidata": "Q2200", "wikimedia_commons": "Category:Tuguegarao", "wikipedia": "en:Tuguegarao"}}, {"type": "node", "id": 198500386, "lat": 17.3989287, "lon": 121.7668448, "tags": {"admin_level": "6", "designation": "municipality", "name": "Santo Tomas", "place": "town", "population": "24528", "population:date": "2020-05-01", "ref": "023136000", "short_name": "Sto. Tomas", "source:population": "Philippine Statistics Authority", "wikidata": "Q50176", "wikimedia_commons": "Category:Santo Tomas, Isabela", "wikipedia": "en:Santo Tomas, Isabela"}}, {"type": "node", "id": 198503464, "lat": 17.7341301, "lon": 121.4555256, "tags": {"admin_level": "6", "admin_type:PH": "municipality", "name": "Tuao", "place": "town", "population": "63970", "population:date": "2020-05-01", "ref": "021528000", "source:population": "Philippine Statistics Authority", "wikidata": "Q49350", "wikimedia_commons": "Category:Tuao", "wikipedia": "en:Tuao"}}, {"type": "node", "id": 198505218, "lat": 17.5617622, "lon": 121.7007107, "tags": {"admin_level": "6", "admin_type:PH": "municipality", "name": "Enrile", "place": "town", "population": "36705", "population:date": "2020-05-01", "ref": "021512000", "source:population": "Philippine Statistics Authority", "wikidata": "Q49315", "wikimedia_commons": "Category:Enrile, Cagayan", "wikipedia": "en:Enrile, Cagayan"}}, {"type": "node", "id": 198507858, "lat": 17.6509356, "lon": 121.6909171, "tags": {"admin_level": "6", "designation": "municipality", "name": "Solana", "place": "town", "population": "88445", "population:date": "2020-05-01", "postal_code": "3503", "ref": "021527000", "source:population": "Philippine Statistics Authority", "wikidata": "Q49348", "wikimedia_commons": "Category:Solana, Cagayan", "wikipedia": "en:Solana, Cagayan"}}, {"type": "node", "id": 198509468, "lat": 17.3119421, "lon": 121.6053889, "tags": {"admin_level": "6", "admin_type:PH": "municipality", "name": "Quezon", "place": "town", "population": "27037", "population:date": "2020-05-01", "ref": "023122000", "source:population": "Philippine Statistics Authority", "wikidata": "Q50145", "wikimedia_commons": "Category:Quezon, Isabela", "wikipedia": "en:Quezon, Isabela"}}, {"type": "node", "id": 198515888, "lat": 17.4687748, "lon": 121.7525091, "tags": {"admin_level": "6", "designation": "municipality", "name": "Santa Maria", "place": "town", "population": "25758", "population:date": "2020-05-01", "ref": "023134000", "short_name": "Sta. Maria", "source:population": "Philippine Statistics Authority", "wikidata": "Q50175", "wikimedia_commons": "Category:Santa Maria, Isabela", "wikipedia": "en:Santa Maria, Isabela"}}, {"type": "node", "id": 198523112, "lat": 17.4994886, "lon": 121.5956717, "tags": {"admin_level": "6", "gns_classification": "ADM2", "gns_uni": "-3372416", "is_in:province": "Kalinga", "name": "Rizal", "place": "town", "place:PH": "municipality", "population": "17038", "population:date": "2015-08-01", "source": "GNS", "source:population": "Philippine Statistics Authority", "wikidata": "Q35884", "wikimedia_commons": "Category:Rizal, Kalinga", "wikipedia": "en:Rizal, Kalinga"}}, {"type": "node", "id": 198523856, "lat": 17.4264795, "lon": 121.764914, "tags": {"admin_level": "6", "admin_type:PH": "municipality", "name": "Cabagan", "place": "town", "population": "53897", "population:date": "2020-05-01", "ref": "023106000", "source:population": "Philippine Statistics Authority", "wikidata": "Q49361", "wikimedia_commons": "Category:Cabagan", "wikipedia": "en:Cabagan"}}, {"type": "node", "id": 198524475, "lat": 17.5759915, "lon": 121.3674483, "tags": {"admin_level": "6", "name": "Pinukpuk", "place": "town", "place:PH": "municipality", "population": "32026", "population:date": "2015-08-01", "ref": "143209000", "source:population": "Philippine Statistics Authority", "wikidata": "Q35873", "wikimedia_commons": "Category:Pinukpuk", "wikipedia": "en:Pinukpuk, Kalinga"}}, {"type": "node", "id": 198527508, "lat": 17.6248562, "lon": 121.7844749, "tags": {"admin_level": "6", "designation": "municipality", "name": "Pe\u00f1ablanca", "place": "town", "population": "50300", "population:date": "2020-05-01", "ref": "021519000", "source:population": "Philippine Statistics Authority", "wikidata": "Q49327", "wikimedia_commons": "Category:Pe\u00f1ablanca, Cagayan", "wikipedia": "en:Pe\u00f1ablanca"}}, {"type": "node", "id": 198531818, "lat": 17.4136195, "lon": 121.4440137, "tags": {"admin_level": "6", "capital": "4", "is_in:province": "Kalinga", "name": "Tabuk", "name:ja": "\u30bf\u30d6\u30af", "place": "city", "population": "110642", "population:date": "2015-08-01", "source:population": "Philippine Statistics Authority", "wikidata": "Q35925", "wikimedia_commons": "Category:Tabuk, Kalinga", "wikipedia": "en:Tabuk, Kalinga"}}, {"type": "node", "id": 198532428, "lat": 17.7501663, "lon": 121.7353806, "tags": {"admin_level": "6", "designation": "municipality", "name": "Iguig", "place": "town", "population": "30060", "population:date": "2020-05-01", "postal_code": "3504", "ref": "021515000", "source:population": "Philippine Statistics Authority", "wikidata": "Q49318", "wikimedia_commons": "Category:Iguig", "wikipedia": "en:Iguig"}}, {"type": "node", "id": 2163955369, "lat": 17.4499264, "lon": 121.7421394, "tags": {"admin_level": "10", "admin_type:PH": "barangay", "is_in:state": "Isabela", "is_in:town": "Santa Maria", "name": "Buenavista", "place": "village"}}, {"type": "node", "id": 2163955409, "lat": 17.5228236, "lon": 121.7731887, "tags": {"admin_level": "10", "admin_type:PH": "barangay", "is_in:town": "Enrile", "name": "Lemu Sur", "place": "village"}}, {"type": "node", "id": 2163955457, "lat": 17.5017475, "lon": 121.7836805, "tags": {"admin_level": "10", "admin_type:PH": "barangay", "is_in:town": "Santa Maria", "name": "San Isidro East", "place": "village"}}, {"type": "node", "id": 2163971733, "lat": 17.5079072, "lon": 121.7006865, "tags": {"admin_level": "10", "admin_type:PH": "barangay", "is_in:town": "Enrile", "name": "Roma Sur", "place": "village"}}, {"type": "node", "id": 2164008272, "lat": 17.5259771, "lon": 121.6882655, "tags": {"admin_level": "10", "admin_type:PH": "barangay", "is_in:state": "Cagayan", "is_in:town": "Enrile", "name": "Roma Norte", "old_ref": "021512020", "place": "village", "population": "1553", "ref": "0201512020", "source:population": "Philippine Statistics Authority"}}, {"type": "node", "id": 2173367126, "lat": 17.5504838, "lon": 121.6334365, "tags": {"is_in:town": "Enrile", "name": "Liwan Norte", "place": "village"}}, {"type": "node", "id": 2176558523, "lat": 17.5758699, "lon": 121.5957255, "tags": {"admin_level": "10", "admin_type:PH": "barangay", "is_in:town": "Solana", "name": "Parog-Parog", "place": "village"}}, {"type": "node", "id": 2176581463, "lat": 17.66727, "lon": 121.695062, "tags": {"is_in:town": "Solana", "name": "Basi East", "place": "village"}}, {"type": "node", "id": 2176581556, "lat": 17.6708265, "lon": 121.6951907, "tags": {"is_in:town": "Solana", "name": "Basi West", "place": "village"}}, {"type": "node", "id": 2176581563, "lat": 17.7209695, "lon": 121.6803731, "tags": {"is_in:town": "Solana", "name": "Bauan West", "place": "village"}}, {"type": "node", "id": 2178023638, "lat": 17.7436302, "lon": 121.710033, "tags": {"admin_level": "10", "admin_type:PH": "barangay", "is_in:town": "Solana", "name": "Dassun", "place": "village"}}, {"type": "node", "id": 2187170269, "lat": 17.7139861, "lon": 121.5826506, "tags": {"is_in:town": "Piat", "name": "Warat", "place": "village"}}, {"type": "node", "id": 2216477175, "lat": 17.6833201, "lon": 121.7176857, "tags": {"is_in:town": "Solana", "name": "Andarayan South", "place": "village"}}, {"type": "node", "id": 2216477180, "lat": 17.6899846, "lon": 121.7203893, "tags": {"is_in:town": "Solana", "name": "Andarayan North", "place": "village"}}, {"type": "node", "id": 2296682251, "lat": 17.6982072, "lon": 121.7502989}, {"type": "node", "id": 2296682252, "lat": 17.6981499, "lon": 121.7529375}, {"type": "node", "id": 2296682253, "lat": 17.6981253, "lon": 121.7533156}, {"type": "node", "id": 2296682254, "lat": 17.6981581, "lon": 121.7537196}, {"type": "node", "id": 2296682255, "lat": 17.6985184, "lon": 121.7543384}, {"type": "node", "id": 2296682256, "lat": 17.6986248, "lon": 121.7551634}, {"type": "node", "id": 2296682257, "lat": 17.6986248, "lon": 121.7559971}, {"type": "node", "id": 2296682258, "lat": 17.6967662, "lon": 121.7567706}, {"type": "node", "id": 2296682259, "lat": 17.6961193, "lon": 121.7565901}, {"type": "node", "id": 2296682260, "lat": 17.6955625, "lon": 121.7566331}, {"type": "node", "id": 2296682261, "lat": 17.695276, "lon": 121.7566589}, {"type": "node", "id": 2296682262, "lat": 17.6949648, "lon": 121.7565214}, {"type": "node", "id": 2296682263, "lat": 17.6948174, "lon": 121.7563237}, {"type": "node", "id": 2296682264, "lat": 17.6946127, "lon": 121.7560659}, {"type": "node", "id": 2296682265, "lat": 17.6945636, "lon": 121.7559713}, {"type": "node", "id": 2296682266, "lat": 17.6939659, "lon": 121.7561604}, {"type": "node", "id": 2296682267, "lat": 17.6937039, "lon": 121.7557221}, {"type": "node", "id": 2296682268, "lat": 17.6938185, "lon": 121.755619}, {"type": "node", "id": 2296682269, "lat": 17.6935237, "lon": 121.7549486}, {"type": "node", "id": 2296682270, "lat": 17.6933354, "lon": 121.7546306}, {"type": "node", "id": 2296682271, "lat": 17.6931717, "lon": 121.7546306}, {"type": "node", "id": 2296682272, "lat": 17.6930488, "lon": 121.7540977}, {"type": "node", "id": 2296682273, "lat": 17.6935237, "lon": 121.7535906}, {"type": "node", "id": 2296682274, "lat": 17.6936302, "lon": 121.7533328}, {"type": "node", "id": 2296682275, "lat": 17.6934582, "lon": 121.7527398}, {"type": "node", "id": 2296682276, "lat": 17.694187, "lon": 121.7527484}, {"type": "node", "id": 2296682277, "lat": 17.6942033, "lon": 121.7530836}, {"type": "node", "id": 2296682278, "lat": 17.6947765, "lon": 121.7530492}, {"type": "node", "id": 2296682279, "lat": 17.6955625, "lon": 121.7529031}, {"type": "node", "id": 2296682281, "lat": 17.6957017, "lon": 121.7515108}, {"type": "node", "id": 2296682282, "lat": 17.6959241, "lon": 121.7505847}, {"type": "node", "id": 2486493675, "lat": 17.5750711, "lon": 121.7416159, "tags": {"admin_level": "10", "admin_type:PH": "barangay", "is_in:town": "Enrile", "name": "Alibago", "place": "village"}}, {"type": "node", "id": 2526723510, "lat": 17.6173044, "lon": 121.6807254, "tags": {"admin_level": "10", "admin_type:PH": "barangay", "alt_name": "Santo Domingo", "is_in:town": "Solana", "name": "Maddarulug", "place": "village"}}, {"type": "node", "id": 2539845693, "lat": 17.3735167, "lon": 121.5492834, "tags": {"admin_level": "10", "admin_type:PH": "barangay", "gns_classification": "ADM3", "is_in:city": "Tabuk", "is_in:province": "Kalinga", "name": "Agbannawag", "old_ref": "143213001", "place": "village", "population": "5723", "ref": "1403213001", "source:population": "Philippine Statistics Authority"}}, {"type": "node", "id": 2550799579, "lat": 17.6503287, "lon": 121.7201053, "tags": {"admin_level": "10", "admin_type:PH": "barangay", "name": "Linao East", "place": "village"}}, {"type": "node", "id": 2550799582, "lat": 17.6534672, "lon": 121.7214959, "tags": {"admin_level": "10", "admin_type:PH": "barangay", "name": "Linao Norte", "place": "village"}}, {"type": "node", "id": 2550799591, "lat": 17.6501752, "lon": 121.7171388, "tags": {"admin_type:PH": "barangay", "name": "Linao West", "place": "village"}}, {"type": "node", "id": 2550831561, "lat": 17.6309856, "lon": 121.7057126, "tags": {"admin_level": "10", "admin_type:PH": "barangay", "name": "Bagay", "place": "village"}}, {"type": "node", "id": 2551997384, "lat": 17.626357, "lon": 121.7018907, "tags": {"admin_level": "10", "admin_type:PH": "barangay", "name": "Pallua Norte", "place": "village"}}, {"type": "node", "id": 2552066282, "lat": 17.6864245, "lon": 121.5938115, "tags": {"admin_level": "10", "admin_type:PH": "barangay", "name": "Sampaguita", "place": "village"}}, {"type": "node", "id": 2552202578, "lat": 17.6220525, "lon": 121.7536803, "tags": {"admin_level": "10", "admin_type:PH": "barangay", "name": "Larion Bajo", "place": "village"}}, {"type": "node", "id": 2552202582, "lat": 17.6097232, "lon": 121.7501436, "tags": {"admin_level": "10", "admin_type:PH": "barangay", "name": "Libag Norte", "place": "village"}}, {"type": "node", "id": 2552257234, "lat": 17.6304017, "lon": 121.7369631, "tags": {"name": "Panacal Village", "place": "neighbourhood"}}, {"type": "node", "id": 2552298391, "lat": 17.6363829, "lon": 121.7379638, "tags": {"name": "Mercedes Village", "place": "neighbourhood"}}, {"type": "node", "id": 2552301875, "lat": 17.6364873, "lon": 121.7480622, "tags": {"name": "Soldiers Hill", "place": "neighbourhood"}}, {"type": "node", "id": 2596225450, "lat": 17.389015, "lon": 121.443972, "tags": {"place": "neighbourhood"}}, {"type": "node", "id": 2596298774, "lat": 17.3189329, "lon": 121.4337035, "tags": {"admin_level": "10", "designation": "barangay", "name": "Cudal", "place": "village"}}, {"type": "node", "id": 2596299886, "lat": 17.3247505, "lon": 121.5471931, "tags": {"admin_level": "10", "admin_type:PH": "barangay", "is_in:city": "Tabuk", "is_in:province": "Kalinga", "name": "Malalao", "place": "village"}}, {"type": "node", "id": 2898940508, "lat": 17.6388951, "lon": 121.724542, "tags": {"admin_level": "10", "admin_type:PH": "barangay", "name": "Annafunan East", "place": "village"}}, {"type": "node", "id": 2898940509, "lat": 17.6431057, "lon": 121.7199098, "tags": {"admin_level": "10", "admin_type:PH": "barangay", "name": "Annafunan West", "place": "village"}}, {"type": "node", "id": 2898940510, "lat": 17.6395902, "lon": 121.7180134, "tags": {"admin_level": "10", "admin_type:PH": "barangay", "name": "Atulayan Norte", "place": "village"}}, {"type": "node", "id": 2898940511, "lat": 17.6349397, "lon": 121.7202362, "tags": {"admin_level": "10", "admin_type:PH": "barangay", "name": "Atulayan Sur", "place": "village"}}, {"type": "node", "id": 2898940512, "lat": 17.6229674, "lon": 121.7338193, "tags": {"admin_level": "10", "name": "Centro II", "place": "neighbourhood"}}, {"type": "node", "id": 2898940513, "lat": 17.6247784, "lon": 121.7275997, "tags": {"admin_level": "10", "name": "Balzain West", "name:es": "Balzain Oeste", "place": "village", "place:PH": "barangay"}}, {"type": "node", "id": 2898940516, "lat": 17.6302713, "lon": 121.7212798, "tags": {"admin_level": "10", "admin_type:PH": "barangay", "name": "Caritan Norte", "place": "village"}}, {"type": "node", "id": 2898940519, "lat": 17.6220082, "lon": 121.7023656, "tags": {"admin_level": "10", "admin_type:PH": "barangay", "name": "Pallua Sur", "place": "village"}}, {"type": "node", "id": 2898940525, "lat": 17.6142442, "lon": 121.6981807, "tags": {"name": "Cagelco Village", "place": "neighbourhood", "place:PH": "village"}}, {"type": "node", "id": 4742495522, "lat": 17.6624904, "lon": 121.7539857, "tags": {"name": "Golden Harvest University Hills Subdivision", "name:en": "Golden Harvest University Hills Subdivision", "place": "neighbourhood"}}, {"type": "node", "id": 5010706039, "lat": 17.4984473, "lon": 121.5932185, "tags": {"addr:postcode": "3808", "name": "Townsite", "place": "neighbourhood"}}, {"type": "node", "id": 5628543953, "lat": 17.5246107, "lon": 121.4394915, "tags": {"name": "Lanna", "place": "village"}}, {"type": "node", "id": 5628545029, "lat": 17.5605329, "lon": 121.4608633, "tags": {"admin_level": "10", "admin_type:PH": "barangay", "is_in:city": "Tabuk", "name": "Socbot", "place": "village"}}, {"type": "node", "id": 5628545030, "lat": 17.5360306, "lon": 121.459529, "tags": {"admin_level": "10", "admin_type:PH": "barangay", "is_in:city": "Tabuk", "name": "Cabaruan", "place": "village", "population": "2222", "population:2015": "2036", "ref": "143213010", "source:name": "extrapolated from OSMaPaaralan, way/862475204", "source:population": "Philippine Statistics Authority"}}, {"type": "node", "id": 6001653059, "lat": 17.5487836, "lon": 121.6047412}, {"type": "node", "id": 6001653060, "lat": 17.5486465, "lon": 121.6061497}, {"type": "node", "id": 6001653061, "lat": 17.5485893, "lon": 121.6062336}, {"type": "node", "id": 6001653062, "lat": 17.5478807, "lon": 121.6062876}, {"type": "node", "id": 6001653063, "lat": 17.5478464, "lon": 121.6056343}, {"type": "node", "id": 6001653064, "lat": 17.5467321, "lon": 121.6052806}, {"type": "node", "id": 6001653065, "lat": 17.5467721, "lon": 121.6044415}, {"type": "node", "id": 6042364785, "lat": 17.695787, "lon": 121.750786}, {"type": "node", "id": 6965100401, "lat": 17.4204996, "lon": 121.78818, "tags": {"admin_level": "10", "admin_type:PH": "barangay", "is_in:town": "Cabagan", "name": "Cubag", "place": "village"}}, {"type": "node", "id": 6965100402, "lat": 17.4383234, "lon": 121.7782223, "tags": {"name": "Ugad", "place": "village"}}, {"type": "node", "id": 8034285575, "lat": 17.3236933, "lon": 121.7748857, "tags": {"admin_level": "10", "admin_type:PH": "barangay", "is_in:town": "Delfin Albano", "name": "Ragan Norte", "place": "village", "place:PH": "barangay", "source:name": "extrapolated from OSMaPaaralan, way/756135523"}}, {"type": "node", "id": 8038678541, "lat": 17.3982793, "lon": 121.7656857, "tags": {"admin_level": "10", "admin_type:PH": "barangay", "alt_name": "Poblacion", "is_in:town": "Santo Tomas", "name": "Centro", "place": "village", "source:name": "extrapolated from OSMaPaaralan, way/845135422"}}, {"type": "node", "id": 8038751922, "lat": 17.3344997, "lon": 121.7577893, "tags": {"admin_level": "10", "is_in:town": "Delfin Albano", "name": "San Roque", "place": "village", "place:PH": "barangay", "source:name": "extrapolated from OSMaPaaralan"}}, {"type": "node", "id": 8038751962, "lat": 17.3333001, "lon": 121.7516255, "tags": {"admin_level": "10", "is_in:town": "Delfin Albano", "name": "Calinaoan Sur", "place": "village", "place:PH": "barangay", "source:name": "extrapolated from Note 239540"}}, {"type": "node", "id": 8038792838, "lat": 17.3346623, "lon": 121.7619252, "tags": {"admin_level": "10", "is_in:town": "Delfin Albano", "name": "San Patricio", "place": "village", "place:PH": "barangay", "source:name": "extrapolated from Note 2394922"}}, {"type": "node", "id": 8038792839, "lat": 17.3379754, "lon": 121.7594281, "tags": {"admin_level": "10", "is_in:town": "Delfin Albano", "name": "Quibal", "place": "village", "place:PH": "barangay", "source:name": "extrapolated from OSMaPaaralan, way/845444391"}}, {"type": "node", "id": 8038797338, "lat": 17.3409825, "lon": 121.7563502, "tags": {"admin_level": "10", "is_in:town": "Delfin Albano", "name": "San Andres", "place": "village", "place:PH": "barangay", "source:name": "extrapolated from OSMaPaaralan"}}, {"type": "node", "id": 8038817091, "lat": 17.3298231, "lon": 121.7638148, "tags": {"admin_level": "10", "is_in:town": "Delfin Albano", "name": "San Jose", "place": "village", "place:PH": "barangay", "source:name": "extrapolated from OSMaPaaralan, way/771554486"}}, {"type": "node", "id": 8038871176, "lat": 17.3429885, "lon": 121.7550212, "tags": {"admin_level": "10", "is_in:town": "Delfin Albano", "name": "Visitacion", "place": "village", "place:PH": "barangay", "source:name": "extrapolated from Note 2394928"}}, {"type": "node", "id": 8039093416, "lat": 17.3179588, "lon": 121.7078478, "tags": {"admin_level": "10", "admin_type:PH": "barangay", "is_in:town": "Delfin Albano", "name": "Caloocan", "place": "village", "source:name": "extrapolated from OSMaPaaralan"}}, {"type": "node", "id": 8039093426, "lat": 17.321463, "lon": 121.7245701, "tags": {"admin_level": "10", "admin_type:PH": "barangay", "is_in:town": "Delfin Albano", "name": "Bayabo", "place": "village", "source:name": "extrapolated from OSMaPaaralan, way/845447680"}}, {"type": "node", "id": 8039093427, "lat": 17.3136789, "lon": 121.7265805, "tags": {"admin_level": "10", "is_in:town": "Delfin Albano", "name": "Santor", "place": "village", "place:PH": "barangay", "source:name": "extrapolated from OSMaPaaralan, way/847595586"}}, {"type": "node", "id": 8090250937, "lat": 17.5166496, "lon": 121.6270222, "tags": {"admin_level": "10", "admin_type:PH": "barangay", "is_in:town": "Rizal", "name": "Liwan East", "place": "village", "source:name": "extrapolated from OSMaPaaralan, way/862167730"}}, {"type": "node", "id": 8412476575, "lat": 17.396306, "lon": 121.3473415, "tags": {"admin_level": "10", "designation": "barangay", "name": "Suyang", "place": "village", "source": "deped"}}, {"type": "node", "id": 8778425233, "lat": 17.6639874, "lon": 121.7501181}, {"type": "node", "id": 8778425234, "lat": 17.6648218, "lon": 121.7504105}, {"type": "node", "id": 8863487415, "lat": 17.6627657, "lon": 121.7528433}, {"type": "node", "id": 9152733341, "lat": 17.3970969, "lon": 121.5815788, "tags": {"place": "hamlet"}}, {"type": "node", "id": 9152733878, "lat": 17.3667001, "lon": 121.5177369, "tags": {"admin_level": "10", "designation": "barangay", "name": "Bulo", "place": "village"}}, {"type": "node", "id": 9152733989, "lat": 17.4309484, "lon": 121.6169357, "tags": {"admin_level": "10", "admin_type:PH": "barangay", "is_in:town": "Rizal", "name": "Romualdez", "place": "village"}}, {"type": "node", "id": 9152733990, "lat": 17.3869584, "lon": 121.6053593, "tags": {"admin_level": "10", "admin_type:PH": "barangay", "is_in:province": "Isabela", "is_in:town": "Quezon", "name": "Minagbag", "place": "village"}}, {"type": "node", "id": 9152733991, "lat": 17.424465, "lon": 121.5421692, "tags": {"admin_level": "11", "admin_type:PH": "sitio", "is_in:town": "Tabuk", "is_in:village": "Lacnog", "name": "Cataw", "place": "hamlet"}}, {"type": "node", "id": 9152734376, "lat": 17.4239007, "lon": 121.5295333, "tags": {"place": "hamlet"}}, {"type": "node", "id": 9152734377, "lat": 17.4487636, "lon": 121.4917731, "tags": {"place": "hamlet"}}, {"type": "node", "id": 9152734417, "lat": 17.3870966, "lon": 121.5158594, "tags": {"place": "hamlet"}}, {"type": "node", "id": 9152734418, "lat": 17.4000275, "lon": 121.5047014, "tags": {"place": "hamlet"}}, {"type": "node", "id": 9152734586, "lat": 17.3483291, "lon": 121.4300072, "tags": {"place": "hamlet"}}, {"type": "node", "id": 9152734588, "lat": 17.3594502, "lon": 121.4996535, "tags": {"place": "hamlet"}}, {"type": "node", "id": 9152734589, "lat": 17.3946218, "lon": 121.5396854, "tags": {"admin_level": "11", "name": "Dananao", "place": "neighbourhood"}}, {"type": "node", "id": 9152734590, "lat": 17.4006469, "lon": 121.5359062, "tags": {"admin_level": "10", "admin_type:PH": "barangay", "is_in:city": "Tabuk", "name": "Lacnog", "old_ref": "143213038", "place": "village", "population": "3515", "ref": "1403213038", "source:population": "Philippine Statistics Authority"}}, {"type": "node", "id": 9152734682, "lat": 17.4423614, "lon": 121.5190351, "tags": {"admin_level": "10", "designation": "barangay", "name": "Nambaran", "place": "village"}}, {"type": "node", "id": 9152734683, "lat": 17.4345924, "lon": 121.4786786, "tags": {"place": "hamlet"}}, {"type": "node", "id": 9152734684, "lat": 17.3767809, "lon": 121.4373457, "tags": {"place": "hamlet"}}, {"type": "node", "id": 9152734685, "lat": 17.3740265, "lon": 121.5094757, "tags": {"admin_level": "11", "name": "Burubor", "place": "hamlet"}}, {"type": "node", "id": 9152734686, "lat": 17.3865079, "lon": 121.4864302, "tags": {"place": "hamlet"}}, {"type": "node", "id": 9152734687, "lat": 17.3982615, "lon": 121.4605093, "tags": {"place": "hamlet"}}, {"type": "node", "id": 9152734688, "lat": 17.420282, "lon": 121.4870953, "tags": {"place": "hamlet"}}, {"type": "node", "id": 9152734689, "lat": 17.4161617, "lon": 121.4998305, "tags": {"place": "hamlet"}}, {"type": "node", "id": 9152734690, "lat": 17.4094103, "lon": 121.5135795, "tags": {"place": "hamlet"}}, {"type": "node", "id": 9152734691, "lat": 17.3982307, "lon": 121.5160846, "tags": {"place": "hamlet"}}, {"type": "node", "id": 9152735288, "lat": 17.3158578, "lon": 121.5423059, "tags": {"admin_level": "10", "admin_type:PH": "barangay", "name": "Callangigan", "place": "village"}}, {"type": "node", "id": 9152735475, "lat": 17.3601415, "lon": 121.553303, "tags": {"admin_level": "11", "designation": "sitio", "name": "Hilltop", "place": "hamlet"}}, {"type": "node", "id": 9152735476, "lat": 17.3627936, "lon": 121.5360457, "tags": {"admin_level": "11", "designation": "sitio", "name": "Sotto", "place": "hamlet"}}, {"type": "node", "id": 9152735477, "lat": 17.3717943, "lon": 121.4877391, "tags": {"admin_level": "11", "name": "Saudi", "place": "hamlet"}}, {"type": "node", "id": 9152735877, "lat": 17.3518225, "lon": 121.6012434, "tags": {"admin_level": "10", "admin_type:PH": "barangay", "is_in:province": "Isabela", "is_in:town": "Quezon", "name": "Abut", "old_ref": "023122001", "place": "village", "population": "2476", "ref": "0203122001", "source:population": "Philippine Statistics Authority"}}, {"type": "node", "id": 9152736554, "lat": 17.3214144, "lon": 121.5730816, "tags": {"name": "Talaca", "place": "hamlet"}}, {"type": "node", "id": 9154978486, "lat": 17.4080026, "lon": 121.4129805, "tags": {"admin_level": "10", "admin_type:PH": "barangay", "name": "Calanan", "place": "village"}}, {"type": "node", "id": 9154978527, "lat": 17.4064209, "lon": 121.4026487, "tags": {"admin_level": "10", "admin_type:PH": "barangay", "name": "Bado Dangwa", "place": "village"}}, {"type": "node", "id": 9154978528, "lat": 17.4057964, "lon": 121.3345528, "tags": {"admin_level": "11", "is_in:city": "Tabuk", "is_in:village": "Lucog", "name": "Pinagan", "place": "hamlet"}}, {"type": "node", "id": 9154978529, "lat": 17.4040458, "lon": 121.3655591, "tags": {"admin_level": "10", "designation": "barangay", "name": "Bantay", "place": "village"}}, {"type": "node", "id": 9154978530, "lat": 17.3871734, "lon": 121.3479209, "tags": {"place": "hamlet"}}, {"type": "node", "id": 9154978531, "lat": 17.3906238, "lon": 121.3810408, "tags": {"admin_level": "10", "designation": "barangay", "name": "Balawag", "place": "village"}}, {"type": "node", "id": 9154978532, "lat": 17.3952003, "lon": 121.3948059, "tags": {"admin_level": "10", "designation": "barangay", "name": "Malin-awa", "place": "village"}}, {"type": "node", "id": 9154978533, "lat": 17.3879822, "lon": 121.3907719, "tags": {"place": "hamlet"}}, {"type": "node", "id": 9154978534, "lat": 17.3811735, "lon": 121.3591647, "tags": {"place": "hamlet"}}, {"type": "node", "id": 9154978535, "lat": 17.3756239, "lon": 121.3524109, "tags": {"place": "hamlet"}}, {"type": "node", "id": 9154978536, "lat": 17.3641632, "lon": 121.4212552, "tags": {"place": "hamlet"}}, {"type": "node", "id": 9154978673, "lat": 17.3400288, "lon": 121.3796461, "tags": {"place": "hamlet"}}, {"type": "node", "id": 9154978678, "lat": 17.3318561, "lon": 121.3613909, "tags": {"place": "hamlet"}}, {"type": "node", "id": 9154978679, "lat": 17.3347544, "lon": 121.4040059, "tags": {"place": "hamlet"}}, {"type": "node", "id": 9154978781, "lat": 17.3168206, "lon": 121.3972413, "tags": {"place": "hamlet"}}, {"type": "node", "id": 9154978788, "lat": 17.3133791, "lon": 121.4203513, "tags": {"place": "hamlet"}}, {"type": "node", "id": 9154979188, "lat": 17.3177271, "lon": 121.3343543, "tags": {"admin_level": "10", "designation": "barangay", "name": "Mabaca", "place": "village"}}, {"type": "node", "id": 9251961117, "lat": 17.7278499, "lon": 121.6685875, "tags": {"admin_level": "10", "admin_type:PH": "barangay", "is_in:town": "Solana", "name": "Iraga", "place": "village"}}, {"type": "node", "id": 9258816117, "lat": 17.5451606, "lon": 121.7682729, "tags": {"admin_level": "10", "admin_type:PH": "barangay", "is_in:town": "Enrile", "name": "Inga", "place": "village"}}, {"type": "node", "id": 9258834317, "lat": 17.5306501, "lon": 121.7718619, "tags": {"admin_level": "10", "admin_type:PH": "barangay", "is_in:town": "Enrile", "name": "Lemu Norte", "place": "village"}}, {"type": "node", "id": 9318945035, "lat": 17.4955322, "lon": 121.780419, "tags": {"admin_level": "10", "admin_type:PH": "barangay", "name": "Bangad", "place": "village"}}, {"type": "node", "id": 9321479574, "lat": 17.6014616, "lon": 121.6008425, "tags": {"admin_level": "10", "admin_type:PH": "barangay", "name": "Carilucud", "place": "village"}}, {"type": "node", "id": 9321479575, "lat": 17.600375, "lon": 121.5747258, "tags": {"admin_level": "10", "designation": "barangay", "name": "Bantay", "place": "village"}}, {"type": "node", "id": 9354668478, "lat": 17.6334056, "lon": 121.7131786, "tags": {"name": "San Jose Village Phase 2", "place": "neighbourhood"}}, {"type": "node", "id": 9354704782, "lat": 17.6327151, "lon": 121.7142555, "tags": {"name": "San Jose Village Phase 3", "place": "neighbourhood"}}, {"type": "node", "id": 9375851975, "lat": 17.3251425, "lon": 121.5561676, "tags": {"admin_level": "10", "admin_type:PH": "barangay", "is_in:province": "Isabela", "is_in:town": "Quezon", "name": "Lepanto", "place": "village"}}, {"type": "node", "id": 9388413946, "lat": 17.6328772, "lon": 121.7157843, "tags": {"name": "San Jose Village Phase 1", "place": "neighbourhood"}}, {"type": "node", "id": 9393646543, "lat": 17.4104698, "lon": 121.7634112, "tags": {"admin_level": "10", "admin_type:PH": "barangay", "name": "San Rafael Abajo", "place": "village"}}, {"type": "node", "id": 9393666183, "lat": 17.5155229, "lon": 121.7784007, "tags": {"admin_level": "10", "admin_type:PH": "barangay", "name": "Divisoria", "place": "village"}}, {"type": "node", "id": 9393673798, "lat": 17.3664595, "lon": 121.7557025, "tags": {"admin_level": "10", "designation": "barangay", "name": "Malapagay", "place": "village"}}, {"type": "node", "id": 9393679221, "lat": 17.3606547, "lon": 121.7269278, "tags": {"admin_level": "10", "admin_type:PH": "barangay", "is_in:town": "Santo Tomas", "name": "Bubug", "old_ref": "023106008", "place": "village", "population": "1220", "population:2015": "1185", "ref": "0203106008", "source:population": "Philippine Statistics Authority"}}, {"type": "node", "id": 9393679459, "lat": 17.4011972, "lon": 121.7825434, "tags": {"admin_level": "10", "admin_type:PH": "barangay", "is_in:town": "Santo Tomas", "name": "San Vicente", "place": "village"}}, {"type": "node", "id": 9393679752, "lat": 17.4442336, "lon": 121.6784701, "tags": {"admin_level": "11", "admin_type:PH": "sitio", "is_in:town": "Santa Maria", "is_in:village": "Naganacan", "name": "Balagan", "official_name": "Sitio Balagan", "place": "neighbourhood"}}, {"type": "node", "id": 9393679769, "lat": 17.459239, "lon": 121.6839909, "tags": {"admin_level": "10", "designation": "barangay", "name": "Naganacan", "place": "village"}}, {"type": "node", "id": 9393679770, "lat": 17.4792618, "lon": 121.6880947, "tags": {"admin_level": "10", "admin_type:PH": "barangay", "name": "Villabuena", "place": "village"}}, {"type": "node", "id": 9393679796, "lat": 17.4090878, "lon": 121.7689151, "tags": {"admin_level": "10", "admin_type:PH": "barangay", "name": "Amugauan", "place": "village"}}, {"type": "node", "id": 9393684131, "lat": 17.3690604, "lon": 121.7467359, "tags": {"admin_level": "10", "designation": "barangay", "name": "Bagabag", "place": "village"}}, {"type": "node", "id": 9393685519, "lat": 17.4988475, "lon": 121.7839569, "tags": {"admin_level": "10", "admin_type:PH": "barangay", "is_in:town": "Santa Maria", "name": "San Isidro West", "place": "village"}}, {"type": "node", "id": 9393685528, "lat": 17.3856273, "lon": 121.7942512, "tags": {"admin_level": "10", "admin_type:PH": "barangay", "is_in:town": "Santo Tomas", "name": "Bagutari", "place": "village"}}, {"type": "node", "id": 9393686517, "lat": 17.3871324, "lon": 121.7753684, "tags": {"admin_level": "10", "admin_type:PH": "barangay", "name": "San Roque", "place": "village"}}, {"type": "node", "id": 9442459350, "lat": 17.4669556, "lon": 121.5009034, "tags": {"admin_level": "11", "designation": "sitio", "name": "Bayabat", "place": "hamlet"}}, {"type": "node", "id": 9442459406, "lat": 17.4759615, "lon": 121.5085906, "tags": {"admin_level": "11", "designation": "sitio", "name": "Basao", "place": "hamlet"}}, {"type": "node", "id": 9442473615, "lat": 17.4009259, "lon": 121.4047354, "tags": {"name": "Madapdappig", "place": "hamlet"}}, {"type": "node", "id": 9442496853, "lat": 17.5007533, "lon": 121.4691433, "tags": {"admin_level": "11", "designation": "sitio", "name": "Pantar", "place": "hamlet"}}, {"type": "node", "id": 9442500870, "lat": 17.5264369, "lon": 121.4776218, "tags": {"admin_level": "10", "designation": "barangay", "name": "Balong", "place": "village"}}, {"type": "node", "id": 9442501007, "lat": 17.5497053, "lon": 121.4734805, "tags": {"admin_level": "11", "designation": "sitio", "name": "Burayukan", "place": "hamlet"}}, {"type": "node", "id": 9453552173, "lat": 17.3504182, "lon": 121.7419696, "tags": {"admin_level": "10", "designation": "barangay", "name": "Antagan", "place": "village"}}, {"type": "node", "id": 9453569801, "lat": 17.3602951, "lon": 121.7362511, "tags": {"admin_level": "10", "admin_type:PH": "barangay", "name": "Colunguan", "place": "village"}}, {"type": "node", "id": 9505376892, "lat": 17.3887962, "lon": 121.6859865, "tags": {"admin_level": "10", "designation": "barangay", "name": "San Antonio", "place": "village"}}, {"type": "node", "id": 9505566925, "lat": 17.4261617, "lon": 121.7224766, "tags": {"admin_level": "10", "admin_type:PH": "barangay", "name": "Tallag", "place": "village"}}, {"type": "node", "id": 9505623974, "lat": 17.4188988, "lon": 121.7261338, "tags": {"admin_level": "10", "admin_type:PH": "barangay", "name": "Saui", "place": "village"}}, {"type": "node", "id": 9505671518, "lat": 17.4117327, "lon": 121.7394671, "tags": {"admin_level": "10", "admin_type:PH": "barangay", "name": "San Juan", "place": "village"}}, {"type": "node", "id": 9505671519, "lat": 17.4133414, "lon": 121.7328661, "tags": {"admin_level": "10", "admin_type:PH": "barangay", "name": "Aggub", "place": "village"}}, {"type": "node", "id": 9505692043, "lat": 17.4026023, "lon": 121.7523846, "tags": {"admin_level": "10", "admin_type:PH": "barangay", "name": "San Bernardo", "place": "village"}}, {"type": "node", "id": 9505805776, "lat": 17.3867741, "lon": 121.7219067, "tags": {"admin_level": "10", "admin_type:PH": "barangay", "name": "Biga Occidental", "place": "village"}}, {"type": "node", "id": 9505847826, "lat": 17.3780813, "lon": 121.7578483, "tags": {"admin_level": "10", "admin_type:PH": "barangay", "name": "Balelleng", "place": "village"}}, {"type": "node", "id": 9508151839, "lat": 17.3422101, "lon": 121.7202437, "tags": {"admin_level": "10", "admin_type:PH": "barangay", "name": "Barumbung", "place": "village"}}, {"type": "node", "id": 9508165808, "lat": 17.3641351, "lon": 121.7440295, "tags": {"admin_level": "10", "designation": "barangay", "name": "Calanigan Sur", "place": "village"}}, {"type": "node", "id": 9508165809, "lat": 17.3663315, "lon": 121.7457998, "tags": {"admin_level": "10", "designation": "barangay", "name": "Calanigan Norte", "place": "village"}}, {"type": "node", "id": 9509017849, "lat": 17.3525022, "lon": 121.776098, "tags": {"admin_level": "10", "admin_type:PH": "barangay", "name": "Fugu Abajo", "place": "village"}}, {"type": "node", "id": 9509017860, "lat": 17.3579655, "lon": 121.7868913, "tags": {"admin_level": "10", "admin_type:PH": "barangay", "name": "Moldero", "place": "village"}}, {"type": "node", "id": 9509017861, "lat": 17.3520925, "lon": 121.7850298, "tags": {"admin_level": "10", "admin_type:PH": "barangay", "name": "Fermeldy", "place": "village"}}, {"type": "node", "id": 9509027659, "lat": 17.3683846, "lon": 121.7878568, "tags": {"admin_level": "10", "admin_type:PH": "barangay", "name": "Pilig Abajo", "place": "village"}}, {"type": "node", "id": 9510877025, "lat": 17.3383005, "lon": 121.7802581, "tags": {"admin_level": "10", "admin_type:PH": "barangay", "name": "Fugu Sur", "place": "village"}}, {"type": "node", "id": 9510877026, "lat": 17.3349849, "lon": 121.7922074, "tags": {"admin_level": "10", "admin_type:PH": "barangay", "name": "Malamag East", "place": "village"}}, {"type": "node", "id": 9513002382, "lat": 17.534762, "lon": 121.4593318, "tags": {"admin_level": "12", "admin_type:PH": "purok", "is_in:city": "Tabuk", "is_in:village": "Cabaruan", "name": "Centro", "place": "neighbourhood", "source:name": "extrapolated from OSMaPaaralan, way/862475204"}}, {"type": "node", "id": 9581974157, "lat": 17.4583933, "lon": 121.7493322, "tags": {"name": "Mozzozzin North", "place": "village"}}, {"type": "node", "id": 9581974168, "lat": 17.4216106, "lon": 121.7823315, "tags": {"admin_level": "10", "admin_type:PH": "barangay", "is_in:town": "Cabagan", "name": "Ngarag", "place": "village"}}, {"type": "node", "id": 9581974174, "lat": 17.4354374, "lon": 121.7532957, "tags": {"admin_level": "10", "admin_type:PH": "barangay", "name": "Casibarag Norte", "place": "village"}}, {"type": "node", "id": 9581974175, "lat": 17.432154, "lon": 121.7590552, "tags": {"admin_level": "10", "admin_type:PH": "barangay", "name": "Catabayungan", "place": "village"}}, {"type": "node", "id": 9581974176, "lat": 17.4311367, "lon": 121.7554222, "tags": {"admin_level": "10", "admin_type:PH": "barangay", "name": "Casibarag Sur", "place": "village"}}, {"type": "node", "id": 9624230008, "lat": 17.681418, "lon": 121.3984644, "tags": {"admin_level": "10", "designation": "barangay", "name": "Daga", "place": "village"}}, {"type": "node", "id": 9624305086, "lat": 17.68773, "lon": 121.3720286, "tags": {"admin_level": "10", "designation": "barangay", "name": "Puguin", "place": "village"}}, {"type": "node", "id": 9624319181, "lat": 17.7305153, "lon": 121.4235994, "tags": {"admin_level": "11", "designation": "sitio", "name": "Turayok", "place": "hamlet"}}, {"type": "node", "id": 9624348815, "lat": 17.7227421, "lon": 121.3848898, "tags": {"admin_level": "11", "designation": "sitio", "name": "Guedeged", "place": "hamlet"}}, {"type": "node", "id": 9624419256, "lat": 17.7482779, "lon": 121.3632953, "tags": {"admin_level": "10", "designation": "barangay", "name": "Karikitan", "place": "village"}}, {"type": "node", "id": 9624419617, "lat": 17.7382434, "lon": 121.3777524, "tags": {"admin_level": "11", "designation": "sitio", "name": "Gassud", "place": "hamlet"}}, {"type": "node", "id": 9624419618, "lat": 17.7382868, "lon": 121.4004466, "tags": {"admin_level": "10", "designation": "barangay", "name": "Buluan", "place": "village"}}, {"type": "node", "id": 9624603597, "lat": 17.6312874, "lon": 121.538009, "tags": {"admin_level": "10", "admin_type:PH": "barangay", "name": "Bugnay", "place": "village"}}, {"type": "node", "id": 9698494204, "lat": 17.7492742, "lon": 121.4638942, "tags": {"admin_level": "10", "admin_type:PH": "barangay", "is_in:town": "Tuao", "name": "Cagumitan", "place": "village"}}, {"type": "node", "id": 9698494207, "lat": 17.7530114, "lon": 121.470986, "tags": {"admin_level": "10", "admin_type:PH": "barangay", "is_in:town": "Tuao", "name": "Accusilian", "place": "village"}}, {"type": "node", "id": 9698555523, "lat": 17.735658, "lon": 121.4859044, "tags": {"admin_level": "10", "admin_type:PH": "barangay", "is_in:town": "Tuao", "name": "Fugu", "place": "village"}}, {"type": "node", "id": 9698555524, "lat": 17.7289849, "lon": 121.4748216, "tags": {"admin_level": "10", "admin_type:PH": "barangay", "is_in:town": "Tuao", "name": "Alabug", "place": "village"}}, {"type": "node", "id": 9701184455, "lat": 17.5881487, "lon": 121.7613458, "tags": {"admin_level": "10", "admin_type:PH": "barangay", "name": "Gosi Norte", "place": "village"}}, {"type": "node", "id": 9701184456, "lat": 17.5822884, "lon": 121.7650688, "tags": {"admin_level": "10", "admin_type:PH": "barangay", "name": "Gosi Sur", "place": "village"}}, {"type": "node", "id": 9701184457, "lat": 17.5757988, "lon": 121.7698914, "tags": {"admin_level": "10", "admin_type:PH": "barangay", "name": "Tagga", "place": "village"}}, {"type": "node", "id": 9701313127, "lat": 17.5752031, "lon": 121.7279041, "tags": {"admin_level": "10", "admin_type:PH": "barangay", "is_in:town": "Enrile", "name": "Lanna", "place": "village"}}, {"type": "node", "id": 9701313128, "lat": 17.5745152, "lon": 121.7360607, "tags": {"admin_level": "10", "admin_type:PH": "barangay", "is_in:town": "Enrile", "name": "Magalalag East", "place": "village"}}, {"type": "node", "id": 9701313129, "lat": 17.5756045, "lon": 121.7333007, "tags": {"admin_level": "10", "admin_type:PH": "barangay", "is_in:town": "Enrile", "name": "Magalalag West", "place": "village"}}, {"type": "node", "id": 10916589377, "lat": 17.5585063, "lon": 121.7601952, "tags": {"admin_level": "10", "admin_type:PH": "barangay", "is_in:municipality": "Enrile", "name": "Marracuru", "official_name": "Barangay Marracuru", "old_name": "Maracuru", "place": "village"}}, {"type": "node", "id": 11146577080, "lat": 17.6143517, "lon": 121.7085841, "tags": {"name": "Perpetual Village", "place": "neighbourhood"}}, {"type": "node", "id": 11146656406, "lat": 17.6068139, "lon": 121.7149222, "tags": {"name": "Saint Louis Village", "place": "neighbourhood"}}, {"type": "node", "id": 11146745245, "lat": 17.6156785, "lon": 121.7461753, "tags": {"admin_level": "10", "admin_type:PH": "barangay", "name": "Capatan", "place": "village"}}, {"type": "node", "id": 11282384169, "lat": 17.6018528, "lon": 121.7562282, "tags": {"admin_level": "10", "admin_type:PH": "barangay", "name": "Libag Sur", "place": "village"}}, {"type": "node", "id": 11282384170, "lat": 17.5539326, "lon": 121.7828009, "tags": {"admin_level": "10", "admin_type:PH": "barangay", "name": "Namabbalan Norte", "place": "village"}}, {"type": "node", "id": 11360234531, "lat": 17.5701222, "lon": 121.6755179, "tags": {"alt_name": "Bliss Housing", "is_in:municipality": "Enrile", "name": "Bliss", "place": "neighbourhood"}}, {"type": "node", "id": 11801760723, "lat": 17.5727764, "lon": 121.573028, "tags": {"admin_level": "10", "admin_type:PH": "barangay", "name": "Nabbotuan", "place": "village"}}, {"type": "node", "id": 11891182023, "lat": 17.4702497, "lon": 121.7902601, "tags": {"admin_level": "10", "admin_type:PH": "barangay", "name": "Auitan", "place": "village"}}, {"type": "node", "id": 11891351261, "lat": 17.4263357, "lon": 121.7594402, "tags": {"admin_level": "10", "admin_type:PH": "barangay", "name": "Luquilu", "place": "village"}}, {"type": "node", "id": 11891375387, "lat": 17.393255, "lon": 121.767869, "tags": {"admin_level": "10", "admin_type:PH": "barangay", "name": "Bolinao-Culalabo", "place": "village"}}, {"type": "node", "id": 11949869542, "lat": 17.6059843, "lon": 121.6769287, "tags": {"admin_level": "10", "admin_type:PH": "barangay", "is_in:town": "Enrile", "name": "Maddarulug Norte", "place": "village"}}, {"type": "node", "id": 11949869651, "lat": 17.5909331, "lon": 121.677787, "tags": {"admin_level": "10", "admin_type:PH": "barangay", "is_in:town": "Enrile", "name": "Maddarulug Sur", "place": "village"}}, {"type": "node", "id": 11961420714, "lat": 17.3436336, "lon": 121.747452, "tags": {"admin_level": "10", "description": "Calinaoan Centro is the first barangay of the municipality of Santo Tomas, province of Isabela in the Philippines. It is situated in the border of Santo Tomas and Delfin Albano. It's a part of a three-fold system of barangays named 'Calinaoan'.", "image": "https://commons.wikimedia.org/wiki/File:Calinaoan_centro_ricefields.jpg#/media/File:Calinaoan_centro_ricefields.jpg", "is_in:municipality": "Santo Tomas", "name": "Calinaoan Centro", "place": "village", "population": "914", "population:date": "2022-12-31", "postal_code": "3327", "wikidata": "Q23048134"}}, {"type": "node", "id": 12033801298, "lat": 17.7545135, "lon": 121.6103509, "tags": {"admin_level": "10", "admin_type:PH": "barangay", "name": "Nabbialan", "place": "village"}}, {"type": "node", "id": 12097486634, "lat": 17.6125647, "lon": 121.6095757, "tags": {"admin_level": "10", "admin_type:PH": "barangay", "is_in:town": "Solana", "name": "Calilliauan", "place": "village"}}, {"type": "node", "id": 12097486635, "lat": 17.6290073, "lon": 121.6111261, "tags": {"admin_level": "10", "admin_type:PH": "barangay", "is_in:town": "Solana", "name": "Gadu", "place": "village"}}, {"type": "node", "id": 12097501973, "lat": 17.7395003, "lon": 121.5059191, "tags": {"admin_level": "10", "admin_type:PH": "barangay", "name": "Santo Domingo", "place": "village"}}, {"type": "node", "id": 12097501974, "lat": 17.7232416, "lon": 121.5036607, "tags": {"admin_level": "10", "admin_type:PH": "barangay", "name": "Pata", "place": "village"}}, {"type": "node", "id": 12097501975, "lat": 17.7073392, "lon": 121.5488237, "tags": {"admin_level": "10", "admin_type:PH": "barangay", "name": "Villa Reyno", "place": "village"}}, {"type": "node", "id": 12097501976, "lat": 17.7088058, "lon": 121.5380359, "tags": {"admin_level": "10", "admin_type:PH": "barangay", "name": "Lakambini", "place": "village"}}, {"type": "node", "id": 12097512748, "lat": 17.5622948, "lon": 121.5854385, "tags": {"admin_level": "10", "admin_type:PH": "barangay", "name": "Palao", "place": "village"}}, {"type": "node", "id": 12112385044, "lat": 17.3956251, "lon": 121.7941976, "tags": {"admin_level": "10", "admin_type:PH": "barangay", "is_in:town": "Santo Tomas", "name": "Ca\u00f1ogan Abajo Sur", "place": "village"}}, {"type": "node", "id": 12112385045, "lat": 17.3918152, "lon": 121.7837906, "tags": {"admin_level": "10", "admin_type:PH": "barangay", "is_in:town": "Santo Tomas", "name": "Ca\u00f1ogan Alto", "place": "village"}}, {"type": "node", "id": 12112385046, "lat": 17.3856581, "lon": 121.7275714, "tags": {"admin_level": "10", "admin_type:PH": "barangay", "name": "Biga Oriental", "place": "village"}}, {"type": "node", "id": 12112385047, "lat": 17.4021314, "lon": 121.7566627, "tags": {"admin_level": "10", "admin_type:PH": "barangay", "name": "San Rafael Alto", "place": "village"}}, {"type": "node", "id": 12114401403, "lat": 17.4854631, "lon": 121.7662758, "tags": {"admin_level": "10", "admin_type:PH": "barangay", "name": "Calamagui West", "place": "village"}}, {"type": "node", "id": 12114401404, "lat": 17.4877118, "lon": 121.7695427, "tags": {"admin_level": "10", "admin_type:PH": "barangay", "name": "Calamagui East", "place": "village"}}, {"type": "node", "id": 12114401405, "lat": 17.4916438, "lon": 121.7718923, "tags": {"admin_level": "10", "admin_type:PH": "barangay", "name": "Calamagui North", "place": "village"}}, {"type": "node", "id": 12157520381, "lat": 17.6130812, "lon": 121.6371194, "tags": {"admin_level": "10", "admin_type:PH": "barangay", "is_in:town": "Solana", "name": "Cadaanan", "place": "village"}}, {"type": "node", "id": 12157520382, "lat": 17.6240379, "lon": 121.6389835, "tags": {"admin_level": "10", "admin_type:PH": "barangay", "is_in:town": "Solana", "name": "Lannig", "place": "village"}}, {"type": "node", "id": 12157520383, "lat": 17.6299122, "lon": 121.5907466, "tags": {"admin_level": "10", "admin_type:PH": "barangay", "name": "Pataya", "place": "village"}}, {"type": "node", "id": 12157622659, "lat": 17.5659848, "lon": 121.7785764, "tags": {"admin_level": "10", "admin_type:PH": "barangay", "name": "Dadda", "place": "village"}}, {"type": "node", "id": 12157622660, "lat": 17.5474139, "lon": 121.7842519, "tags": {"admin_level": "10", "admin_type:PH": "barangay", "name": "Namabbalan Sur", "place": "village"}}, {"type": "node", "id": 12157691777, "lat": 17.7081619, "lon": 121.4474335, "tags": {"admin_level": "10", "admin_type:PH": "barangay", "is_in:town": "Tuao", "name": "Bagumbayan", "old_ref": "021528005", "place": "village", "population": "4473", "ref": "0201528005", "source:population": "Philippine Statistics Authority"}}, {"type": "node", "id": 12157691778, "lat": 17.719307, "lon": 121.4685988, "tags": {"admin_level": "10", "admin_type:PH": "barangay", "is_in:town": "Tuao", "name": "Mungo", "place": "village"}}, {"type": "node", "id": 12157691785, "lat": 17.7341711, "lon": 121.445163, "tags": {"admin_level": "10", "admin_type:PH": "barangay", "is_in:town": "Tuao", "name": "Cato", "place": "village"}}, {"type": "node", "id": 12157691786, "lat": 17.7444461, "lon": 121.4808163, "tags": {"admin_level": "10", "admin_type:PH": "barangay", "is_in:town": "Tuao", "name": "Alabiao", "place": "village"}}, {"type": "node", "id": 12157691787, "lat": 17.7502807, "lon": 121.4504591, "tags": {"admin_level": "10", "admin_type:PH": "barangay", "is_in:town": "Tuao", "name": "Balagao", "place": "village"}}, {"type": "node", "id": 12158952335, "lat": 17.5373375, "lon": 121.7042698, "tags": {"admin_level": "10", "admin_type:PH": "barangay", "is_in:town": "Enrile", "name": "Batu", "place": "village"}}, {"type": "node", "id": 12159039849, "lat": 17.4001196, "lon": 121.7878461, "tags": {"admin_level": "10", "admin_type:PH": "barangay", "is_in:town": "Santo Tomas", "name": "Ca\u00f1ogan Abajo Norte", "place": "village"}}, {"type": "node", "id": 12185909748, "lat": 17.6648474, "lon": 121.7504222}, {"type": "node", "id": 12185909749, "lat": 17.6640129, "lon": 121.7500175}, {"type": "node", "id": 12185909750, "lat": 17.664326, "lon": 121.7525764}, {"type": "node", "id": 12185909754, "lat": 17.6668095, "lon": 121.7603454}, {"type": "node", "id": 12185909755, "lat": 17.6681123, "lon": 121.7604151}, {"type": "node", "id": 12185909756, "lat": 17.6675513, "lon": 121.7591022}, {"type": "node", "id": 12185909757, "lat": 17.6660971, "lon": 121.7562416}, {"type": "node", "id": 12185909758, "lat": 17.6671335, "lon": 121.7583673}, {"type": "node", "id": 12185909759, "lat": 17.6665316, "lon": 121.7571791}, {"type": "node", "id": 12185909782, "lat": 17.6659783, "lon": 121.7560606}, {"type": "node", "id": 12185909783, "lat": 17.6657674, "lon": 121.7556884}, {"type": "node", "id": 12185909784, "lat": 17.665763, "lon": 121.755612}, {"type": "node", "id": 12185909785, "lat": 17.6652704, "lon": 121.7545974}, {"type": "node", "id": 12185909786, "lat": 17.6645049, "lon": 121.7530726}, {"type": "node", "id": 12185909787, "lat": 17.6650812, "lon": 121.7572568}, {"type": "node", "id": 12185909788, "lat": 17.6667782, "lon": 121.760269}, {"type": "node", "id": 12185909797, "lat": 17.6650014, "lon": 121.7570993}, {"type": "node", "id": 12185909798, "lat": 17.6633459, "lon": 121.7540006}, {"type": "node", "id": 12185909799, "lat": 17.6617639, "lon": 121.748895}, {"type": "node", "id": 12185909800, "lat": 17.6616738, "lon": 121.7507055}, {"type": "node", "id": 12185910101, "lat": 17.661146, "lon": 121.749689}, {"type": "node", "id": 12185910102, "lat": 17.6608808, "lon": 121.7491532}, {"type": "node", "id": 12185910103, "lat": 17.6612981, "lon": 121.7489044}, {"type": "node", "id": 12185910104, "lat": 17.6616182, "lon": 121.748891}, {"type": "node", "id": 12185910105, "lat": 17.6629189, "lon": 121.7486602}, {"type": "node", "id": 12185910106, "lat": 17.663972, "lon": 121.7500041}, {"type": "node", "id": 12185910107, "lat": 17.6633344, "lon": 121.749744}, {"type": "node", "id": 12185910108, "lat": 17.6629446, "lon": 121.749512}, {"type": "node", "id": 12185910109, "lat": 17.6629152, "lon": 121.7485383}, {"type": "node", "id": 12185910110, "lat": 17.6618226, "lon": 121.7495562}, {"type": "node", "id": 12185910111, "lat": 17.6626124, "lon": 121.7498915}, {"type": "node", "id": 12185910112, "lat": 17.6624667, "lon": 121.7483237}, {"type": "node", "id": 12590385272, "lat": 17.6693301, "lon": 121.6556936, "tags": {"admin_level": "10", "admin_type:PH": "barangay", "is_in:town": "Solana", "name": "Maguirig", "place": "village"}}, {"type": "node", "id": 12600893137, "lat": 17.7514583, "lon": 121.6996604, "tags": {"admin_level": "10", "admin_type:PH": "barangay", "is_in:town": "Solana", "name": "Malalam-Malacabibi", "place": "village"}}, {"type": "node", "id": 12600983377, "lat": 17.6885937, "lon": 121.7449093, "tags": {"admin_level": "10", "admin_type:PH": "barangay", "is_in:town": "Iguig", "name": "Bayo", "place": "village"}}, {"type": "node", "id": 12601250741, "lat": 17.6691767, "lon": 121.787653, "tags": {"admin_level": "10", "admin_type:PH": "barangay", "is_in:town": "Pe\u00f1ablanca", "name": "Patagueleg", "place": "village"}}, {"type": "node", "id": 12601268154, "lat": 17.6419951, "lon": 121.7641139, "tags": {"admin_level": "10", "admin_type:PH": "barangay", "is_in:town": "Pe\u00f1ablanca", "name": "Alimannao", "place": "village"}}, {"type": "node", "id": 12601547801, "lat": 17.605749, "lon": 121.5250781, "tags": {"admin_level": "10", "admin_type:PH": "barangay", "is_in:town": "Tuao", "name": "San Juan", "place": "village"}}, {"type": "node", "id": 12604063151, "lat": 17.517073, "lon": 121.637283, "tags": {"admin_level": "10", "admin_type:PH": "barangay", "is_in:town": "Enrile", "name": "Liwan Sur", "place": "village"}}, {"type": "node", "id": 12604063180, "lat": 17.5470431, "lon": 121.6050643, "tags": {"admin_level": "10", "admin_type:PH": "barangay", "is_in:town": "Rizal", "name": "San Quintin", "place": "village"}}, {"type": "node", "id": 12635868750, "lat": 17.5971434, "lon": 121.4457089, "tags": {"admin_level": "10", "admin_type:PH": "barangay", "is_in:town": "Pinukpuk", "name": "Magaogao", "place": "village"}}, {"type": "node", "id": 12635907822, "lat": 17.6755467, "lon": 121.4612013, "tags": {"admin_level": "10", "admin_type:PH": "barangay", "is_in:province": "Cagayan", "is_in:town": "Tuao", "name": "San Luis", "place": "village"}}, {"type": "node", "id": 12635907823, "lat": 17.6505781, "lon": 121.4683923, "tags": {"admin_level": "10", "admin_type:PH": "barangay", "is_in:province": "Kalinga", "is_in:town": "Pinukpuk", "name": "Pinococ", "place": "village"}}, {"type": "node", "id": 12635907824, "lat": 17.6595927, "lon": 121.4881656, "tags": {"admin_level": "10", "admin_type:PH": "barangay", "is_in:province": "Cagayan", "is_in:town": "Tuao", "name": "Malalinta", "place": "village"}}, {"type": "node", "id": 12635962632, "lat": 17.628326, "lon": 121.4954504, "tags": {"admin_level": "10", "admin_type:PH": "barangay", "is_in:province": "Cagayan", "is_in:town": "Tuao", "name": "Bicok", "place": "village"}}, {"type": "node", "id": 12635962633, "lat": 17.619453, "lon": 121.4939511, "tags": {"admin_level": "10", "admin_type:PH": "barangay", "is_in:province": "Cagayan", "is_in:town": "Tuao", "name": "Santo Tomas", "place": "village"}}, {"type": "node", "id": 12636016508, "lat": 17.6477231, "lon": 121.5086979, "tags": {"admin_level": "10", "admin_type:PH": "barangay", "alt_name": "Culung", "is_in:town": "Tuao", "name": "Culong", "place": "village"}}, {"type": "node", "id": 12636016518, "lat": 17.6687691, "lon": 121.5144552, "tags": {"admin_level": "10", "admin_type:PH": "barangay", "is_in:town": "Tuao", "name": "Naruangan", "place": "village"}}, {"type": "node", "id": 12636016519, "lat": 17.6739379, "lon": 121.4986128, "tags": {"admin_level": "10", "admin_type:PH": "barangay", "is_in:town": "Tuao", "name": "Angang", "place": "village"}}, {"type": "node", "id": 12636016520, "lat": 17.6841064, "lon": 121.4986289, "tags": {"admin_level": "10", "admin_type:PH": "barangay", "is_in:town": "Tuao", "name": "Palca", "place": "village"}}, {"type": "node", "id": 12641085611, "lat": 17.4673855, "lon": 121.6316986, "tags": {"admin_level": "11", "admin_type:PH": "sitio", "is_in:town": "Rizal", "is_in:village": "Santor", "name": "Andarayan", "place": "hamlet"}}, {"type": "node", "id": 12641091651, "lat": 17.4839742, "lon": 121.6266239, "tags": {"admin_level": "10", "admin_type:PH": "barangay", "is_in:town": "Rizal", "name": "Santor", "place": "village"}}, {"type": "node", "id": 12641210326, "lat": 17.5028611, "lon": 121.6027334, "tags": {"admin_level": "10", "admin_type:PH": "barangay", "is_in:town": "Rizal", "name": "Calaocan", "place": "village"}}, {"type": "node", "id": 12641211100, "lat": 17.4914801, "lon": 121.5885794, "tags": {"admin_level": "11", "is_in:town": "Rizal", "is_in:village": "Liwan West", "name": "Alibangbang", "place": "hamlet"}}, {"type": "node", "id": 12641244503, "lat": 17.4694221, "lon": 121.6093933, "tags": {"admin_level": "11", "is_in:town": "Rizal", "is_in:village": "Liwan West", "name": "Anonang", "place": "hamlet"}}, {"type": "node", "id": 12641244504, "lat": 17.4979266, "lon": 121.5908968, "tags": {"admin_level": "10", "admin_type:PH": "barangay", "is_in:town": "Rizal", "name": "Liwan West", "place": "village"}}, {"type": "node", "id": 12641304171, "lat": 17.5407748, "lon": 121.580447, "tags": {"admin_level": "10", "admin_type:PH": "barangay", "is_in:town": "Rizal", "name": "Bulbol", "place": "village"}}, {"type": "node", "id": 12641304172, "lat": 17.5288974, "lon": 121.5867287, "tags": {"admin_level": "10", "admin_type:PH": "barangay", "name": "San Pascual", "place": "village"}}, {"type": "way", "id": 220558458, "nodes": [2296682251, 2296682252, 2296682253, 2296682254, 2296682255, 2296682256, 2296682257, 2296682258, 2296682259, 2296682260, 2296682261, 2296682262, 2296682263, 2296682264, 2296682265, 2296682266, 2296682267, 2296682268, 2296682269, 2296682270, 2296682271, 2296682272, 2296682273, 2296682274, 2296682275, 2296682276, 2296682277, 2296682278, 2296682279, 2296682281, 6042364785, 2296682282, 2296682251], "tags": {"landuse": "residential", "name": "Wonderland Subdivision", "place": "neighbourhood"}}, {"type": "way", "id": 636424313, "nodes": [6001653059, 6001653060, 6001653061, 6001653062, 6001653063, 6001653064, 6001653065, 6001653059], "tags": {"landuse": "residential", "place": "neighbourhood"}}, {"type": "way", "id": 1316641522, "nodes": [8778425234, 8778425233, 12185909749]}, {"type": "way", "id": 1316641523, "nodes": [12185909749, 12185910106]}, {"type": "way", "id": 1316641524, "nodes": [12185909786, 12185909750, 12185909748, 8778425234]}, {"type": "way", "id": 1316641527, "nodes": [12185909782, 12185909757, 12185909759, 12185909758, 12185909756, 12185909755, 12185909754, 12185909788]}, {"type": "way", "id": 1316641535, "nodes": [12185909786, 12185909785, 12185909784, 12185909783, 12185909782], "tags": {"barrier": "wall"}}, {"type": "way", "id": 1316641536, "nodes": [12185909797, 12185909787]}, {"type": "way", "id": 1316641537, "nodes": [12185909787, 12185909788], "tags": {"barrier": "wall"}}, {"type": "way", "id": 1316641540, "nodes": [12185910104, 12185909799, 12185910110]}, {"type": "way", "id": 1316641541, "nodes": [12185910104, 12185910103, 12185910102, 12185910101, 12185909800, 8863487415, 12185909798, 12185909797], "tags": {"barrier": "wall"}}, {"type": "way", "id": 1316641542, "nodes": [12185910105, 12185910109, 12185910112]}, {"type": "way", "id": 1316641543, "nodes": [12185910106, 12185910107, 12185910108, 12185910105], "tags": {"barrier": "wall"}}, {"type": "way", "id": 1316641544, "nodes": [12185910112, 12185910111, 12185910110], "tags": {"barrier": "wall"}}, {"type": "relation", "id": 18066719, "members": [{"type": "way", "ref": 1316641524, "role": "outer"}, {"type": "way", "ref": 1316641522, "role": "outer"}, {"type": "way", "ref": 1316641523, "role": "outer"}, {"type": "way", "ref": 1316641543, "role": "outer"}, {"type": "way", "ref": 1316641542, "role": "outer"}, {"type": "way", "ref": 1316641544, "role": "outer"}, {"type": "way", "ref": 1316641540, "role": "outer"}, {"type": "way", "ref": 1316641541, "role": "outer"}, {"type": "way", "ref": 1316641536, "role": "outer"}, {"type": "way", "ref": 1316641537, "role": "outer"}, {"type": "way", "ref": 1316641527, "role": "outer"}, {"type": "way", "ref": 1316641535, "role": "outer"}], "tags": {"boundary": "landuse", "landuse": "residential", "name": "Av\u00edda Settings Tuguegarao", "place": "neighbourhood", "previously": "n8863487415", "residential": "detached", "type": "boundary"}}]}