{"version": 0.6, "generator": "Overpass API 0.7.62.5 1bd436f1", "osm3s": {"timestamp_osm_base": "2025-05-24T17:56:16Z", "copyright": "The data included in this document is from www.openstreetmap.org. The data is made available under ODbL."}, "elements": [{"type": "node", "id": 198507762, "lat": 10.5264005, "lon": 122.5400201, "tags": {"admin_level": "6", "admin_type:PH": "municipality", "name": "Nueva Valencia", "name:ka": "\u10dc\u10e3\u10d4\u10d5\u10d0-\u10d5\u10d0\u10da\u10d4\u10dc\u10e1\u10d8\u10d0", "old_ref": "067903000", "place": "town", "population": "42771", "population:date": "2020-05-01", "ref": "0607903000", "source:population": "Philippine Statistics Authority", "wikidata": "Q313810", "wikimedia_commons": "Category:Nueva Valencia", "wikipedia": "en:Nueva Valencia"}}, {"type": "node", "id": 1813380543, "lat": 10.4678596, "lon": 122.4886497, "tags": {"name": "Tando", "place": "village"}}, {"type": "node", "id": 3095207544, "lat": 10.5117996, "lon": 122.5232899, "tags": {"admin_level": "10", "admin_type:PH": "barangay", "name": "Igang", "old_ref": "067903007", "place": "village", "population": "1820", "population:2015": "1781", "ref": "0607903007"}}, {"type": "node", "id": 3095207545, "lat": 10.5011175, "lon": 122.5220215, "tags": {"name": "Santo. Domingo", "place": "village"}}, {"type": "node", "id": 3095207546, "lat": 10.5037416, "lon": 122.513559, "tags": {"name": "Magamay", "place": "village"}}, {"type": "node", "id": 3095210079, "lat": 10.4988722, "lon": 122.4993365, "tags": {"is_in:town": "Nueva Valencia", "name": "Pandaraonan", "place": "village"}}, {"type": "node", "id": 3095210080, "lat": 10.491053, "lon": 122.4839805, "tags": {"name": "Dolores", "place": "village"}}, {"type": "node", "id": 3095210081, "lat": 10.4865563, "lon": 122.5158924, "tags": {"name": "Napandong", "place": "village"}}, {"type": "node", "id": 3095210082, "lat": 10.4652187, "lon": 122.535504, "tags": {"name": "Lucmayan", "place": "village"}}, {"type": "node", "id": 3095210083, "lat": 10.4479307, "lon": 122.5155262, "tags": {"fixme": "name", "place": "neighbourhood"}}, {"type": "node", "id": 3095210084, "lat": 10.4441112, "lon": 122.534366, "tags": {"name": "Salvacion", "place": "village"}}, {"type": "node", "id": 3095211892, "lat": 10.4088815, "lon": 122.5243707, "tags": {"admin_level": "10", "admin_type:PH": "barangay", "is_in:town": "Nueva Valencia", "name": "La Paz", "old_ref": "067903009", "place": "village", "population": "2204", "population:2015": "1921", "ref": "0607903009", "source": "extrapolation", "source_ref": "https://osm.org/way/707044720"}}, {"type": "node", "id": 3095213586, "lat": 10.4154872, "lon": 122.5485659, "tags": {"admin_level": "10", "admin_type:PH": "barangay", "name": "Cabalagnan", "old_ref": "067903001", "place": "village", "population": "1972", "population:2015": "1849", "ref": "0607903001", "source": "extrapolation", "source_ref": "https://osm.org/way/707934339"}}, {"type": "node", "id": 3095213587, "lat": 10.4262765, "lon": 122.5568055, "tags": {"name": "Canhawan", "place": "village"}}, {"type": "node", "id": 3095215135, "lat": 10.4358651, "lon": 122.5625904, "tags": {"name": "Igdarapdap", "place": "village"}}, {"type": "node", "id": 3095221433, "lat": 10.4577685, "lon": 122.5921431, "tags": {"name": "San Antonio", "place": "village"}}, {"type": "node", "id": 3095221434, "lat": 10.4784286, "lon": 122.585443, "tags": {"name": "Calaya", "place": "village"}}, {"type": "node", "id": 3095221435, "lat": 10.4618949, "lon": 122.5531277, "tags": {"name": "Lanipe", "place": "village"}}, {"type": "node", "id": 3095224448, "lat": 10.4043642, "lon": 122.5768299, "tags": {"admin_level": "10", "admin_type:PH": "barangay", "name": "Panobolon", "old_ref": "067903016", "place": "village", "population": "1086", "population:date": "2020-05-01", "ref": "0607903016", "source:population": "Philippine Statistics Authority", "wikidata": "Q123499450"}}, {"type": "node", "id": 3095224449, "lat": 10.4072019, "lon": 122.5530552, "tags": {"name": "Yato", "place": "village"}}, {"type": "node", "id": 3095224450, "lat": 10.3972845, "lon": 122.5995192, "tags": {"admin_level": "10", "admin_type:PH": "barangay", "alt_name": "Guiuanon", "name": "Guiwanon", "old_ref": "067903006", "place": "village", "population": "1879", "population:date": "2020-05-01", "ref": "0607903006", "source:population": "Philippine Statistics Authority", "wikidata": "Q123499629"}}, {"type": "node", "id": 3095224451, "lat": 10.3357238, "lon": 122.5882823, "tags": {"name": "Unisan", "place": "hamlet"}}, {"type": "node", "id": 3658518329, "lat": 10.5919964, "lon": 122.7021327, "tags": {"admin_level": "6", "gns_classification": "ADM2", "is_in:province": "Guimaras", "name": "San Lorenzo", "name:ka": "\u10e1\u10d0\u10dc-\u10da\u10dd\u10e0\u10d4\u10dc\u10e1\u10dd", "place": "town", "place:PH": "municipality", "population": "26112", "population:date": "2015-08-01", "source:population": "Philippine Statistics Authority", "wikidata": "Q313825", "wikimedia_commons": "Category:San Lorenzo, Guimaras", "wikipedia": "en:San Lorenzo, Guimaras"}}, {"type": "node", "id": 3658518330, "lat": 10.5036984, "lon": 122.6306958, "tags": {"admin_level": "6", "gns_classification": "ADM2", "is_in:province": "Guimaras", "name": "Sibunag", "name:ka": "\u10e1\u10d8\u10d1\u10e3\u10dc\u10d0\u10d2\u10d8", "place": "town", "place:PH": "municipality", "population": "23162", "population:date": "2020-05-01", "postal_code": "5048", "ref": "067905000", "source:population": "Wikipedia", "wikidata": "Q313844", "wikimedia_commons": "Category:Sibunag", "wikipedia": "en:Sibunag"}}, {"type": "node", "id": 4733492240, "lat": 10.5324464, "lon": 122.5184613, "tags": {"admin_level": "11", "admin_type:PH": "sitio", "is_in": "Poblacion;Nueva Valencia", "name": "Alubihod", "place": "neighbourhood"}}, {"type": "node", "id": 4736284907, "lat": 10.595228, "lon": 122.5879534, "tags": {"admin_level": "10", "is_in:town": "Jordan", "name": "San Miguel", "place": "village", "place:PH": "barangay", "wikidata": "Q18351169", "wikipedia": "en:Alibhon"}}, {"type": "node", "id": 5447723137, "lat": 10.4468906, "lon": 122.6206938, "tags": {"admin_level": "10", "is_in:municipality": "Sibunag", "name": "Alegria", "place": "village", "postal_code": "5048", "ref": "067905001"}}, {"type": "node", "id": 5447723138, "lat": 10.4570221, "lon": 122.6350834, "tags": {"admin_level": "10", "designation": "barangay", "is_in:municipality": "Sibunag", "name": "San Isidro", "place": "village", "postal_code": "5048", "ref": "067905012"}}, {"type": "node", "id": 5956254645, "lat": 10.5410046, "lon": 122.6869895, "tags": {"admin_level": "10", "admin_type:PH": "barangay", "is_in:town": "San Lorenzo", "name": "Igcawayan", "place": "village"}}, {"type": "node", "id": 6154446416, "lat": 10.6263167, "lon": 122.5733889, "tags": {"name": "Balcon Maravilla", "place": "village"}}, {"type": "node", "id": 6365377776, "lat": 10.452638, "lon": 122.7241979, "tags": {"name": "Inampulugan", "place": "village"}}, {"type": "node", "id": 6365378091, "lat": 10.4862521, "lon": 122.6560225, "tags": {"admin_level": "10", "designation": "barangay", "is_in:municipality": "Sibunag", "name": "Sabang", "place": "village", "postal_code": "5048", "ref": "067905011"}}, {"type": "node", "id": 6365378092, "lat": 10.5025414, "lon": 122.6705872, "tags": {"admin_level": "10", "designation": "barangay", "is_in:municipality": "Sibunag", "name": "Sebaste", "place": "village", "postal_code": "5048", "ref": "067905013"}}, {"type": "node", "id": 6365378093, "lat": 10.4977743, "lon": 122.6628983, "tags": {"admin_level": "10", "designation": "barangay", "is_in:municipality": "Sibunag", "name": "Bubog", "place": "village", "postal_code": "5048", "ref": "067905003"}}, {"type": "node", "id": 6365378105, "lat": 10.5269869, "lon": 122.6759802, "tags": {"name": "Sebario", "place": "village"}}, {"type": "node", "id": 6367439612, "lat": 10.4916214, "lon": 122.6285099, "tags": {"admin_level": "10", "admin_type:PH": "barangay", "alt_name": "Poblacion", "is_in:municipality": "Sibunag", "name": "Dasal", "place": "village", "postal_code": "5048"}}, {"type": "node", "id": 6367439748, "lat": 10.5497673, "lon": 122.691591, "tags": {"name": "Crossing Cabano", "place": "hamlet"}}, {"type": "node", "id": 6367439792, "lat": 10.5855006, "lon": 122.6987367, "tags": {"name": "Cabano", "place": "village"}}, {"type": "node", "id": 6367439818, "lat": 10.599951, "lon": 122.7061175, "tags": {"admin_level": "10", "admin_type:PH": "barangay", "is_in:town": "San Lorenzo", "name": "M. Chavez", "place": "village"}}, {"type": "node", "id": 6367439843, "lat": 10.6148233, "lon": 122.7133683, "tags": {"name": "Suclaran", "place": "village"}}, {"type": "node", "id": 6367439844, "lat": 10.6167656, "lon": 122.6940871, "tags": {"admin_level": "10", "admin_type:PH": "barangay", "is_in:town": "San Lorenzo", "name": "Cabungahan", "place": "village"}}, {"type": "node", "id": 6367439866, "lat": 10.628454, "lon": 122.6798809, "tags": {"name": "Gaban", "place": "village"}}, {"type": "node", "id": 6367439872, "lat": 10.6299022, "lon": 122.7168383, "tags": {"admin_type:PH": "sitio", "name": "Langab", "place": "hamlet"}}, {"type": "node", "id": 6367439906, "lat": 10.6264352, "lon": 122.6579455, "tags": {"admin_level": "10", "admin_type:PH": "barangay", "is_in:town": "San Lorenzo", "name": "Aguilar", "old_ref": "067904001", "place": "village", "population": "1879", "population:2015": "1868", "ref": "0607904001"}}, {"type": "node", "id": 6367439919, "lat": 10.5929658, "lon": 122.6433416, "tags": {"admin_level": "10", "designation": "barangay", "name": "Constancia", "place": "village", "postal_code": "5047"}}, {"type": "node", "id": 6367439932, "lat": 10.5518416, "lon": 122.6476868, "tags": {"name": "Sapal", "place": "village"}}, {"type": "node", "id": 6367439950, "lat": 10.5566942, "lon": 122.6124127, "tags": {"name": "Millan", "place": "village"}}, {"type": "node", "id": 6367439979, "lat": 10.5599483, "lon": 122.5889089, "tags": {"name": "Tanglad", "place": "village"}}, {"type": "node", "id": 6367439980, "lat": 10.5257593, "lon": 122.6273831, "tags": {"admin_level": "10", "admin_type:PH": "barangay", "name": "Maabay", "place": "village"}}, {"type": "node", "id": 6367439981, "lat": 10.5184598, "lon": 122.6385411, "tags": {"name": "Liningwan", "place": "hamlet"}}, {"type": "node", "id": 6367440090, "lat": 10.5253913, "lon": 122.5875686, "tags": {"name": "Ayangan", "place": "village"}}, {"type": "node", "id": 6369354003, "lat": 10.5499807, "lon": 122.5607014, "tags": {"name": "Ravina", "place": "village"}}, {"type": "node", "id": 6369354012, "lat": 10.5572719, "lon": 122.5477225, "tags": {"name": "Buluangan", "place": "village"}}, {"type": "node", "id": 6369354021, "lat": 10.5598381, "lon": 122.5364021, "tags": {"name": "Lawi", "place": "village"}}, {"type": "node", "id": 6369354043, "lat": 10.5789906, "lon": 122.5196151, "tags": {"name": "Sinapsapan", "place": "village"}}, {"type": "node", "id": 6369354072, "lat": 10.5913278, "lon": 122.5606758, "tags": {"admin_level": "10", "admin_type:PH": "barangay", "is_in:town": "Jordan", "name": "Santa Teresa", "old_ref": "067902031", "place": "village", "population": "5317", "population:2015": "5208", "ref": "0607902031", "source:population": "Philippine Statistics Authority"}}, {"type": "node", "id": 6369356453, "lat": 10.6243636, "lon": 122.5515296, "tags": {"name": "Morobuan", "place": "village"}}, {"type": "node", "id": 6369356528, "lat": 10.530287, "lon": 122.56151, "tags": {"name": "Concordia Norte", "place": "village"}}, {"type": "node", "id": 6369356529, "lat": 10.5140002, "lon": 122.5551371, "tags": {"name": "Concordia Sur", "place": "village"}}, {"type": "node", "id": 6369356550, "lat": 10.5085256, "lon": 122.5798731, "tags": {"name": "Oracon Norte", "place": "village"}}, {"type": "node", "id": 6369356551, "lat": 10.5019434, "lon": 122.5640954, "tags": {"name": "Oracon Sur", "place": "village"}}, {"type": "node", "id": 6369680179, "lat": 10.5849809, "lon": 122.5846782, "tags": {"name": "Sitio Bliss", "place": "hamlet"}}, {"type": "node", "id": 6369854668, "lat": 10.6206069, "lon": 122.5989315, "tags": {"admin_level": "10", "designation": "barangay", "name": "Alaguisoc", "place": "village", "postal_code": "5045"}}, {"type": "node", "id": 6377208782, "lat": 10.6051309, "lon": 122.5455932, "tags": {"name": "Espinosa", "place": "village"}}, {"type": "node", "id": 7314883175, "lat": 10.5936087, "lon": 122.6209598, "tags": {"name": "Bugnay", "place": "village"}}, {"type": "node", "id": 7605066001, "lat": 10.5726775, "lon": 122.6691072, "tags": {"alt_name": "Tangao", "name": "Tangaw", "place": "neighbourhood"}}, {"type": "node", "id": 7679081215, "lat": 10.6027363, "lon": 122.6793444, "tags": {"admin_level": "11", "designation": "sitio", "name": "Miagos", "place": "neighbourhood"}}, {"type": "node", "id": 9555691017, "lat": 10.5082867, "lon": 122.5152759, "tags": {"name": "Katilaran", "place": "neighbourhood", "source:name": "extrapolated from https://osm.org/note/3073401"}}, {"type": "node", "id": 9849239238, "lat": 10.473347, "lon": 122.5186746, "tags": {"admin_level": "10", "admin_type:PH": "barangay", "is_in:town": "Nueva Valencia", "name": "Lucmayan", "old_ref": "067903011", "place": "village", "population": "2441", "population:2015": "2192", "ref": "0607903011"}}, {"type": "node", "id": 9849239248, "lat": 10.4296839, "lon": 122.5145233, "tags": {"admin_level": "11", "admin_type:PH": "sitio", "is_in": "San Roque;Nueva Valencia", "name": "Talabahan", "place": "neighbourhood", "source": "extrapolation", "source_ref": "https://osm.org/way/707038473"}}, {"type": "node", "id": 9849275585, "lat": 10.4359905, "lon": 122.5145723, "tags": {"admin_level": "10", "admin_type:PH": "barangay", "is_in:town": "Nueva Valencia", "name": "San Roque", "old_ref": "067903020", "place": "village", "population": "1789", "population:2015": "1731", "ref": "0607903020"}}, {"type": "node", "id": 9849295177, "lat": 10.41475, "lon": 122.5452912, "tags": {"admin_level": "11", "admin_type:PH": "sitio", "is_in": "Cabalagnan;Nueva Valencia", "name": "Pag-asa", "place": "neighbourhood"}}]}