{"version": 0.6, "generator": "Overpass API 0.7.62.5 1bd436f1", "osm3s": {"timestamp_osm_base": "2025-05-24T17:57:16Z", "copyright": "The data included in this document is from www.openstreetmap.org. The data is made available under ODbL."}, "elements": [{"type": "node", "id": 198491048, "lat": 7.9759459, "lon": 122.6638655, "tags": {"admin_level": "6", "admin_type:PH": "municipality", "gns_classification": "ADM2", "gns_uni": "-3382217", "is_in:province": "Zamboanga del Norte", "name": "Tampilisan", "old_ref": "097221000", "place": "town", "population": "24680", "population:date": "2020-05-01", "ref": "0907221000", "source": "GNS", "source:population": "Philippine Statistics Authority", "wikidata": "Q132617", "wikimedia_commons": "Category:Tampilisan", "wikipedia": "en:Tampilisan"}}, {"type": "node", "id": 198505684, "lat": 7.9809872, "lon": 122.4052632, "tags": {"admin_level": "6", "admin_type:PH": "municipality", "gns_classification": "ADM2", "gns_uni": "-3347051", "is_in:province": "Zamboanga del Norte", "name": "Gutalac", "place": "town", "population": "36090", "population:date": "2020-05-01", "source": "GNS", "source:population": "Philippine Statistics Authority", "wikidata": "Q132507", "wikimedia_commons": "Category:Gutalac", "wikipedia": "en:Gutalac"}}, {"type": "node", "id": 198512170, "lat": 8.1215661, "lon": 122.6737425, "tags": {"admin_level": "6", "admin_type:PH": "municipality", "gns_classification": "ADM2", "gns_uni": "-3354270", "is_in:province": "Zamboanga del Norte", "name": "Liloy", "place": "town", "population": "39812", "population:date": "2015-08-01", "ref": "097206000", "source": "GNS", "source:population": "Philippine Statistics Authority", "wikidata": "Q132553", "wikimedia_commons": "Category:Liloy", "wikipedia": "en:Liloy"}}, {"type": "node", "id": 198515085, "lat": 8.0650994, "lon": 122.5249426, "tags": {"admin_level": "6", "admin_type:PH": "municipality", "gns_classification": "ADM2", "gns_uni": "-3351900", "is_in:province": "Zamboanga del Norte", "name": "Labason", "old_ref": "097205000", "place": "town", "population": "43934", "population:date": "2020-05-01", "ref": "0907205000", "source": "GNS", "source:population": "Philippine Statistics Authority", "wikidata": "Q132535", "wikimedia_commons": "Category:Labasonry:Labason", "wikipedia": "en:Labason"}}, {"type": "node", "id": 8009255547, "lat": 8.104046, "lon": 122.6273522, "tags": {"admin_level": "10", "admin_type:PH": "barangay", "is_in:municipality": "Liloy", "name": "Patawag", "note": "There's a namesae village under the jurisdiciton of another municipality nearby.", "old_ref": "097206021", "place": "village", "population": "938", "population:2015": "807", "population:date": "2020-05-01"}}, {"type": "node", "id": 9172202073, "lat": 7.979266, "lon": 122.592726, "tags": {"admin_level": "10", "designation": "barangay", "is_in:town": "Kalawit", "name": "Botong", "place": "village"}}, {"type": "node", "id": 9172202074, "lat": 8.0117917, "lon": 122.6237137, "tags": {"admin_level": "10", "admin_type:PH": "barangay", "is_in:municipality": "Kalawit", "name": "San Jose", "old_ref": "097227013", "place": "village", "population": "1499", "ref": "0907227013", "source:population": "Philippine Statistics Authority"}}, {"type": "node", "id": 9172202080, "lat": 8.0326291, "lon": 122.6099216, "tags": {"admin_level": "10", "admin_type:PH": "barangay", "is_in:municipality": "Kalawit", "name": "Pianon", "old_ref": "097227012", "place": "village", "population": "1883", "population:2015": "2182", "population:date": "2020-05-01"}}, {"type": "node", "id": 9172202087, "lat": 7.9814468, "lon": 122.6190653, "tags": {"admin_level": "10", "designation": "barangay", "is_in:town": "Kalawit", "name": "Concepcion", "place": "village"}}, {"type": "node", "id": 9172275313, "lat": 7.9985619, "lon": 122.5988106, "tags": {"admin_level": "10", "admin_type:PH": "barangay", "is_in:municipality": "Kalawit", "name": "Fatima", "old_name": "Lacsutan", "old_ref": "097227005", "place": "village", "population": "1139", "population:2015": "1215", "population:date": "2020-05-01"}}, {"type": "node", "id": 9347973954, "lat": 7.9585189, "lon": 122.3452292, "tags": {"admin_level": "10", "admin_type:PH": "barangay", "is_in:municipality": "Gutalac", "name": "Cocob", "old_ref": "097223002", "place": "village", "population": "1159", "population:2015": "1228", "population:date": "2020-05-01"}}, {"type": "node", "id": 9347983541, "lat": 8.0221528, "lon": 122.3711354, "tags": {"admin_level": "10", "admin_type:PH": "barangay", "is_in:town": "Gutalac", "name": "Sibalic", "place": "village", "source:name": "extrapolated from OSMaPaaralan, way/904354408"}}, {"type": "node", "id": 9347989872, "lat": 8.0610023, "lon": 122.4531654, "tags": {"admin_level": "10", "admin_type:PH": "barangay", "is_in:municipality": "Gutalac", "name": "Loay", "old_ref": "097223018", "place": "village", "population": "1985", "population:2015": "1210", "population:date": "2020-05-01"}}, {"type": "node", "id": 9348030596, "lat": 7.9753328, "lon": 122.3787066, "tags": {"admin_level": "10", "admin_type:PH": "barangay", "is_in:municipality": "Gutalac", "name": "Upper Gutalac", "old_ref": "097223031", "place": "village", "population": "1677", "population:2015": "1452", "population:date": "2020-05-01"}}, {"type": "node", "id": 9348034375, "lat": 8.0058249, "lon": 122.4133587, "tags": {"admin_level": "10", "admin_type:PH": "barangay", "is_in:municipality": "Gutalac", "name": "Lux", "old_ref": "097223005", "place": "village", "population": "1206", "population:2015": "1135", "population:date": "2020-05-01"}}, {"type": "node", "id": 9348041611, "lat": 8.0592827, "lon": 122.4776834, "tags": {"admin_level": "11", "admin_type:PH": "purok", "is_in:barangay": "Kipit", "is_in:municipality": "Labason", "name": "Poblacion", "place": "neighbourhood"}}, {"type": "node", "id": 9348041612, "lat": 8.0579761, "lon": 122.4772784, "tags": {"admin_level": "10", "admin_type:PH": "barangay", "is_in:town": "Labason", "name": "Kipit", "place": "village", "source:name": "extrapolated from OSMaPaaralan, way/904355920"}}, {"type": "node", "id": 9348045062, "lat": 8.0585113, "lon": 122.4670753, "tags": {"admin_level": "10", "admin_type:PH": "barangay", "is_in:municipality": "Gutalac", "name": "La Libertad", "old_ref": "097223004", "place": "village", "population": "1382", "population:2015": "1306", "population:date": "2020-05-01"}}, {"type": "node", "id": 9348067151, "lat": 7.9864604, "lon": 122.394319, "tags": {"admin_level": "10", "admin_type:PH": "barangay", "is_in:municipality": "Gutalac", "name": "Matunoy", "old_ref": "097223021", "place": "village", "population": "582", "population:2015": "760", "population:date": "2020-05-01", "ref": "0907223021"}}, {"type": "node", "id": 9348067164, "lat": 7.9995858, "lon": 122.3892604, "tags": {"admin_level": "10", "admin_type:PH": "barangay", "is_in:municipality": "Gutalac", "name": "San Vicente", "old_ref": "097223028", "place": "village", "population": "1247", "population:2015": "1596", "population:date": "2020-05-01"}}, {"type": "node", "id": 9348081436, "lat": 7.9872227, "lon": 122.3724765, "tags": {"admin_level": "10", "admin_type:PH": "barangay", "is_in:municipality": "Gutalac", "name": "Buenavista", "old_ref": "097223015", "place": "village", "population": "852", "population:2015": "855", "population:date": "2020-05-01"}}, {"type": "node", "id": 9351628837, "lat": 8.0164756, "lon": 122.6971498, "tags": {"admin_level": "10", "admin_type:PH": "barangay", "is_in:municipality": "Tampilisan", "name": "Molos", "old_ref": "097221004", "place": "village", "population": "1350", "population:2015": "1273", "population:date": "2020-05-01"}}, {"type": "node", "id": 9351710291, "lat": 8.0006402, "lon": 122.6009846, "tags": {"fixme": "name", "place": "neighbourhood"}}, {"type": "node", "id": 9354264297, "lat": 8.120359, "lon": 122.6785749, "tags": {"is_in:town": "Liloy", "name": "Poblacion", "place": "suburb"}}, {"type": "node", "id": 9354336273, "lat": 8.1117128, "lon": 122.6410114, "tags": {"admin_level": "10", "admin_type:PH": "barangay", "is_in:municipality": "Liloy", "name": "Banigan", "official_name": "Barangay Banigan", "old_ref": "097206001", "place": "village", "population": "1270", "population:2015": "1220", "population:date": "2020-05-01"}}, {"type": "node", "id": 9354357634, "lat": 8.0873494, "lon": 122.6379312, "tags": {"admin_level": "10", "admin_type:PH": "barangay", "is_in:town": "Liloy", "name": "Mabuhay", "place": "village", "source:name": "extrapolated from OSMaPaaralan, way/904008738"}}, {"type": "node", "id": 9354379196, "lat": 8.1283943, "lon": 122.6742895, "tags": {"admin_level": "11", "admin_type:PH": "purok", "is_in:barangay": "Villa Calixto Sudiacal", "is_in:municipality": "Liloy", "name": "Rizal", "place": "neighbourhood"}}, {"type": "node", "id": 9738974728, "lat": 8.0440532, "lon": 122.5203815, "tags": {"admin_level": "10", "admin_type:PH": "barangay", "is_in:municipality": "Labason", "name": "Lawigan", "old_ref": "097205021", "place": "village", "population": "1224", "population:2015": "1404", "population:date": "2020-05-01", "ref": "0907205021"}}, {"type": "node", "id": 9738974737, "lat": 8.0476771, "lon": 122.5159773, "tags": {"is_in:town": "Labason", "is_in:village": "Lawigan", "name": "Ipil-ipil", "place": "neighbourhood", "source:name": "extrapolated from relation:12281158"}}, {"type": "node", "id": 9738983119, "lat": 8.04811, "lon": 122.529678, "tags": {"admin_level": "10", "admin_type:PH": "barangay", "is_in:municipality": "Labason", "name": "La Union", "old_ref": "097205017", "place": "village", "population": "2188", "population:2015": "2041", "population:date": "2020-05-01", "ref": "0907205017"}}, {"type": "node", "id": 10203752613, "lat": 8.0816034, "lon": 122.717776, "tags": {"place": "village"}}, {"type": "node", "id": 10203757951, "lat": 8.098065, "lon": 122.7032947, "tags": {"place": "village"}}, {"type": "node", "id": 10203757952, "lat": 8.092446, "lon": 122.7133048, "tags": {"place": "village"}}, {"type": "node", "id": 10203758053, "lat": 8.0821, "lon": 122.6965248, "tags": {"place": "village"}}, {"type": "node", "id": 11035992429, "lat": 8.0613064, "lon": 122.5125575, "tags": {"admin_level": "10", "admin_type:PH": "barangay", "is_in:municipality": "Labason", "name": "Osukan", "official_name": "Barangay Osukan", "old_ref": "097205027", "place": "village", "population": "4410", "ref": "0907205027", "source:population": "Philippine Statistics Authority"}}, {"type": "node", "id": 12410494101, "lat": 8.0328176, "lon": 122.4316212, "tags": {"admin_level": "10", "admin_type:PH": "barangay", "is_in:municipality": "Gutalac", "name": "Imelda", "old_ref": "097223017", "place": "village", "population": "1511", "ref": "0907223017", "source:population": "Philippine Statistics Authority"}}, {"type": "node", "id": 12410497076, "lat": 8.0280642, "lon": 122.4193494, "tags": {"admin_level": "10", "admin_type:PH": "barangay", "is_in:municipality": "Gutalac", "name": "San Roque", "old_ref": "097223027", "place": "village", "population": "695", "ref": "0907223027", "source:population": "Philippine Statistics Authority"}}, {"type": "node", "id": 12410507326, "lat": 8.0059, "lon": 122.4265293, "tags": {"admin_level": "10", "admin_type:PH": "barangay", "is_in:municipality": "Gutalac", "name": "Lower Lux", "old_ref": "097223033", "place": "village", "population": "963", "ref": "0907223033", "source:population": "Philippine Statistics Authority"}}, {"type": "node", "id": 12410806448, "lat": 8.0695297, "lon": 122.5516909, "tags": {"admin_level": "10", "admin_type:PH": "barangay", "is_in:municipality": "Labason", "name": "Dansalan", "old_ref": "097205009", "place": "village", "population": "2025", "ref": "0907205009", "source:population": "Philippine Statistics Authority"}}, {"type": "node", "id": 12410878243, "lat": 8.1021743, "lon": 122.6197399, "tags": {"admin_level": "10", "admin_type:PH": "barangay", "is_in:municipality": "Labason", "name": "Patawag", "note": "There's a namesae village under the jurisdiciton of another municipality nearby.", "old_ref": "097205030", "place": "village", "population": "2684", "ref": "0907205030", "source:population": "Philippine Statistics Authority"}}, {"type": "node", "id": 12411495322, "lat": 7.9894592, "lon": 122.6435982, "tags": {"admin_level": "10", "admin_type:PH": "barangay", "is_in:municipality": "Tampilisan", "name": "Lawaan", "old_ref": "097221003", "place": "village", "population": "1199", "ref": "0907221003", "source:population": "Philippine Statistics Authority"}}, {"type": "node", "id": 12411520126, "lat": 7.9827019, "lon": 122.6971176, "tags": {"admin_level": "10", "admin_type:PH": "barangay", "is_in:municipality": "Tampilisan", "name": "New Dapitan", "old_ref": "097221005", "place": "village", "population": "1537", "ref": "0907221005", "source:population": "Philippine Statistics Authority"}}]}