{"version": 0.6, "generator": "Overpass API 0.7.62.5 1bd436f1", "osm3s": {"timestamp_osm_base": "2025-05-24T18:05:35Z", "copyright": "The data included in this document is from www.openstreetmap.org. The data is made available under ODbL."}, "elements": [{"type": "node", "id": 198494953, "lat": 9.0194997, "lon": 126.2331544, "tags": {"admin_level": "6", "gns_classification": "ADM2", "gns_uni": "-3381057", "is_in:province": "Surigao del Sur", "name": "Tago", "place": "town", "place:PH": "municipality", "population": "35329", "population:date": "2015-08-01", "source": "GNS", "source:population": "Philippine Statistics Authority", "wikidata": "Q155648", "wikimedia_commons": "Category:Tago, Surigao del Sur", "wikipedia": "en:Tago, Surigao del Sur"}}, {"type": "node", "id": 198497667, "lat": 8.932061, "lon": 126.038559, "tags": {"admin_level": "6", "gns_classification": "ADM2", "gns_uni": "-3375436", "is_in:province": "Surigao del Sur", "name": "San Miguel", "place": "town", "place:PH": "municipality", "population": "39340", "population:date": "2015-08-01", "source": "GNS", "source:population": "Philippine Statistics Authority", "wikidata": "Q155625", "wikimedia_commons": "Category:San Miguel, Surigao del Sur", "wikipedia": "en:San Miguel, Surigao del Sur"}}, {"type": "node", "id": 198503281, "lat": 8.9674102, "lon": 126.2828165, "tags": {"admin_level": "6", "gns_classification": "ADM2", "gns_uni": "-3329841", "is_in:province": "Surigao del Sur", "name": "Bayabas", "place": "town", "place:PH": "municipality", "population": "8164", "population:date": "2015-08-01", "source": "GNS", "source:population": "Philippine Statistics Authority", "wikidata": "Q155499", "wikimedia_commons": "Category:Bayabas, Surigao del Sur", "wikipedia": "en:Bayabas, Surigao del Sur"}}, {"type": "node", "id": 198515412, "lat": 9.2755786, "lon": 126.1908659, "tags": {"admin_level": "6", "admin_type:PH": "municipality", "gns_classification": "ADM2", "gns_uni": "-3341140", "is_in:province": "Surigao del Sur", "name": "Cortes", "place": "town", "population": "15912", "population:date": "2015-08-01", "ref": "166808000", "source": "GNS", "source:population": "Philippine Statistics Authority", "wikidata": "Q155568", "wikimedia_commons": "Category:Cortes, Surigao del Sur", "wikipedia": "en:Cortes, Surigao del Sur"}}, {"type": "node", "id": 198522530, "lat": 9.0799833, "lon": 126.1974606, "tags": {"admin_level": "6", "capital": "4", "name": "Tandag", "name:ja": "\u30bf\u30f3\u30c0\u30b0", "name:uk": "\u0422\u0430\u043d\u0434\u0430\u0491", "official_name": "City of Tandag", "place": "city", "population": "56364", "population:date": "2015-08-01", "source:population": "Philippine Statistics Authority", "wikidata": "Q155674", "wikimedia_commons": "Category:Tandag", "wikipedia": "en:Tandag"}}, {"type": "node", "id": 198531736, "lat": 9.233675, "lon": 126.0603779, "tags": {"admin_level": "6", "gns_classification": "ADM2", "gns_uni": "-3353008", "is_in:province": "Surigao del Sur", "name": "Lanuza", "place": "town", "place:PH": "municipality", "population": "12001", "population:date": "2015-08-01", "source": "GNS", "source:population": "Philippine Statistics Authority", "wikidata": "Q155582", "wikimedia_commons": "Category:Lanuza, Surigao del Sur", "wikipedia": "en:Lanuza, Surigao del Sur"}}, {"type": "node", "id": 1548412229, "lat": 9.2811278, "lon": 125.9420682, "tags": {"is_in:region": "Surigao del Sur", "name": "Parang", "place": "village"}}, {"type": "node", "id": 1548412238, "lat": 9.2617815, "lon": 125.9637534, "tags": {"admin_level": "6", "admin_type:PH": "municipality", "ele": "20", "is_in:province": "Surigao del Sur", "name": "Madrid", "name:etymology:description": "Madrid, Spain", "name:etymology:wikidata": "Q2807", "name:etymology:wikipedia": "en:Madrid", "official_name": "Municipality of Madrid", "old_name": "Linibunan", "old_official_name": "Barrio Linibunan", "old_ref": "166813000", "place": "town", "population": "16653", "population:date": "2020-05-01", "postal_code": "8316", "ref": "1606813000", "start_date": "1911", "was_in:municipality": "Cantilan", "wikidata": "Q155605", "wikimedia_commons": "Category:Madrid, Surigao del Sur", "wikipedia": "en:Madrid, Surigao del Sur"}}, {"type": "node", "id": 2374859721, "lat": 8.8885584, "lon": 126.3094243, "tags": {"name": "Aras-asan", "place": "village", "source": "docsam"}}, {"type": "node", "id": 2374872277, "lat": 8.9182742, "lon": 126.2982546, "tags": {"admin_level": "6", "gns_classification": "ADM2", "gns_uni": "-3336029", "is_in:province": "Surigao del Sur", "name": "Cagwait", "place": "town", "place:PH": "municipality", "population": "20384", "population:date": "2015-08-01", "source": "GNS", "source:population": "Philippine Statistics Authority", "wikidata": "Q155524", "wikimedia_commons": "Category:Cagwait", "wikipedia": "en:Cagwait"}}, {"type": "node", "id": 4072910473, "lat": 9.0358967, "lon": 126.2179988}, {"type": "node", "id": 4072910474, "lat": 9.0352465, "lon": 126.2187289}, {"type": "node", "id": 4072910475, "lat": 9.0359744, "lon": 126.2193883}, {"type": "node", "id": 4072910477, "lat": 9.0365748, "lon": 126.2186807}, {"type": "node", "id": 4533499663, "lat": 9.0044601, "lon": 126.1262756, "tags": {"name": "Mabuhay", "place": "village"}}, {"type": "node", "id": 4533499664, "lat": 9.0467782, "lon": 126.1302177, "tags": {"is_in:city": "Tandag", "name": "Maitum", "place": "village"}}, {"type": "node", "id": 4533499665, "lat": 9.0284928, "lon": 126.1525699, "tags": {"name": "Maticdum", "place": "village"}}, {"type": "node", "id": 4634913237, "lat": 9.230898, "lon": 126.015255, "tags": {"admin_level": "6", "gns_classification": "ADM2", "is_in:province": "Surigao del Sur", "name": "Carmen", "place": "town", "place:PH": "municipality", "population": "10347", "population:date": "2015-08-01", "source:population": "Philippine Statistics Authority", "wikidata": "Q155548", "wikimedia_commons": "Category:Carmen, Surigao del Sur", "wikipedia": "en:Carmen, Surigao del Sur"}}, {"type": "node", "id": 6226244176, "lat": 9.1450094, "lon": 126.1730862, "tags": {"admin_level": "10", "is_in:town": "Cortes", "name": "Balibadon", "place": "village", "place:PH": "barangay"}}, {"type": "node", "id": 6226244180, "lat": 9.2324342, "lon": 126.1914258, "tags": {"admin_level": "10", "alt_name": "Tag-anungan", "is_in:town": "Cortes", "name": "Tag-anongan", "place": "village", "place:PH": "barangay"}}, {"type": "node", "id": 6226244181, "lat": 9.1146024, "lon": 126.1589295, "tags": {"admin_level": "10", "is_in:city": "Tandag", "name": "Buenavista", "place": "village", "place:PH": "barangay"}}, {"type": "node", "id": 6226244529, "lat": 9.1359368, "lon": 126.1642912, "tags": {"admin_level": "10", "is_in:city": "Tandag", "name": "San Antonio", "place": "village", "place:PH": "barangay"}}, {"type": "node", "id": 6226244688, "lat": 9.1636675, "lon": 126.1734831, "tags": {"admin_level": "10", "is_in:town": "Cortes", "name": "Matho", "place": "village", "place:PH": "barangay"}}, {"type": "node", "id": 6226244884, "lat": 9.1938002, "lon": 126.1701626, "tags": {"admin_level": "10", "is_in:town": "Cortes", "name": "Mabahin", "place": "village", "place:PH": "barangay"}}, {"type": "node", "id": 6226244963, "lat": 9.208728, "lon": 126.1757362, "tags": {"admin_level": "10", "is_in:town": "Cortes", "name": "Tigao", "place": "village", "place:PH": "barangay"}}, {"type": "node", "id": 6226245147, "lat": 9.2588495, "lon": 126.1916685, "tags": {"place": "village"}}, {"type": "node", "id": 6226245207, "lat": 9.2430238, "lon": 126.0948461, "tags": {"admin_level": "10", "is_in:town": "Lanuza", "name": "Sibahay", "place": "village", "place:PH": "barangay"}}, {"type": "node", "id": 6226245208, "lat": 9.2361617, "lon": 126.0672516, "tags": {"admin_level": "10", "name": "Habag", "place": "village", "place:PH": "barangay"}}, {"type": "node", "id": 6226245209, "lat": 9.2437783, "lon": 126.1720669, "tags": {"admin_level": "10", "is_in:town": "Cortes", "name": "Burgos", "place": "village", "place:PH": "barangay"}}, {"type": "node", "id": 6226245210, "lat": 9.2781475, "lon": 126.1655357, "tags": {"admin_level": "10", "is_in:town": "Cortes", "name": "Manlico", "place": "village", "place:PH": "barangay"}}, {"type": "node", "id": 6226245211, "lat": 9.2714238, "lon": 126.1388183, "tags": {"admin_level": "10", "name": "Nurcia", "place": "village", "place:PH": "barangay"}}, {"type": "node", "id": 6302665740, "lat": 8.9543208, "lon": 126.2792064, "tags": {"name": "Amag", "place": "village"}}, {"type": "node", "id": 6302665741, "lat": 8.969179, "lon": 126.2836039, "tags": {"name": "Balete", "place": "village"}}, {"type": "node", "id": 6302665742, "lat": 8.9678477, "lon": 126.2798193, "tags": {"name": "Magobawok", "place": "village"}}, {"type": "node", "id": 6302665743, "lat": 9.0348458, "lon": 126.2097035, "tags": {"admin_level": "10", "designation": "barangay", "is_in:town": "Tago", "name": "Victoria", "place": "village", "postal_code": "8302"}}, {"type": "node", "id": 6302665744, "lat": 9.0165726, "lon": 126.1787296, "tags": {"admin_level": "10", "designation": "barangay", "is_in:town": "Tago", "name": "Dayuan", "place": "village"}}, {"type": "node", "id": 6302665745, "lat": 9.0046211, "lon": 126.1670673, "tags": {"name": "Gamut", "place": "village"}}, {"type": "node", "id": 6302665746, "lat": 8.9954761, "lon": 126.1558127, "tags": {"name": "Cagdapao", "place": "village"}}, {"type": "node", "id": 6302665747, "lat": 8.9854513, "lon": 126.1533773, "tags": {"name": "Bajao", "place": "village"}}, {"type": "node", "id": 6302665748, "lat": 8.9674781, "lon": 126.1346125, "tags": {"admin_level": "10", "designation": "barangay", "is_in:town": "Tago", "name": "Alba", "official_name": "Barangay Alba", "old_ref": "166818001", "place": "village", "population": "1830", "population:date": "2020-05-01", "postal_code": "8302", "ref": "1606818001"}}, {"type": "node", "id": 6302665749, "lat": 8.9604729, "lon": 126.0946154, "tags": {"is_in:town": "Tago", "name": "Cabangahan", "place": "village"}}, {"type": "node", "id": 6302665750, "lat": 8.9386777, "lon": 126.0557342, "tags": {"name": "Magroyong", "place": "village"}}, {"type": "node", "id": 6302665751, "lat": 8.8856335, "lon": 126.0099824, "tags": {"admin_level": "10", "admin_type:PH": "barangay", "gns_classification": "ADM3", "is_in:town": "San Miguel", "name": "San Roque", "old_ref": "166816016", "place": "village", "population": "3483", "ref": "1606816016", "source:population": "Philippine Statistics Authority"}}, {"type": "node", "id": 6302665752, "lat": 8.9140353, "lon": 125.9690371, "tags": {"name": "Castillo", "place": "village"}}, {"type": "node", "id": 6302665753, "lat": 8.9331664, "lon": 125.9890518, "tags": {"name": "Mahayag", "place": "village"}}, {"type": "node", "id": 6302665772, "lat": 8.9708058, "lon": 125.9732777, "tags": {"name": "Carromata", "place": "village"}}, {"type": "node", "id": 6302665774, "lat": 8.9420745, "lon": 125.9320843, "tags": {"name": "Umalag", "place": "village"}}, {"type": "node", "id": 6302666913, "lat": 8.9227405, "lon": 126.0537313, "tags": {"admin_level": "10", "admin_type:PH": "barangay", "gns_classification": "ADM3", "is_in:town": "San Miguel", "name": "Baras", "old_ref": "166816002", "place": "village", "population": "1395", "ref": "1606816002", "source:population": "Philippine Statistics Authority"}}, {"type": "node", "id": 6302667122, "lat": 8.955378, "lon": 126.0033962, "tags": {"name": "Siagao", "place": "village"}}, {"type": "node", "id": 6302667123, "lat": 8.94288, "lon": 126.0394478, "tags": {"name": "Tina", "place": "village"}}, {"type": "node", "id": 6302667131, "lat": 8.937125, "lon": 126.0058397, "tags": {"name": "Patong", "place": "village"}}, {"type": "node", "id": 6302667182, "lat": 8.8460401, "lon": 126.3326454, "tags": {"name": "San Antonio", "place": "village"}}, {"type": "node", "id": 6302667183, "lat": 8.8510703, "lon": 126.2604189, "tags": {"name": "San Pedro", "place": "village"}}, {"type": "node", "id": 6302668686, "lat": 8.8630209, "lon": 125.9738624, "tags": {"admin_level": "10", "admin_type:PH": "barangay", "gns_classification": "ADM3", "is_in:town": "San Miguel", "name": "Bolhoon", "old_ref": "166816004", "place": "village", "population": "5677", "ref": "1606816004", "source:population": "Philippine Statistics Authority"}}, {"type": "node", "id": 6302668687, "lat": 8.8837467, "lon": 126.306923, "tags": {"name": "Unidad", "place": "village"}}, {"type": "node", "id": 6302668710, "lat": 8.9084441, "lon": 126.3217878, "tags": {"name": "Lactudan", "place": "village"}}, {"type": "node", "id": 6302668712, "lat": 8.9214123, "lon": 126.286093, "tags": {"name": "Bacolod", "place": "village"}}, {"type": "node", "id": 6302668714, "lat": 8.870165, "lon": 126.3205138, "tags": {"admin_level": "10", "admin_type:PH": "barangay", "is_in:municipality": "Cagwait", "name": "Bitaugan East", "official_name": "Barangay Bitaugan East", "old_ref": "166804003", "place": "village", "population": "905", "population:2015": "840", "population:date": "2020-05-01"}}, {"type": "node", "id": 6302668715, "lat": 8.8689261, "lon": 126.3177847, "tags": {"admin_level": "10", "admin_type:PH": "barangay", "is_in:municipality": "Cagwait", "name": "Bitaugan West", "official_name": "Barangay Bitaugan West", "old_ref": "166804004", "place": "village", "population": "1560", "population:2015": "1536", "population:date": "2020-05-01"}}, {"type": "node", "id": 6302668716, "lat": 8.8928839, "lon": 126.30169, "tags": {"name": "Tubo-tubo", "place": "village"}}, {"type": "node", "id": 6302668717, "lat": 8.8682436, "lon": 126.2969935, "tags": {"name": "Mat-e", "place": "village"}}, {"type": "node", "id": 6339582621, "lat": 9.2756412, "lon": 126.1918317, "tags": {"admin_level": "10", "admin_type:PH": "barangay", "is_in:municipality": "Cortes", "name": "Poblacion", "old_ref": "166808008", "place": "village", "population": "3001", "population:2015": "2747", "population:date": "2020-05-01"}}, {"type": "node", "id": 6339582692, "lat": 9.2652918, "lon": 126.1686947, "tags": {"name": "Crossing Cortes", "place": "hamlet"}}, {"type": "node", "id": 6483042045, "lat": 8.9487939, "lon": 126.1816692, "tags": {"name": "Adlay", "place": "hamlet"}}, {"type": "node", "id": 6483042046, "lat": 8.9596191, "lon": 126.1464998, "tags": {"admin_level": "10", "designation": "barangay", "is_in:town": "Tago", "name": "Bangsud", "official_name": "Barangay Bangsud", "old_ref": "166818006", "place": "village", "population": "940", "population:date": "2020-05-01", "postal_code": "8302", "ref": "1606818006"}}, {"type": "node", "id": 6483042047, "lat": 8.9632271, "lon": 126.1606863, "tags": {"admin_level": "10", "designation": "barangay", "is_in:town": "Tago", "name": "Anahao Bag-o", "official_name": "Barangay Anahao Bag-o", "old_ref": "166818002", "place": "village", "population": "1128", "population:date": "2020-05-01", "postal_code": "8302", "ref": "1606818002"}}, {"type": "node", "id": 6483042048, "lat": 8.9783538, "lon": 126.1774005, "tags": {"admin_level": "10", "designation": "barangay", "is_in:town": "Tago", "name": "Kinabigtasan", "official_name": "Barangay Kinabigtasan", "old_ref": "166818014", "place": "village", "population": "1297", "population:date": "2020-05-01", "postal_code": "8302", "ref": "1606818014"}}, {"type": "node", "id": 6483042049, "lat": 8.8842899, "lon": 126.0600472, "tags": {"admin_level": "10", "admin_type:PH": "barangay", "gns_classification": "ADM3", "is_in:town": "San Miguel", "name": "Libas Sud", "old_ref": "166816009", "place": "village", "population": "2939", "ref": "1606816009", "source:population": "Philippine Statistics Authority"}}, {"type": "node", "id": 6483042050, "lat": 8.9236265, "lon": 126.0764779, "tags": {"name": "Libas Gua", "place": "village"}}, {"type": "node", "id": 6483042051, "lat": 8.9177761, "lon": 126.0959676, "tags": {"name": "Layog", "place": "village"}}, {"type": "node", "id": 6483042052, "lat": 8.8976866, "lon": 126.0926214, "tags": {"name": "Caras-an", "place": "village"}}, {"type": "node", "id": 6483042053, "lat": 8.9448407, "lon": 126.1342049, "tags": {"name": "Lindoy", "place": "village"}}, {"type": "node", "id": 6483042054, "lat": 8.9632548, "lon": 126.1719341, "tags": {"admin_level": "10", "designation": "barangay", "is_in:town": "Tago", "name": "Anahao Daan", "official_name": "Barangay Anhao Daan", "old_ref": "166818003", "place": "village", "population": "2032", "population:date": "2020-05-01", "postal_code": "8302", "ref": "1606818003"}}, {"type": "node", "id": 6483042078, "lat": 9.001707, "lon": 126.1932886, "tags": {"name": "Camagong", "place": "village"}}, {"type": "node", "id": 6483042079, "lat": 8.9949463, "lon": 126.1889326, "tags": {"name": "Unaban", "place": "village"}}, {"type": "node", "id": 6483042080, "lat": 8.9348993, "lon": 126.2318694, "tags": {"name": "Panaosawon", "place": "village"}}, {"type": "node", "id": 6483042191, "lat": 8.9853186, "lon": 126.2020099, "tags": {"admin_level": "10", "designation": "barangay", "is_in:town": "Tago", "name": "Unidos", "official_name": "Barangay Unidos", "old_ref": "166818022", "place": "village", "population": "1421", "population:date": "2020-05-01", "postal_code": "8302", "ref": "1606818022"}}, {"type": "node", "id": 6483042192, "lat": 8.9839995, "lon": 126.2262931, "tags": {"admin_level": "10", "designation": "barangay", "is_in:town": "Tago", "name": "Jubang", "place": "village", "postal_code": "8302"}}, {"type": "node", "id": 6483042193, "lat": 8.9771748, "lon": 126.2397927, "tags": {"admin_level": "10", "designation": "barangay", "is_in:town": "Tago", "name": "Sumosumo", "place": "village", "postal_code": "8302"}}, {"type": "node", "id": 6483042194, "lat": 8.9702971, "lon": 126.2670922, "tags": {"name": "Cagbaoto", "place": "village"}}, {"type": "node", "id": 6483042195, "lat": 8.9825318, "lon": 126.2646085, "tags": {"admin_level": "10", "designation": "barangay", "is_in:town": "Bayabas", "name": "La Paz", "place": "village"}}, {"type": "node", "id": 6504807824, "lat": 9.2289712, "lon": 126.0153884, "tags": {"admin_level": "10", "name": "Poblacion", "place": "village", "place:PH": "barangay"}}, {"type": "node", "id": 6504808442, "lat": 9.2475047, "lon": 125.9781684, "tags": {"admin_level": "10", "name": "San Juan", "place": "village", "place:PH": "barangay"}}, {"type": "node", "id": 6504808443, "lat": 9.2660129, "lon": 125.9659257, "tags": {"admin_level": "10", "designation": "barangay", "is_in:town": "Madrid", "name": "Quirino", "place": "village"}}, {"type": "node", "id": 6504808444, "lat": 9.2607965, "lon": 125.9645371, "tags": {"admin_level": "10", "designation": "barangay", "is_in:town": "Madrid", "name": "Linibunan", "place": "village"}}, {"type": "node", "id": 6504808445, "lat": 9.2236921, "lon": 126.0077762, "tags": {"admin_level": "10", "name": "San Vicente", "place": "village", "place:PH": "barangay"}}, {"type": "node", "id": 6504808446, "lat": 9.2341762, "lon": 126.0055661, "tags": {"admin_level": "10", "name": "Santa Cruz", "place": "village", "place:PH": "barangay"}}, {"type": "node", "id": 6504808447, "lat": 9.231767, "lon": 126.0581535, "tags": {"admin_level": "10", "name": "Zone II", "place": "neighbourhood", "place:PH": "barangay"}}, {"type": "node", "id": 6504808448, "lat": 9.2322859, "lon": 126.0567909, "tags": {"admin_level": "10", "name": "Zone I", "place": "neighbourhood", "place:PH": "barangay"}}, {"type": "node", "id": 6504808449, "lat": 9.2329689, "lon": 126.0622895, "tags": {"admin_level": "10", "name": "Zone IV", "place": "neighbourhood", "place:PH": "barangay"}}, {"type": "node", "id": 6504808450, "lat": 9.2314652, "lon": 126.0635447, "tags": {"admin_level": "10", "name": "Zone III", "place": "neighbourhood", "place:PH": "barangay"}}, {"type": "node", "id": 6504808451, "lat": 9.2270598, "lon": 126.0503268, "tags": {"admin_level": "10", "name": "Gamuton", "place": "village", "place:PH": "barangay"}}, {"type": "node", "id": 6504808452, "lat": 9.220335, "lon": 126.038686, "tags": {"admin_level": "10", "name": "Agsam", "place": "village", "place:PH": "barangay"}}, {"type": "node", "id": 6504808453, "lat": 9.223618, "lon": 126.0274422, "tags": {"admin_level": "10", "name": "Bocawe", "place": "village", "place:PH": "barangay"}}, {"type": "node", "id": 6504808454, "lat": 9.2253865, "lon": 125.9942364, "tags": {"admin_level": "10", "name": "Puyay", "place": "village", "place:PH": "barangay"}}, {"type": "node", "id": 6504808455, "lat": 9.2374378, "lon": 125.9899127, "tags": {"admin_level": "10", "name": "Antao", "place": "village", "place:PH": "barangay"}}, {"type": "node", "id": 6504808456, "lat": 9.2538197, "lon": 126.0114884, "tags": {"admin_level": "10", "name": "Bunga", "place": "village", "place:PH": "barangay"}}, {"type": "node", "id": 6504808457, "lat": 9.2541437, "lon": 125.9975456, "tags": {"admin_level": "10", "name": "San Antonio", "place": "village", "place:PH": "barangay"}}, {"type": "node", "id": 6504808458, "lat": 9.2582248, "lon": 125.9841299, "tags": {"admin_level": "10", "name": "Manga", "place": "village", "place:PH": "barangay"}}, {"type": "node", "id": 6504808459, "lat": 9.2680936, "lon": 125.9984743, "tags": {"admin_level": "10", "name": "Union", "place": "village", "place:PH": "barangay"}}, {"type": "node", "id": 6504808460, "lat": 9.2718103, "lon": 125.9891295, "tags": {"admin_level": "10", "name": "Songkit", "place": "village", "place:PH": "barangay"}}, {"type": "node", "id": 6504808464, "lat": 9.274161, "lon": 125.9740448, "tags": {"admin_level": "10", "name": "Magsaysay", "place": "village", "place:PH": "barangay"}}, {"type": "node", "id": 6504808465, "lat": 9.276959, "lon": 125.9629646, "tags": {"admin_level": "10", "name": "Panayogon", "place": "village", "place:PH": "barangay"}}, {"type": "node", "id": 6504808466, "lat": 9.248218, "lon": 125.9419119, "tags": {"admin_level": "10", "name": "Bagsac", "place": "village", "place:PH": "barangay"}}, {"type": "node", "id": 6504808468, "lat": 9.2750292, "lon": 125.9215915, "tags": {"admin_level": "10", "name": "Cabas-an", "place": "village", "place:PH": "barangay"}}, {"type": "node", "id": 6504808469, "lat": 9.2344621, "lon": 125.9767055, "tags": {"admin_level": "10", "name": "Cancavan", "place": "village", "place:PH": "barangay"}}, {"type": "node", "id": 6504808470, "lat": 9.2642257, "lon": 125.9470366, "tags": {"admin_level": "10", "name": "Patong-patong", "place": "village", "place:PH": "barangay"}}, {"type": "node", "id": 6504808475, "lat": 9.2271296, "lon": 125.9402192, "tags": {"admin_level": "10", "name": "Esperanza", "place": "village", "place:PH": "barangay"}}, {"type": "node", "id": 6504808476, "lat": 9.2322912, "lon": 125.9252179, "tags": {"admin_level": "10", "name": "Bayogo", "place": "village", "place:PH": "barangay"}}, {"type": "node", "id": 6504808477, "lat": 9.22168, "lon": 125.9281146, "tags": {"admin_level": "10", "name": "San Roque", "place": "village", "place:PH": "barangay"}}, {"type": "node", "id": 6504808478, "lat": 9.2122334, "lon": 125.917772, "tags": {"admin_level": "10", "alt_name": "Hinapuyan", "name": "Hinapoyan", "place": "village", "place:PH": "barangay", "postal_code": "8315"}}, {"type": "node", "id": 6509819167, "lat": 8.8608577, "lon": 125.9865681, "tags": {"admin_level": "11", "admin_type:PH": "purok", "is_in:barangay": "San Roque", "is_in:municipality": "San Miguel", "name": "Tambonon", "place": "neighbourhood"}}, {"type": "node", "id": 6509819402, "lat": 8.8692037, "lon": 126.0500747, "tags": {"place": "village"}}, {"type": "node", "id": 6509819403, "lat": 8.8621022, "lon": 126.0271517, "tags": {"admin_level": "11", "admin_type:PH": "sitio", "is_in:town": "San Miguel", "name": "Catabadan", "place": "village"}}, {"type": "node", "id": 6509819407, "lat": 8.9701169, "lon": 126.1073237, "tags": {"is_in:village": "Cabangahan", "name": "Cagpangi", "place": "hamlet"}}, {"type": "node", "id": 6509819408, "lat": 8.9838246, "lon": 126.1189457, "tags": {"admin_level": "10", "designation": "barangay", "is_in:town": "Tago", "name": "Cayale", "official_name": "Barangay Cayale", "old_ref": "166818010", "place": "village", "population": "1913", "population:date": "2020-05-01", "postal_code": "8302", "ref": "1606818010"}}, {"type": "node", "id": 6509819409, "lat": 9.0504221, "lon": 126.1632103, "tags": {"is_in:city": "Tandag", "name": "San Isidro", "place": "village"}}, {"type": "node", "id": 6509819410, "lat": 9.0525199, "lon": 126.1385393, "tags": {"is_in:city": "Tandag", "name": "Pandanon", "place": "village"}}, {"type": "node", "id": 6509819540, "lat": 8.9476053, "lon": 126.1011226, "tags": {"is_in:town": "Tago", "name": "Badong", "place": "village"}}, {"type": "node", "id": 6938364540, "lat": 9.1402745, "lon": 126.064741, "tags": {"place": "hamlet"}}, {"type": "node", "id": 6943841796, "lat": 9.1028383, "lon": 126.1566281, "tags": {"name": "Pangi", "place": "village"}}, {"type": "node", "id": 6943842574, "lat": 9.1082487, "lon": 125.9883491, "tags": {"is_in:town": "Lanuza", "name": "Pakwan", "place": "village"}}, {"type": "node", "id": 6943842877, "lat": 9.0108095, "lon": 125.9401363, "tags": {"name": "Bagyang", "place": "village"}}, {"type": "node", "id": 6943842878, "lat": 9.0259303, "lon": 125.9454203, "tags": {"place": "village"}}, {"type": "node", "id": 6943843161, "lat": 9.0056622, "lon": 125.9539443, "tags": {"admin_type:PH": "barangay", "gns_classification": "ADM3", "is_in:town": "San Miguel", "name": "Calatngan", "old_ref": "166816005", "place": "village", "population": "1211", "ref": "1606816005", "source:population": "Philippine Statistics Authority"}}, {"type": "node", "id": 6943844269, "lat": 9.0710557, "lon": 126.1678398, "tags": {"is_in:city": "Tandag", "name": "Awasian", "place": "village"}}, {"type": "node", "id": 7505697927, "lat": 9.079097, "lon": 126.1987817, "tags": {"name": "Poblacion", "place": "suburb"}}, {"type": "node", "id": 7505697928, "lat": 9.0814092, "lon": 126.1961371, "tags": {"name": "Santo Ni\u00f1o", "place": "neighbourhood"}}, {"type": "node", "id": 7505720454, "lat": 9.0701976, "lon": 126.1683762, "tags": {"is_in:village": "Awasian", "name": "Guava", "place": "neighbourhood"}}, {"type": "node", "id": 7867621516, "lat": 8.8890122, "lon": 126.3106781, "tags": {"name": "San Francisco", "place": "neighbourhood", "source:name": "extrapolated from OSMaPaaralan, way/843433856"}}, {"type": "node", "id": 7933579960, "lat": 8.9342157, "lon": 126.0386538, "tags": {"admin_level": "10", "is_in:town": "San Miguel", "name": "Poblacion", "place": "village", "place:PH": "barangay", "source:name": "extrapolated from OSMaPaaralan, way/850384097"}}, {"type": "node", "id": 7933579961, "lat": 8.9321993, "lon": 126.0397938, "tags": {"admin_level": "11", "admin_type:PH": "purok", "is_in:barangay": "Poblacion", "is_in:municipality": "San Miguel", "name": "Purok 2", "place": "neighbourhood"}}, {"type": "node", "id": 7933579962, "lat": 8.9297271, "lon": 126.042527, "tags": {"admin_level": "11", "admin_type:PH": "purok", "is_in:barangay": "Poblacion", "is_in:municipality": "San Miguel", "name": "Purok 1-B", "place": "neighbourhood"}}, {"type": "node", "id": 7933621406, "lat": 8.957071, "lon": 125.9820324, "tags": {"admin_level": "10", "is_in:town": "San Miguel", "name": "Sagbayan", "place": "village", "place:PH": "barangay", "source:name": "extrapolated from OSMaPaaralan, way/850388363"}}, {"type": "node", "id": 7933621439, "lat": 8.9550203, "lon": 125.9789103, "tags": {"admin_level": "11", "admin_type:PH": "purok", "is_in:barangay": "Sagbayan", "is_in:municipality": "San Miguel", "name": "Purok 4", "place": "neighbourhood"}}, {"type": "node", "id": 7933621440, "lat": 8.9653347, "lon": 125.9794521, "tags": {"admin_level": "11", "admin_type:PH": "purok", "is_in:barangay": "Sagbayan", "is_in:municipality": "San Miguel", "name": "Purok 2", "place": "neighbourhood"}}, {"type": "node", "id": 7933653956, "lat": 8.9318363, "lon": 125.9768504, "tags": {"admin_level": "11", "admin_type:PH": "purok", "is_in:barangay": "Mahayag", "is_in:municipality": "San Miguel", "name": "Purok 7-A", "place": "neighbourhood"}}, {"type": "node", "id": 7933712621, "lat": 8.9403072, "lon": 126.0550073, "tags": {"admin_level": "11", "admin_type:PH": "purok", "is_in:barangay": "Magroyong", "is_in:municipality": "San Miguel", "name": "Purok 6", "place": "neighbourhood"}}, {"type": "node", "id": 7933744025, "lat": 8.8815577, "lon": 125.9949687, "tags": {"is_in:town": "San Miguel", "is_in:village": "San Roque", "name": "Lower Daan", "place": "hamlet", "source:name": "extrapolated from OSMaPaaralan, way/850403932"}}, {"type": "node", "id": 7933955221, "lat": 9.0677422, "lon": 126.1913037, "tags": {"name": "Capitol Hills", "place": "neighbourhood"}}, {"type": "node", "id": 7933955265, "lat": 9.0688123, "lon": 126.1938988, "tags": {"name": "Paradise Heights", "place": "neighbourhood", "source:name": "extrapolated from node/4035577454"}}, {"type": "node", "id": 7933957775, "lat": 9.0786183, "lon": 126.189274, "tags": {"name": "Kalipayan", "place": "neighbourhood"}}, {"type": "node", "id": 8170102330, "lat": 9.0549806, "lon": 126.1232373, "tags": {"place": "hamlet"}}, {"type": "node", "id": 8170102401, "lat": 9.0710451, "lon": 126.0699177, "tags": {"place": "hamlet"}}, {"type": "node", "id": 8170102402, "lat": 9.0624263, "lon": 126.0899323, "tags": {"place": "hamlet"}}, {"type": "node", "id": 8170102403, "lat": 9.0578784, "lon": 126.1027157, "tags": {"place": "hamlet"}}, {"type": "node", "id": 8170102404, "lat": 9.0389048, "lon": 126.1206007, "tags": {"place": "hamlet"}}, {"type": "node", "id": 8170102405, "lat": 8.9674463, "lon": 126.1041105, "tags": {"place": "hamlet"}}, {"type": "node", "id": 8170102406, "lat": 9.0000672, "lon": 126.1147964, "tags": {"place": "village"}}, {"type": "node", "id": 8170110071, "lat": 9.0352652, "lon": 126.100637, "tags": {"place": "hamlet"}}, {"type": "node", "id": 8170110072, "lat": 9.0426715, "lon": 126.0661733, "tags": {"place": "hamlet"}}, {"type": "node", "id": 8170110087, "lat": 9.0139725, "lon": 125.9649226, "tags": {"place": "hamlet"}}, {"type": "node", "id": 8170110142, "lat": 8.9845612, "lon": 125.9486175, "tags": {"place": "hamlet"}}, {"type": "node", "id": 8170110295, "lat": 8.9614824, "lon": 125.954352, "tags": {"place": "hamlet"}}, {"type": "node", "id": 8170110476, "lat": 8.9663282, "lon": 125.9613901, "tags": {"place": "village"}}, {"type": "node", "id": 8170110834, "lat": 8.9727292, "lon": 125.9984207, "tags": {"place": "hamlet"}}, {"type": "node", "id": 8170110855, "lat": 8.9108608, "lon": 125.973106, "tags": {"place": "hamlet"}}, {"type": "node", "id": 8170111105, "lat": 8.8885487, "lon": 125.9707845, "tags": {"admin_level": "11", "admin_type:PH": "sitio", "alt_name": "Sitio Hamiguitan", "is_in:barangay": "Bolhoon", "is_in:town": "San Miguel", "is_in:village": "Bolhoon", "name": "Haguimitan", "place": "village"}}, {"type": "node", "id": 8170111368, "lat": 8.9417778, "lon": 125.9756809, "tags": {"place": "hamlet"}}, {"type": "node", "id": 8170111369, "lat": 8.9469577, "lon": 125.9669128, "tags": {"place": "hamlet"}}, {"type": "node", "id": 8170111401, "lat": 8.9201563, "lon": 126.0409874, "tags": {"place": "hamlet"}}, {"type": "node", "id": 8170111402, "lat": 8.9140432, "lon": 126.0414326, "tags": {"place": "hamlet"}}, {"type": "node", "id": 8170113436, "lat": 8.9514381, "lon": 126.2301528, "tags": {"place": "hamlet"}}, {"type": "node", "id": 8170116266, "lat": 8.9170534, "lon": 126.2948638, "tags": {"admin_level": "10", "admin_type:PH": "barangay", "is_in:municipality": "Cagwait", "name": "La Purisima", "official_name": "Barangay La Purisima", "old_name": "Palhe", "place": "village", "postal_code": "8304"}}, {"type": "node", "id": 8170116486, "lat": 8.8785037, "lon": 126.340219, "tags": {"admin_level": "11", "admin_type:PH": "sitio", "is_in:islet": "Arangasa Islands", "is_in:town": "Cagwait", "is_in:village": "Arasasan", "name": "Arangasa", "place": "hamlet", "source:name": "extrapolated from OSMaPaaralan, way/1026642282"}}, {"type": "node", "id": 8170116487, "lat": 8.8601712, "lon": 126.307261, "tags": {"place": "village"}}, {"type": "node", "id": 8171378248, "lat": 9.1896962, "lon": 126.0741019, "tags": {"place": "hamlet"}}, {"type": "node", "id": 8171378371, "lat": 9.173306, "lon": 126.1722439, "tags": {"place": "hamlet"}}, {"type": "node", "id": 8171378372, "lat": 9.1824632, "lon": 126.1696496, "tags": {"name": "Lubcon", "place": "hamlet"}}, {"type": "node", "id": 8171378373, "lat": 9.2150081, "lon": 126.1709243, "tags": {"place": "hamlet"}}, {"type": "node", "id": 8171378382, "lat": 9.2201682, "lon": 126.1691058, "tags": {"place": "hamlet"}}, {"type": "node", "id": 8171378405, "lat": 9.2556834, "lon": 126.1722279, "tags": {"name": "Banuison", "place": "village"}}, {"type": "node", "id": 8171378406, "lat": 9.263874, "lon": 126.1312008, "tags": {"place": "hamlet"}}, {"type": "node", "id": 8171378416, "lat": 9.2374113, "lon": 125.9615833, "tags": {"name": "San Vicente", "place": "village"}}, {"type": "node", "id": 8171379950, "lat": 9.045127, "lon": 125.9642494, "tags": {"place": "hamlet"}}, {"type": "node", "id": 8171380015, "lat": 9.0890768, "lon": 126.1235484, "tags": {"place": "hamlet"}}, {"type": "node", "id": 8171380016, "lat": 9.0593485, "lon": 126.1642778, "tags": {"place": "hamlet"}}, {"type": "node", "id": 8883302574, "lat": 9.0293077, "lon": 126.1896408, "tags": {"admin_level": "10", "designation": "barangay", "is_in:town": "Tago", "name": "Tabon-tabon", "place": "village"}}, {"type": "node", "id": 8883302578, "lat": 9.0505505, "lon": 126.1799566, "tags": {"admin_level": "10", "designation": "barangay", "is_in:city": "Tandag", "name": "San Jose", "place": "village"}}, {"type": "node", "id": 8981644059, "lat": 9.1084094, "lon": 126.1568248, "tags": {"name": "Salvacion", "place": "village"}}, {"type": "node", "id": 8981657031, "lat": 9.0943457, "lon": 126.1606305, "tags": {"name": "San Agustin", "place": "village"}}, {"type": "node", "id": 8981741220, "lat": 8.9346241, "lon": 126.3037451, "tags": {"name": "Tawagan", "place": "village"}}, {"type": "node", "id": 8981781363, "lat": 8.9497142, "lon": 126.3045414, "tags": {"name": "Cabugo", "place": "village"}}, {"type": "node", "id": 9465573712, "lat": 8.8691606, "lon": 126.3207525, "tags": {"admin_level": "11", "admin_type:PH": "purok", "is_in:barangay": "Bitaugan East", "is_in:municipality": "Cagwait", "name": "Purok 3", "place": "neighbourhood"}}, {"type": "node", "id": 9470376369, "lat": 9.0784295, "lon": 126.1889823, "tags": {"admin_level": "10", "admin_type:PH": "barangay", "is_in:city": "Tandag", "name": "San Agustin Sur", "old_ref": "166819018", "place": "village", "population": "5921", "population:2015": "5485", "population:date": "2020-05-01"}}, {"type": "node", "id": 9470376428, "lat": 9.0785845, "lon": 126.2012199, "tags": {"admin_level": "10", "admin_type:PH": "barangay", "alt_name": "Bagong Lungsod", "name": "Bag-ong Lungsod", "official_name": "Barangay Bagong Lungsod", "old_ref": "166819002", "place": "village", "population": "5419", "population:2015": "5493", "population:date": "2020-05-01"}}, {"type": "node", "id": 9503905366, "lat": 8.8788295, "lon": 126.2418795, "tags": {"admin_level": "11", "admin_type:PH": "sitio", "is_in": "Tago-tago;Cagwait", "name": "Mam-on", "place": "hamlet"}}, {"type": "node", "id": 9660005690, "lat": 8.9867111, "lon": 126.2361208, "tags": {"admin_level": "10", "designation": "barangay", "is_in:town": "Tago", "name": "Umbay", "place": "village", "postal_code": "8302"}}, {"type": "node", "id": 11016393464, "lat": 9.0748844, "lon": 126.1969055, "tags": {"admin_level": "11", "admin_type:PH": "purok", "is_in:barangay": "Bag-ong Lungsod", "is_in:city": "Tandag", "name": "Moonglow", "official_name": "Purok Moonglow", "place": "neighbourhood", "postal_code": "8300"}}, {"type": "node", "id": 11034199476, "lat": 9.063952, "lon": 126.2016919, "tags": {"admin_level": "11", "admin_type:PH": "purok", "is_in:barangay": "Mabua", "is_in:city": "Tandag", "name": "Quintos", "official_name": "Purok Quintos", "place": "neighbourhood", "source:name": "extrapolated from OSMaPaaralan"}}, {"type": "node", "id": 12167250783, "lat": 8.91801, "lon": 126.3007432, "tags": {"admin_level": "11", "admin_type:PH": "purok", "is_in:barangay": "Poblacion", "is_in:municipality": "Cagwait", "name": "Purok 3", "place": "neighbourhood", "postal_code": "8304"}}, {"type": "node", "id": 12272070984, "lat": 9.0731508, "lon": 126.1978537, "tags": {"is_in:quarter": "Cabugan", "name": "Tulay", "place": "neighbourhood"}}, {"type": "node", "id": 12272261287, "lat": 9.0714345, "lon": 126.1953083, "tags": {"admin_level": "11", "admin_type:PH": "purok", "is_in:barangay": "Telaje", "is_in:city": "Tandag", "name": "Cabiles", "place": "neighbourhood"}}, {"type": "node", "id": 12272261288, "lat": 9.0692149, "lon": 126.1917543, "tags": {"name": "Capitol Hills", "place": "neighbourhood"}}, {"type": "node", "id": 12272552851, "lat": 9.0717603, "lon": 126.2047496, "tags": {"admin_level": "11", "admin_type:PH": "purok", "is_in:barangay": "Mabua", "is_in:city": "Tandag", "name": "Tabing Dagat", "place": "neighbourhood"}}, {"type": "node", "id": 12272552863, "lat": 9.0650273, "lon": 126.1973575, "tags": {"admin_level": "11", "admin_type:PH": "purok", "is_in:barangay": "Mabua", "is_in:city": "Tandag", "name": "Narra", "place": "neighbourhood"}}, {"type": "node", "id": 12432165011, "lat": 9.0494155, "lon": 126.2073594, "tags": {"admin_level": "11", "admin_type:PH": "purok", "is_in:barangay": "Rosario", "is_in:city": "Tandag", "name": "Pag-asa 1", "official_name": "Purok Pag-asa 1", "place": "neighbourhood", "postal_code": "8300"}}, {"type": "node", "id": 12432165012, "lat": 9.0505465, "lon": 126.2090439, "tags": {"admin_level": "10", "admin_type:PH": "barangay", "is_in:city": "Tandag", "name": "Rosario", "official_name": "Barangay Rosario", "place": "village", "postal_code": "8300"}}, {"type": "way", "id": 405068482, "nodes": [4072910473, 4072910474, 4072910475, 4072910477, 4072910473], "tags": {"is_in:town": "Tago", "is_in:village": "Victoria", "landuse": "residential", "name": "Melissa Homes", "place": "neighbourhood"}}]}