{"version": 0.6, "generator": "Overpass API 0.7.62.5 1bd436f1", "osm3s": {"timestamp_osm_base": "2025-05-24T18:03:28Z", "copyright": "The data included in this document is from www.openstreetmap.org. The data is made available under ODbL."}, "elements": [{"type": "node", "id": 198509877, "lat": 9.6182968, "lon": 125.401648, "tags": {"admin_level": "6", "gns_classification": "ADM2", "gns_uni": "-3358707", "is_in:province": "Surigao del Norte", "name": "Malimono", "place": "town", "place:PH": "municipality", "population": "18054", "population:date": "2015-08-01", "source": "GNS, corrected", "source:population": "Philippine Statistics Authority", "wikidata": "Q155819", "wikimedia_commons": "Category:Malimono", "wikipedia": "en:Malimono"}}, {"type": "node", "id": 2542611453, "lat": 9.6087365, "lon": 125.4634104, "tags": {"admin_level": "10", "admin_type:PH": "barangay", "name": "Gacepan", "place": "village", "population": "461", "population:2015": "372", "population:date": "2020-05-01", "ref": "166722003", "source:population": "Philippine Statistics Authority"}}, {"type": "node", "id": 6237847502, "lat": 9.6808308, "lon": 125.3952992, "tags": {"name": "Jubgan", "place": "village"}}, {"type": "node", "id": 6237847503, "lat": 9.6356124, "lon": 125.3992018, "tags": {"name": "Cagtinai", "place": "village"}}, {"type": "node", "id": 6237847504, "lat": 9.626952, "lon": 125.4021656, "tags": {"name": "Binocaran", "place": "village"}}, {"type": "node", "id": 7706712944, "lat": 9.7138122, "lon": 125.3969194, "tags": {"name": "Linongganan", "place": "village"}}, {"type": "node", "id": 7706727019, "lat": 9.7157454, "lon": 125.4315952, "tags": {"name": "Magtangale", "place": "village"}}, {"type": "node", "id": 7706748538, "lat": 9.7061651, "lon": 125.3962315, "tags": {"name": "Amontay", "place": "village"}}, {"type": "node", "id": 8137494105, "lat": 9.6895929, "lon": 125.4499358, "tags": {"admin_level": "11", "admin_type:PH": "sitio", "alt_name": "Brasil", "is_in:city": "Surigao", "is_in:village": "Mat-i", "name": "Brazil", "place": "hamlet", "source:name": "extrapolated from OSMaPaaralan, way/814922829"}}, {"type": "node", "id": 8156929697, "lat": 9.4134658, "lon": 125.4628238, "tags": {"place": "hamlet"}}, {"type": "node", "id": 8973150658, "lat": 9.5676689, "lon": 125.4177336, "tags": {"admin_level": "10", "admin_type:PH": "barangay", "name": "Masgad", "old_ref": "166715009", "place": "village", "population": "2204", "population:date": "2020-05-01", "ref": "1606715009"}}, {"type": "node", "id": 12001664914, "lat": 9.6259726, "lon": 125.4640376, "tags": {"admin_level": "10", "admin_type:PH": "barangay", "name": "Mayag", "place": "village", "population": "461", "population:2020": "1135", "population:date": "2020-05-01", "source:population": "Philippine Statistics Authority"}}]}