{"version": 0.6, "generator": "Overpass API 0.7.62.5 1bd436f1", "osm3s": {"timestamp_osm_base": "2025-05-24T17:55:15Z", "copyright": "The data included in this document is from www.openstreetmap.org. The data is made available under ODbL."}, "elements": [{"type": "node", "id": 198505101, "lat": 16.5258231, "lon": 122.2621516, "tags": {"admin_level": "6", "name": "Dinapigue", "place": "town", "place:PH": "municipality", "population": "5005", "population:date": "2015-08-01", "ref": "023110000", "source:population": "Philippine Statistics Authority", "wikidata": "Q49366", "wikimedia_commons": "Category:Dinapigue", "wikipedia": "en:Dinapigue"}}, {"type": "node", "id": 198524975, "lat": 16.7209774, "lon": 121.8094689, "tags": {"admin_level": "6", "admin_type:PH": "municipality", "name": "San Guillermo", "place": "town", "population": "20200", "population:date": "2015-08-01", "ref": "023128000", "source:population": "Philippine Statistics Authority", "wikidata": "Q50160", "wikimedia_commons": "Category:San Guillermo", "wikipedia": "en:San Guillermo"}}, {"type": "node", "id": 2122376402, "lat": 16.6741204, "lon": 121.9635503}, {"type": "node", "id": 2122376407, "lat": 16.6787669, "lon": 121.9593779}, {"type": "node", "id": 2122376412, "lat": 16.6759303, "lon": 121.9569961}, {"type": "node", "id": 2122376417, "lat": 16.6812746, "lon": 121.9539491}, {"type": "node", "id": 2122376433, "lat": 16.6776364, "lon": 121.9632832}, {"type": "node", "id": 2122376442, "lat": 16.6792602, "lon": 121.9580475}, {"type": "node", "id": 2122376460, "lat": 16.6762386, "lon": 121.9553438}, {"type": "node", "id": 2122376467, "lat": 16.6816445, "lon": 121.9569317}, {"type": "node", "id": 2122376468, "lat": 16.6809868, "lon": 121.951975}, {"type": "node", "id": 2122376472, "lat": 16.6765254, "lon": 121.9532721}, {"type": "node", "id": 2122376479, "lat": 16.6751697, "lon": 121.9634334}, {"type": "node", "id": 2122376486, "lat": 16.6809858, "lon": 121.9511907}, {"type": "node", "id": 2122376488, "lat": 16.6811307, "lon": 121.9556872}, {"type": "node", "id": 2122376497, "lat": 16.6812951, "lon": 121.954743}, {"type": "node", "id": 2122376513, "lat": 16.6764853, "lon": 121.9518033}, {"type": "node", "id": 2122376514, "lat": 16.6793619, "lon": 121.9567697}, {"type": "node", "id": 2122376516, "lat": 16.6810279, "lon": 121.9528762}, {"type": "node", "id": 2122376521, "lat": 16.6779642, "lon": 121.9508259}, {"type": "node", "id": 2122376522, "lat": 16.6797946, "lon": 121.9504515}, {"type": "node", "id": 2122376524, "lat": 16.6805346, "lon": 121.9568888}, {"type": "node", "id": 2122376533, "lat": 16.6940926, "lon": 121.8810237, "tags": {"admin_level": "10", "admin_type:PH": "barangay", "is_in:town": "San Guillermo", "name": "Dingading", "place": "village"}}, {"type": "node", "id": 2122376539, "lat": 16.6751286, "lon": 121.9604937}, {"type": "node", "id": 2122376542, "lat": 16.681808, "lon": 121.9566624}, {"type": "node", "id": 2122376545, "lat": 16.6763414, "lon": 121.963133}, {"type": "node", "id": 2122376547, "lat": 16.6811718, "lon": 121.9562236}, {"type": "node", "id": 2122376549, "lat": 16.6746147, "lon": 121.9641415}, {"type": "node", "id": 2122376550, "lat": 16.6742643, "lon": 121.9642584}, {"type": "node", "id": 4234331278, "lat": 16.6460928, "lon": 121.9387639, "tags": {"admin_level": "10", "designation": "barangay", "name": "San Miguel", "place": "village"}}, {"type": "node", "id": 4234332810, "lat": 16.6578206, "lon": 121.9496636, "tags": {"place": "hamlet"}}, {"type": "node", "id": 4234334446, "lat": 16.6660754, "lon": 121.8911368, "tags": {"place": "village"}}, {"type": "node", "id": 4234334447, "lat": 16.6708514, "lon": 121.8726589, "tags": {"admin_level": "10", "admin_type:PH": "barangay", "name": "Aringay", "place": "village"}}, {"type": "node", "id": 4234334448, "lat": 16.7113157, "lon": 121.8909626, "tags": {"admin_level": "10", "designation": "barangay", "is_in:town": "San Guillermo", "name": "Guam", "place": "village"}}, {"type": "node", "id": 4234334449, "lat": 16.7245899, "lon": 121.9345677, "tags": {"admin_level": "10", "admin_type:PH": "barangay", "name": "Burgos", "place": "village"}}, {"type": "node", "id": 4234334450, "lat": 16.741277, "lon": 121.8912795, "tags": {"place": "village"}}, {"type": "node", "id": 4234334451, "lat": 16.7454165, "lon": 121.9139809, "tags": {"admin_level": "10", "admin_type:PH": "barangay", "name": "Dietban", "place": "village"}}, {"type": "node", "id": 4234334452, "lat": 16.7450964, "lon": 121.9450879, "tags": {"admin_type:PH": "barangay", "is_in:city": "Cauayan", "name": "Villaflor", "old_ref": "023108087", "place": "hamlet", "population": "452", "population:2015": "409", "ref": "0203108087", "source:population": "Philippine Statistics Authority"}}, {"type": "node", "id": 4234334453, "lat": 16.7487083, "lon": 121.9940644, "tags": {"admin_level": "10", "admin_type:PH": "barangay", "name": "Dicamay", "place": "village"}}, {"type": "node", "id": 4234334459, "lat": 16.7613114, "lon": 121.9081385, "tags": {"admin_level": "10", "admin_type:PH": "barangay", "name": "Villa Rose", "place": "village"}}, {"type": "node", "id": 4234334460, "lat": 16.7648375, "lon": 121.9340139, "tags": {"admin_level": "10", "admin_type:PH": "barangay", "name": "Progreso", "place": "village"}}, {"type": "node", "id": 4234334461, "lat": 16.7661537, "lon": 121.9440445, "tags": {"admin_level": "10", "admin_type:PH": "barangay", "is_in:town": "San Guillermo", "name": "Calaoagan", "old_ref": "023128027", "place": "hamlet", "population": "447", "population:2015": "411", "ref": "0203128027", "source:population": "Philippine Statistics Authority"}}, {"type": "node", "id": 4234334462, "lat": 16.7696249, "lon": 121.8983989, "tags": {"admin_level": "10", "admin_type:PH": "barangay", "name": "San Rafael", "place": "village"}}, {"type": "node", "id": 4234334463, "lat": 16.7766507, "lon": 121.8845978, "tags": {"admin_level": "10", "admin_type:PH": "barangay", "name": "Liwliwa", "place": "village"}}, {"type": "node", "id": 4234334464, "lat": 16.7808249, "lon": 121.8699445, "tags": {"admin_level": "10", "admin_type:PH": "barangay", "name": "Rang-ayan", "place": "village"}}, {"type": "node", "id": 4234334465, "lat": 16.7864316, "lon": 121.8596769, "tags": {"admin_level": "10", "admin_type:PH": "barangay", "name": "Mangandingay", "place": "village"}}, {"type": "node", "id": 4234334466, "lat": 16.7908526, "lon": 121.9241719, "tags": {"place": "village"}}, {"type": "node", "id": 4234334470, "lat": 16.7941683, "lon": 121.9487961, "tags": {"place": "village"}}, {"type": "node", "id": 4234334471, "lat": 16.79862, "lon": 121.8974323, "tags": {"admin_level": "10", "admin_type:PH": "barangay", "name": "Bannawag", "place": "village"}}, {"type": "node", "id": 4234335902, "lat": 16.6815173, "lon": 121.92705, "tags": {"place": "hamlet"}}, {"type": "node", "id": 4393562831, "lat": 16.8414855, "lon": 121.8080215, "tags": {"name": "Amobocan", "place": "village"}}, {"type": "node", "id": 5272951287, "lat": 16.4846665, "lon": 121.8470725, "tags": {"name": "Bannawag", "place": "village"}}, {"type": "node", "id": 5272951288, "lat": 16.4643002, "lon": 121.8425108, "tags": {"admin_level": "10", "designation": "barangay", "name": "Bautista", "place": "village"}}, {"type": "node", "id": 5272951289, "lat": 16.489684, "lon": 121.8607522, "tags": {"name": "Dumawing", "place": "village"}}, {"type": "node", "id": 5272951290, "lat": 16.5305626, "lon": 121.8561842, "tags": {"name": "Minuri", "place": "village"}}, {"type": "node", "id": 5272951291, "lat": 16.5304377, "lon": 121.8230226, "tags": {"admin_level": "10", "admin_type:PH": "barangay", "name": "Napaliong", "place": "village"}}, {"type": "node", "id": 5272951292, "lat": 16.5293134, "lon": 121.8041394, "tags": {"admin_level": "10", "admin_type:PH": "barangay", "name": "Papan Este", "place": "village"}}, {"type": "node", "id": 5272951294, "lat": 16.5445838, "lon": 121.8069762, "tags": {"admin_level": "10", "admin_type:PH": "barangay", "name": "Linomot", "place": "village"}}, {"type": "node", "id": 7469368754, "lat": 16.4446679, "lon": 122.2012522, "tags": {"name": "Diagyan", "place": "village"}}, {"type": "node", "id": 7469424466, "lat": 16.4321903, "lon": 122.1977826, "tags": {"name": "Dilaguidi", "place": "village"}}, {"type": "node", "id": 7469425539, "lat": 16.4686137, "lon": 122.2137095, "tags": {"name": "Kasaysayan", "place": "village"}}, {"type": "node", "id": 7638703040, "lat": 16.6814559, "lon": 121.9564196}, {"type": "node", "id": 8199368462, "lat": 16.5063148, "lon": 122.2344607, "tags": {"admin_level": "10", "admin_type:PH": "barangay", "name": "Dibulo", "place": "village"}}, {"type": "node", "id": 9351111710, "lat": 16.8079201, "lon": 121.8056774, "tags": {"admin_level": "10", "admin_type:PH": "barangay", "name": "Dipaluda", "place": "village"}}, {"type": "node", "id": 9351111711, "lat": 16.8021994, "lon": 121.7990148, "tags": {"admin_level": "10", "admin_type:PH": "barangay", "name": "Duroc", "place": "village"}}, {"type": "node", "id": 9351117259, "lat": 16.8440996, "lon": 121.9645715, "tags": {"admin_level": "10", "admin_type:PH": "barangay", "name": "Ara", "place": "village"}}, {"type": "node", "id": 9351120553, "lat": 16.7837316, "lon": 121.986866, "tags": {"admin_level": "10", "admin_type:PH": "barangay", "name": "Guilingan", "place": "village"}}, {"type": "node", "id": 9351121381, "lat": 16.8087931, "lon": 121.8841267, "tags": {"admin_level": "10", "admin_type:PH": "barangay", "name": "Macaniao", "place": "village"}}, {"type": "node", "id": 9351129397, "lat": 16.8274433, "lon": 122.0298564, "tags": {"admin_level": "10", "admin_type:PH": "barangay", "name": "Balliao", "place": "village"}}, {"type": "node", "id": 9357094233, "lat": 16.6837773, "lon": 121.848228, "tags": {"admin_level": "10", "designation": "barangay", "name": "Dicaraoyan", "place": "village"}}, {"type": "node", "id": 9357094250, "lat": 16.6584719, "lon": 121.8584472, "tags": {"admin_level": "10", "designation": "barangay", "name": "Mabbayad", "place": "village"}}, {"type": "node", "id": 9357115582, "lat": 16.6211829, "lon": 121.8763053, "tags": {"admin_level": "10", "admin_type:PH": "barangay", "name": "Benguet", "place": "village"}}, {"type": "node", "id": 9357124290, "lat": 16.6865791, "lon": 121.8201157, "tags": {"admin_level": "10", "designation": "barangay", "name": "Magleticia", "place": "village"}}, {"type": "node", "id": 9357124363, "lat": 16.6327944, "lon": 121.8397468, "tags": {"admin_level": "10", "designation": "barangay", "name": "Madadamian", "place": "village"}}, {"type": "node", "id": 9357138153, "lat": 16.6271095, "lon": 121.8144, "tags": {"admin_level": "10", "admin_type:PH": "barangay", "name": "Diasan", "place": "village"}}, {"type": "node", "id": 9357140041, "lat": 16.6569764, "lon": 121.8146038, "tags": {"admin_level": "10", "designation": "barangay", "name": "Villa Campo", "place": "village"}}, {"type": "node", "id": 9357163195, "lat": 16.6744185, "lon": 121.8309331, "tags": {"admin_level": "10", "designation": "barangay", "name": "Villa Rey", "place": "village"}}, {"type": "node", "id": 9381633662, "lat": 16.7040524, "lon": 121.8508146, "tags": {"admin_level": "10", "admin_type:PH": "barangay", "name": "Palawan", "place": "village"}}, {"type": "node", "id": 9381637138, "lat": 16.7423163, "lon": 121.8538767, "tags": {"admin_level": "10", "admin_type:PH": "barangay", "name": "Colorado", "place": "village"}}, {"type": "node", "id": 9385014703, "lat": 16.854373, "lon": 122.0812798, "tags": {"admin_level": "10", "admin_type:PH": "barangay", "name": "Libertad", "place": "village"}}, {"type": "node", "id": 9385042197, "lat": 16.8611651, "lon": 122.0279574, "tags": {"admin_level": "10", "admin_type:PH": "barangay", "name": "Ueg", "place": "village"}}, {"type": "node", "id": 9385055077, "lat": 16.8336459, "lon": 122.073842, "tags": {"admin_level": "10", "admin_type:PH": "barangay", "name": "Ibujan", "place": "village"}}, {"type": "node", "id": 9385065380, "lat": 16.8614116, "lon": 122.019546, "tags": {"admin_level": "10", "admin_type:PH": "barangay", "name": "Balagan", "place": "village"}}, {"type": "node", "id": 9385074469, "lat": 16.7813742, "lon": 122.0232528, "tags": {"admin_level": "10", "admin_type:PH": "barangay", "name": "Cadsalan", "place": "village"}}, {"type": "node", "id": 9385075443, "lat": 16.7717953, "lon": 122.0208764, "tags": {"admin_level": "10", "admin_type:PH": "barangay", "name": "Tappa", "place": "village"}}, {"type": "node", "id": 9385080492, "lat": 16.8571761, "lon": 122.044217, "tags": {"admin_level": "10", "admin_type:PH": "barangay", "name": "Macayucayu", "place": "village"}}, {"type": "node", "id": 9385083991, "lat": 16.8593375, "lon": 122.0706689, "tags": {"admin_level": "10", "admin_type:PH": "barangay", "name": "Panninan", "place": "village"}}, {"type": "node", "id": 9410521045, "lat": 16.5113964, "lon": 121.8648469, "tags": {"admin_level": "10", "admin_type:PH": "barangay", "designation": "barangay", "is_in:town": "Jones", "name": "Santo Domingo", "old_ref": "023115041", "place": "village", "population": "1445", "population:2015": "1427", "ref": "0203115041", "source:population": "Philippine Statistics Authority"}}, {"type": "node", "id": 9428818796, "lat": 16.8659498, "lon": 121.7993581, "tags": {"admin_level": "10", "designation": "barangay", "name": "San Antonio", "place": "village"}}, {"type": "node", "id": 9429052017, "lat": 16.8643583, "lon": 121.8663275, "tags": {"admin_level": "10", "admin_type:PH": "barangay", "name": "Baculod", "place": "village"}}, {"type": "node", "id": 9481695459, "lat": 16.5982764, "lon": 121.8409967, "tags": {"admin_level": "10", "designation": "barangay", "name": "Villa Bello", "place": "village"}}, {"type": "node", "id": 10917457888, "lat": 16.8034113, "lon": 121.869007, "tags": {"admin_level": "10", "admin_type:PH": "barangay", "is_in:city": "Cauayan", "name": "Saranay", "place": "village"}}, {"type": "node", "id": 11074393493, "lat": 16.797087, "lon": 121.9070488, "tags": {"place": "hamlet"}}, {"type": "node", "id": 12104006228, "lat": 16.5773853, "lon": 121.911445, "tags": {"admin_level": "10", "admin_type:PH": "barangay", "name": "Dicamay II", "place": "village"}}, {"type": "node", "id": 12104030050, "lat": 16.8239311, "lon": 121.9755471, "tags": {"admin_level": "10", "admin_type:PH": "barangay", "name": "Capuseran", "place": "village"}}, {"type": "node", "id": 12107818484, "lat": 16.6930073, "lon": 121.8414018, "tags": {"admin_level": "10", "admin_type:PH": "barangay", "name": "Villa Remedios", "place": "village"}}, {"type": "node", "id": 12107818485, "lat": 16.7096369, "lon": 121.8407178, "tags": {"admin_level": "10", "admin_type:PH": "barangay", "name": "Dipacamo", "place": "village"}}, {"type": "node", "id": 12107818486, "lat": 16.7164547, "lon": 121.8646565, "tags": {"admin_level": "10", "admin_type:PH": "barangay", "name": "San Mariano Sur", "place": "village"}}, {"type": "node", "id": 12107818487, "lat": 16.7278267, "lon": 121.8697152, "tags": {"admin_level": "10", "admin_type:PH": "barangay", "name": "San Mariano Norte", "place": "village"}}, {"type": "node", "id": 12107818488, "lat": 16.7468959, "lon": 121.8660298, "tags": {"admin_level": "10", "admin_type:PH": "barangay", "name": "Villa Sanchez", "place": "village"}}, {"type": "node", "id": 12107827258, "lat": 16.672774, "lon": 121.9775158, "tags": {"admin_level": "11", "admin_type:PH": "sitio", "alt_name": "Jet", "name": "Diet", "place": "hamlet"}}, {"type": "node", "id": 12107827259, "lat": 16.7042497, "lon": 121.9882098, "tags": {"admin_level": "11", "admin_type:PH": "sitio", "name": "Dilucot", "place": "hamlet"}}, {"type": "node", "id": 12107827395, "lat": 16.6779141, "lon": 121.9550282, "tags": {"admin_level": "10", "admin_type:PH": "barangay", "name": "Rizal", "place": "village"}}, {"type": "node", "id": 12618404386, "lat": 16.7025541, "lon": 121.806584, "tags": {"admin_level": "10", "admin_type:PH": "barangay", "is_in:town": "San Guillermo", "name": "Estrella", "place": "village"}}, {"type": "way", "id": 202263137, "nodes": [2122376486, 2122376468, 2122376516, 2122376417, 2122376497, 2122376488, 2122376547, 7638703040, 2122376542, 2122376467, 2122376524, 2122376514, 2122376442, 2122376407, 2122376433, 2122376545, 2122376479, 2122376549, 2122376550, 2122376402, 2122376539, 2122376412, 2122376460, 2122376472, 2122376513, 2122376521, 2122376522, 2122376486]}, {"type": "relation", "id": 2776941, "members": [{"type": "way", "ref": 202263137, "role": "outer"}], "tags": {"admin_level": "10", "boundary": "administrative", "name": "Rizal", "place": "village", "type": "boundary"}}]}