{"version": 0.6, "generator": "Overpass API 0.7.62.5 1bd436f1", "osm3s": {"timestamp_osm_base": "2025-05-24T17:49:13Z", "copyright": "The data included in this document is from www.openstreetmap.org. The data is made available under ODbL."}, "elements": [{"type": "node", "id": 198492731, "lat": 16.5313384, "lon": 120.3941216, "tags": {"admin_level": "6", "admin_type:PH": "municipality", "gns_classification": "ADM2", "gns_uni": "-3363855", "is_in:province": "La Union", "name": "Naguilian", "place": "town", "population": "54221", "population:date": "2015-08-01", "source": "GNS", "source:population": "Philippine Statistics Authority", "website": "http://www.naguilian.gov.ph/", "wikidata": "Q40450", "wikimedia_commons": "Category:Naguilian, La Union", "wikipedia": "en:Naguilian, La Union"}}, {"type": "node", "id": 198514274, "lat": 16.8529495, "lon": 120.3775805, "tags": {"admin_level": "6", "admin_type:PH": "municipality", "name": "Luna", "name:etymology": "Antonio and Juan Luna", "name:etymology:wikidata": "Q602912;Q28867", "old_ref": "013310000", "place": "town", "population": "37318", "population:date": "2020-05-01", "ref": "0103310000", "website": "http://www.luna.gov.ph/", "wikidata": "Q40419", "wikimedia_commons": "Category:Luna, La Union", "wikipedia": "en:Luna, La Union"}}, {"type": "node", "id": 198527229, "lat": 16.5265951, "lon": 120.3292822, "tags": {"admin_level": "6", "admin_type:PH": "municipality", "name": "Bauang", "old_ref": "013307000", "place": "town", "population": "78449", "population:date": "2020-05-01", "ref": "0103307000", "website": "http://bauanglaunion.gov.ph/", "wikidata": "Q40313", "wikimedia_commons": "Category:Bauang", "wikipedia": "en:Bauang"}}, {"type": "node", "id": 198528863, "lat": 16.7202558, "lon": 120.3525941, "tags": {"admin_level": "6", "admin_type:PH": "municipality", "name": "Bacnotan", "official_name": "Municipality of Bacnotan", "place": "town", "population": "42078", "population:date": "2015-08-01", "ref": "013303000", "website": "https://www.bacnotan.gov.ph/", "wikidata": "Q40259", "wikimedia_commons": "Category:Bacnotan", "wikipedia": "en:Bacnotan"}}, {"type": "node", "id": 198529227, "lat": 16.6162676, "lon": 120.317104, "tags": {"admin_level": "6", "capital": "3", "name": "San Fernando", "name:en": "San Fernando", "name:es": "San Fernando", "name:ja": "\u30b5\u30f3\u30d5\u30a7\u30eb\u30ca\u30f3\u30c9", "name:pag": "San Fernando", "name:tl": "San Fernando", "name:uk": "\u0421\u0430\u043d-\u0424\u0435\u0440\u043d\u0430\u043d\u0434\u043e", "official_name:en": "City of San Fernando", "official_name:es": "Ciudad de San Fernando", "official_name:pag": "Siyudad na San Fernando", "official_name:tl": "Lungsod ng San Fernando", "place": "city", "population": "121812", "population:date": "2015-08-01", "source": "GNS", "source:population": "Philippine Statistics Authority", "website": "https://www.sanfernandocity.gov.ph/", "wikidata": "Q40584", "wikimedia_commons": "Category:San Fernando, La Union", "wikipedia": "en:San Fernando, La Union"}}, {"type": "node", "id": 2505481918, "lat": 16.506529, "lon": 120.3184132, "tags": {"is_in:town": "Bauang", "name": "Parian Oeste", "place": "village"}}, {"type": "node", "id": 2770190004, "lat": 16.4905372, "lon": 120.3315325, "tags": {"admin_level": "10", "admin_type:PH": "barangay", "name": "Payocpoc Sur", "place": "village", "source": "Benta Serbisyo"}}, {"type": "node", "id": 2770190016, "lat": 16.5037378, "lon": 120.3335694, "tags": {"admin_level": "10", "admin_type:PH": "barangay", "name": "Payocpoc Norte Este", "place": "village", "source": "Benta Serbisyo"}}, {"type": "node", "id": 2770190049, "lat": 16.4813722, "lon": 120.3325367, "tags": {"name": "Santiago", "place": "village", "source": "Benta Serbisyo"}}, {"type": "node", "id": 2770222054, "lat": 16.5728245, "lon": 120.3224829, "tags": {"admin_level": "10", "admin_type:PH": "barangay", "is_in:town": "Bauang", "name": "Pagdalagan Sur", "place": "village"}}, {"type": "node", "id": 2770222091, "lat": 16.562105, "lon": 120.3237301, "tags": {"admin_level": "10", "admin_type:PH": "barangay", "name": "Paringao", "place": "village"}}, {"type": "node", "id": 2770306583, "lat": 16.6312085, "lon": 120.3346234, "tags": {"name": "Eufrosina Heights", "place": "neighbourhood"}}, {"type": "node", "id": 2884648356, "lat": 16.6588595, "lon": 120.3312589, "tags": {"admin_level": "10", "admin_type:PH": "barangay", "is_in:town": "San Juan", "name": "Urbiztondo", "place": "village", "population": "2279", "population:2015": "1979", "ref": "013316042"}}, {"type": "node", "id": 2884934055, "lat": 16.5411511, "lon": 120.3218338, "tags": {"admin_level": "10", "admin_type:PH": "barangay", "name": "Baccuit Sur", "place": "village"}}, {"type": "node", "id": 2884934087, "lat": 16.5504791, "lon": 120.3222438, "tags": {"admin_level": "10", "admin_type:PH": "barangay", "name": "Baccuit Norte", "place": "village"}}, {"type": "node", "id": 2884935056, "lat": 16.5343033, "lon": 120.3291251, "tags": {"admin_level": "10", "admin_type:PH": "barangay", "name": "Quinavite", "place": "village"}}, {"type": "node", "id": 2884943289, "lat": 16.5265228, "lon": 120.3198639, "tags": {"admin_level": "10", "admin_type:PH": "barangay", "is_in:village": "Bauang", "name": "Pugo", "place": "village"}}, {"type": "node", "id": 2884943569, "lat": 16.5351812, "lon": 120.3199402, "tags": {"admin_level": "10", "admin_type:PH": "barangay", "name": "Taberna", "place": "village"}}, {"type": "node", "id": 2884946201, "lat": 16.5239198, "lon": 120.3494251, "tags": {"admin_level": "10", "admin_type:PH": "barangay", "is_in:town": "Bauang", "name": "Acao", "place": "village"}}, {"type": "node", "id": 3166113734, "lat": 16.613339, "lon": 120.3477703, "tags": {"admin_level": "10", "admin_type:PH": "barangay", "name": "Camansi", "place": "village"}}, {"type": "node", "id": 3166114477, "lat": 16.622679, "lon": 120.3522281, "tags": {"admin_level": "10", "admin_type:PH": "barangay", "name": "Namtutan", "place": "village"}}, {"type": "node", "id": 3166116680, "lat": 16.646523, "lon": 120.339788, "tags": {"admin_level": "10", "admin_type:PH": "barangay", "name": "Bangcusay", "place": "village"}}, {"type": "node", "id": 3166125308, "lat": 16.6063883, "lon": 120.3530845, "tags": {"admin_level": "10", "admin_type:PH": "barangay", "name": "Cadaclan", "place": "village"}}, {"type": "node", "id": 3166125309, "lat": 16.6155077, "lon": 120.3543505, "tags": {"admin_level": "10", "admin_type:PH": "barangay", "name": "Pias", "place": "village"}}, {"type": "node", "id": 3166126655, "lat": 16.6482288, "lon": 120.3713397, "tags": {"admin_level": "10", "admin_type:PH": "barangay", "is_in:town": "San Juan", "name": "Pagdildilan", "place": "village"}}, {"type": "node", "id": 3166128137, "lat": 16.5857319, "lon": 120.351443, "tags": {"admin_level": "10", "admin_type:PH": "barangay", "name": "Birunget", "place": "village"}}, {"type": "node", "id": 3166128944, "lat": 16.6113336, "lon": 120.3441152, "tags": {"admin_level": "10", "admin_type:PH": "barangay", "name": "Langcuas", "place": "village"}}, {"type": "node", "id": 3166128982, "lat": 16.6282709, "lon": 120.3976575, "tags": {"name": "Baraoas", "place": "village"}}, {"type": "node", "id": 3166130277, "lat": 16.6171423, "lon": 120.376012, "tags": {"name": "Bacsil", "place": "village"}}, {"type": "node", "id": 3166130283, "lat": 16.6274485, "lon": 120.3829751, "tags": {"name": "Bangbangolan", "place": "village"}}, {"type": "node", "id": 3166132463, "lat": 16.5985452, "lon": 120.3305448, "tags": {"admin_level": "10", "admin_type:PH": "barangay", "name": "Sagayad", "place": "village"}}, {"type": "node", "id": 3166133874, "lat": 16.5902414, "lon": 120.3388019, "tags": {"admin_level": "10", "admin_type:PH": "barangay", "name": "Narra Oeste", "place": "village"}}, {"type": "node", "id": 3166134552, "lat": 16.5779023, "lon": 120.3328474, "tags": {"admin_level": "10", "admin_type:PH": "barangay", "name": "Bungro", "place": "village"}}, {"type": "node", "id": 3166134570, "lat": 16.5869819, "lon": 120.3438766, "tags": {"admin_level": "10", "admin_type:PH": "barangay", "name": "Narra Este", "place": "village"}}, {"type": "node", "id": 3166135194, "lat": 16.5775784, "lon": 120.3424497, "tags": {"admin_level": "10", "admin_type:PH": "barangay", "name": "Tanquigan", "place": "village"}}, {"type": "node", "id": 3166135388, "lat": 16.575383, "lon": 120.3505929, "tags": {"admin_level": "10", "admin_type:PH": "barangay", "alt_name": "Sibuan Otong", "name": "Siboan-Otong", "place": "village"}}, {"type": "node", "id": 3166144392, "lat": 16.5965251, "lon": 120.375109, "tags": {"admin_level": "10", "admin_type:PH": "barangay", "name": "Apaleng", "place": "village"}}, {"type": "node", "id": 3166147978, "lat": 16.6036914, "lon": 120.3922751, "tags": {"name": "Pao Norte", "place": "village"}}, {"type": "node", "id": 3166147979, "lat": 16.5913121, "lon": 120.385473, "tags": {"name": "Pao Sur", "place": "village"}}, {"type": "node", "id": 3166148541, "lat": 16.5847314, "lon": 120.3929403, "tags": {"name": "Sacyud", "place": "village"}}, {"type": "node", "id": 3166148669, "lat": 16.5827058, "lon": 120.3822115, "tags": {"name": "Cabarsican", "place": "village"}}, {"type": "node", "id": 3166148721, "lat": 16.5668802, "lon": 120.3784993, "tags": {"name": "Masicong", "place": "village"}}, {"type": "node", "id": 3276455506, "lat": 16.4066718, "lon": 119.9621403, "tags": {"addr:postcode": "2406", "admin_level": "10", "admin_type:PH": "barangay", "name": "Dewey", "old_ref": "015514009", "place": "village", "population": "1761", "population:date": "2020-05-01", "ref": "0105514009", "source:population": "Philippine Statistics Authority"}}, {"type": "node", "id": 4490253295, "lat": 16.6699328, "lon": 120.3385507, "tags": {"admin_level": "6", "admin_type:PH": "municipality", "name": "San Juan", "place": "town", "population": "37188", "population:date": "2015-08-01", "ref": "013316000", "source:population": "Philippine Statistics Authority", "website": "http://www.sanjuanlaunion.gov.ph/", "wikidata": "Q40517", "wikimedia_commons": "Category:San Juan, La Union", "wikipedia": "en:San Juan, La Union"}}, {"type": "node", "id": 4493474287, "lat": 16.4226303, "lon": 120.3497592, "tags": {"admin_level": "10", "admin_type:PH": "barangay", "name": "Gana", "place": "village", "population": "2248", "population:2015": "2405", "ref": "013309002"}}, {"type": "node", "id": 4503544244, "lat": 16.4318378, "lon": 120.3456178, "tags": {"admin_level": "6", "admin_type:PH": "municipality", "name": "Caba", "old_ref": "013309000", "place": "town", "population": "23119", "population:date": "2020-05-01", "ref": "0103309000", "website": "http://www.caba.gov.ph/", "wikidata": "Q40393", "wikimedia_commons": "Category:Caba, La Union", "wikipedia": "en:Caba, La Union"}}, {"type": "node", "id": 4951115121, "lat": 16.4352057, "lon": 120.3453588, "tags": {"name": "Poblacion North", "place": "village", "ref": "013309006"}}, {"type": "node", "id": 4951115122, "lat": 16.4305749, "lon": 120.3402224, "tags": {"name": "Las-ud", "place": "village", "ref": "013309004"}}, {"type": "node", "id": 4951115123, "lat": 16.440181, "lon": 120.3355982, "tags": {"name": "San Carlos", "place": "village", "ref": "013309009"}}, {"type": "node", "id": 4951115124, "lat": 16.4446744, "lon": 120.3410151, "tags": {"name": "Bautista", "place": "village", "ref": "013309001"}}, {"type": "node", "id": 4951115125, "lat": 16.4552197, "lon": 120.3327678, "tags": {"admin_level": "10", "admin_type:PH": "barangay", "name": "Wenceslao", "place": "village", "population": "465", "population:date": "2020-05-01", "ref": "013309018"}}, {"type": "node", "id": 5296823728, "lat": 16.8204445, "lon": 120.3362353, "tags": {"admin_level": "10", "admin_type:PH": "barangay", "name": "Darigayos", "old_ref": "013310013", "place": "village", "population": "1824", "population:date": "2020-05-01", "ref": "0103310013", "wikidata": "Q133442099"}}, {"type": "node", "id": 5296823731, "lat": 16.8069203, "lon": 120.3306284, "tags": {"admin_level": "10", "admin_type:PH": "barangay", "name": "Almeida", "place": "village", "source:name": "extrapolated from village name"}}, {"type": "node", "id": 5296827822, "lat": 16.8022682, "lon": 120.3284703, "tags": {"admin_level": "10", "admin_type:PH": "barangay", "name": "Paraoir", "place": "village"}}, {"type": "node", "id": 5850414647, "lat": 16.6254321, "lon": 120.3201586, "tags": {"name": "Manna Residences", "place": "neighbourhood"}}, {"type": "node", "id": 5858526393, "lat": 16.5965373, "lon": 120.3270832, "tags": {"name": "Sagayad Relocation", "place": "neighbourhood"}}, {"type": "node", "id": 6004112529, "lat": 16.5932777, "lon": 120.3220459, "tags": {"name": "Sevilla Heights", "place": "neighbourhood"}}, {"type": "node", "id": 6004253974, "lat": 16.6269427, "lon": 120.3175856, "tags": {"name": "Agtarap Compound", "place": "neighbourhood"}}, {"type": "node", "id": 6014339452, "lat": 16.5952899, "lon": 120.3097619, "tags": {"name": "Namnama Village", "place": "neighbourhood"}}, {"type": "node", "id": 6014631692, "lat": 16.6339416, "lon": 120.3234773, "tags": {"name": "Biday Centro", "place": "neighbourhood"}}, {"type": "node", "id": 6016883194, "lat": 16.5926931, "lon": 120.3121164, "tags": {"name": "Rufina Subdivision", "place": "neighbourhood"}}, {"type": "node", "id": 6487553039, "lat": 16.6087764, "lon": 120.3073552, "tags": {"name": "North Forbes", "official_name": "North Forbes Subdivision", "place": "neighbourhood"}}, {"type": "node", "id": 7227115182, "lat": 16.5127028, "lon": 120.3152174, "tags": {"admin_level": "10", "admin_type:PH": "barangay", "is_in:town": "Bauang", "name": "Pudoc", "place": "village"}}, {"type": "node", "id": 7227115183, "lat": 16.5070349, "lon": 120.3115582, "tags": {"name": "Puraw Kadaratan", "place": "neighbourhood"}}, {"type": "node", "id": 7782873859, "lat": 16.7642193, "lon": 120.3384232, "tags": {"admin_level": "10", "admin_type:PH": "barangay", "is_in:town": "Bacnotan", "name": "Quirino", "place": "village", "source:name": "extrapolated from OSMaPaaralan/DepEd data"}}, {"type": "node", "id": 7782885888, "lat": 16.7751056, "lon": 120.3533417, "tags": {"is_in:town": "Bacnotan", "name": "Carcarmay", "place": "village", "source:name": "extrapolated from OSMaPaaralan/DepEd data"}}, {"type": "node", "id": 7782929379, "lat": 16.8138665, "lon": 120.3437651, "tags": {"admin_level": "10", "admin_type:PH": "barangay", "name": "Pitpitac", "old_ref": "013310026", "place": "village", "population": "698", "population:date": "2020-05-01", "ref": "0103310026", "wikidata": "Q133442113"}}, {"type": "node", "id": 7874934989, "lat": 16.5484136, "lon": 120.3991592, "tags": {"admin_level": "10", "admin_type:PH": "barangay", "name": "Lioac Sur", "place": "village", "source:name": "extrapolated from OSMaPaaralan, way/379514037"}}, {"type": "node", "id": 8184923298, "lat": 16.5789663, "lon": 120.3219384, "tags": {"admin_level": "10", "admin_type:PH": "barangay", "is_in:city": "San Fernando", "name": "Pagdalagan", "place": "village"}}, {"type": "node", "id": 8184923299, "lat": 16.4289744, "lon": 120.3581965, "tags": {"admin_level": "10", "admin_type:PH": "barangay", "name": "Sobredillo", "place": "village"}}, {"type": "node", "id": 8184923314, "lat": 16.4234687, "lon": 120.3952539, "tags": {"admin_level": "10", "admin_type:PH": "barangay", "name": "San Jose", "place": "village"}}, {"type": "node", "id": 8184923328, "lat": 16.4489272, "lon": 120.3590065, "tags": {"admin_level": "10", "admin_type:PH": "barangay", "name": "San Cornelio", "place": "village"}}, {"type": "node", "id": 8184923333, "lat": 16.5495501, "lon": 120.3789192, "tags": {"admin_level": "10", "admin_type:PH": "barangay", "name": "Bancagan", "place": "village"}}, {"type": "node", "id": 8184923334, "lat": 16.5419999, "lon": 120.3760747, "tags": {"admin_level": "10", "admin_type:PH": "barangay", "is_in:town": "Naguillan", "name": "Daramuangan", "place": "village", "population": "1185", "population:2015": "1200", "ref": "013311018"}}, {"type": "node", "id": 8184923529, "lat": 16.464248, "lon": 120.3361648, "tags": {"admin_level": "10", "admin_type:PH": "barangay", "name": "Urayong", "place": "village", "postal_code": "2501"}}, {"type": "node", "id": 8184924106, "lat": 16.5524708, "lon": 120.3983867, "tags": {"admin_level": "10", "admin_type:PH": "barangay", "name": "Lioac Norte", "place": "village"}}, {"type": "node", "id": 8184924453, "lat": 16.5026836, "lon": 120.3992879, "tags": {"admin_level": "10", "admin_type:PH": "barangay", "name": "Nagsidorisan", "place": "village"}}, {"type": "node", "id": 8184924454, "lat": 16.5075081, "lon": 120.3861666, "tags": {"admin_level": "10", "admin_type:PH": "barangay", "name": "Suguidan Sur", "place": "village"}}, {"type": "node", "id": 8184924455, "lat": 16.525154, "lon": 120.3826475, "tags": {"admin_level": "10", "admin_type:PH": "barangay", "name": "Cabaritan Sur", "place": "village"}}, {"type": "node", "id": 8184924474, "lat": 16.5667448, "lon": 120.335151, "tags": {"admin_level": "10", "admin_type:PH": "barangay", "name": "Carmay", "place": "village"}}, {"type": "node", "id": 8184924475, "lat": 16.56657, "lon": 120.3422803, "tags": {"admin_level": "10", "admin_type:PH": "barangay", "name": "Palintucang", "place": "village"}}, {"type": "node", "id": 8184924477, "lat": 16.5419652, "lon": 120.3380155, "tags": {"admin_level": "10", "admin_type:PH": "barangay", "name": "Lower San Agustin", "place": "village"}}, {"type": "node", "id": 8184924478, "lat": 16.5216517, "lon": 120.3737104, "tags": {"admin_level": "10", "admin_type:PH": "barangay", "name": "Ballay", "place": "village"}}, {"type": "node", "id": 8184924479, "lat": 16.5106918, "lon": 120.3564101, "tags": {"admin_level": "10", "admin_type:PH": "barangay", "name": "Bucayab", "place": "village"}}, {"type": "node", "id": 8184924480, "lat": 16.4982447, "lon": 120.3703147, "tags": {"admin_level": "10", "admin_type:PH": "barangay", "name": "Cabalayangan", "place": "village"}}, {"type": "node", "id": 8184924481, "lat": 16.5154389, "lon": 120.3420335, "tags": {"admin_level": "10", "admin_type:PH": "barangay", "name": "Boy-utan", "place": "village"}}, {"type": "node", "id": 8184924482, "lat": 16.5113861, "lon": 120.3322542, "tags": {"admin_level": "10", "admin_type:PH": "barangay", "name": "Calumbaya", "place": "village"}}, {"type": "node", "id": 8184924483, "lat": 16.513341, "lon": 120.3227169, "tags": {"admin_level": "10", "admin_type:PH": "barangay", "is_in:town": "Bauang", "name": "Parian Este", "old_ref": "013307024", "place": "village", "population": "1929", "population:2015": "2226", "ref": "0103307024", "source:population": "Philippine Statistics Authority"}}, {"type": "node", "id": 8184924525, "lat": 16.4974681, "lon": 120.3487498, "tags": {"admin_level": "10", "admin_type:PH": "barangay", "name": "Palugsi\u2011Limmansangan", "place": "village"}}, {"type": "node", "id": 8184924526, "lat": 16.4986974, "lon": 120.3332359, "tags": {"admin_level": "10", "admin_type:PH": "barangay", "name": "Guerrero", "place": "village"}}, {"type": "node", "id": 8184924527, "lat": 16.4658659, "lon": 120.3605568, "tags": {"admin_level": "10", "admin_type:PH": "barangay", "name": "Santa Monica", "place": "village"}}, {"type": "node", "id": 8184924528, "lat": 16.4703055, "lon": 120.3529193, "tags": {"admin_level": "10", "admin_type:PH": "barangay", "name": "Casilagan", "place": "village", "population": "1184", "population:date": "2020-05-01", "ref": "013307013"}}, {"type": "node", "id": 8184924529, "lat": 16.4692946, "lon": 120.3346896, "tags": {"admin_level": "10", "admin_type:PH": "barangay", "name": "Bagbag", "place": "village", "postal_code": "2501"}}, {"type": "node", "id": 8184924530, "lat": 16.4999781, "lon": 120.3286922, "tags": {"admin_level": "10", "admin_type:PH": "barangay", "alt_name": "Payocpoc Norte Weste", "name": "Payocpoc Norte Oeste", "place": "village"}}, {"type": "node", "id": 8188309812, "lat": 16.4124518, "lon": 120.3901255, "tags": {"admin_level": "10", "admin_type:PH": "barangay", "name": "San Juan West", "place": "village"}}, {"type": "node", "id": 8188309823, "lat": 16.4120041, "lon": 120.3530467, "tags": {"admin_level": "10", "admin_type:PH": "barangay", "name": "San Benito Norte", "place": "village"}}, {"type": "node", "id": 8190271460, "lat": 16.8453454, "lon": 120.3507552, "tags": {"admin_level": "10", "admin_type:PH": "barangay", "name": "Nalvo Norte", "old_ref": "013310018", "place": "village", "population": "1299", "population:date": "2020-05-01", "ref": "0103310018", "wikidata": "Q133442104"}}, {"type": "node", "id": 8190271480, "lat": 16.7781179, "lon": 120.3739303, "tags": {"admin_level": "10", "admin_type:PH": "barangay", "name": "Oya-oy", "place": "village"}}, {"type": "node", "id": 8190271481, "lat": 16.7764692, "lon": 120.3848255, "tags": {"admin_level": "10", "admin_type:PH": "barangay", "name": "Ortega", "place": "village"}}, {"type": "node", "id": 8190293173, "lat": 16.7337116, "lon": 120.38077, "tags": {"admin_level": "10", "admin_type:PH": "barangay", "is_in:town": "Bacnotan", "name": "Casiaman", "place": "village"}}, {"type": "node", "id": 8190293174, "lat": 16.7351911, "lon": 120.3773957, "tags": {"admin_level": "10", "admin_type:PH": "barangay", "is_in:town": "Bacnotan", "name": "Salincob", "place": "village"}}, {"type": "node", "id": 8190293175, "lat": 16.7540026, "lon": 120.3740108, "tags": {"admin_level": "10", "admin_type:PH": "barangay", "name": "Bitalag", "place": "village"}}, {"type": "node", "id": 8190293195, "lat": 16.7561292, "lon": 120.3405797, "tags": {"admin_level": "10", "admin_type:PH": "barangay", "is_in:town": "Bacnotan", "name": "Galongen", "place": "village"}}, {"type": "node", "id": 8190293196, "lat": 16.7412734, "lon": 120.3480148, "tags": {"admin_level": "10", "admin_type:PH": "barangay", "name": "Santa Cruz", "place": "village"}}, {"type": "node", "id": 8190293197, "lat": 16.7369429, "lon": 120.364784, "tags": {"admin_level": "10", "admin_type:PH": "barangay", "is_in:town": "Bacnotan", "name": "Cabaroan", "place": "village"}}, {"type": "node", "id": 8190293198, "lat": 16.7069446, "lon": 120.370599, "tags": {"admin_level": "10", "admin_type:PH": "barangay", "name": "Zaragosa", "place": "village"}}, {"type": "node", "id": 8190293199, "lat": 16.6995663, "lon": 120.3747243, "tags": {"admin_level": "10", "admin_type:PH": "barangay", "is_in:town": "San Juan", "name": "Legleg", "place": "village"}}, {"type": "node", "id": 8190293200, "lat": 16.6882466, "lon": 120.3889829, "tags": {"admin_level": "10", "admin_type:PH": "barangay", "name": "San Felipe", "place": "village"}}, {"type": "node", "id": 8190293201, "lat": 16.6853947, "lon": 120.3397429, "tags": {"admin_level": "10", "admin_type:PH": "barangay", "name": "Taboc", "place": "village"}}, {"type": "node", "id": 8190293202, "lat": 16.6845314, "lon": 120.3589636, "tags": {"admin_level": "10", "admin_type:PH": "barangay", "name": "Santa Rosa", "place": "village"}}, {"type": "node", "id": 8190293203, "lat": 16.6982509, "lon": 120.3641188, "tags": {"admin_level": "10", "admin_type:PH": "barangay", "is_in:town": "San Juan", "name": "Quidem", "place": "village"}}, {"type": "node", "id": 8190293204, "lat": 16.7111269, "lon": 120.3398073, "tags": {"admin_level": "10", "admin_type:PH": "barangay", "name": "Baroro", "place": "village"}}, {"type": "node", "id": 8190293205, "lat": 16.6500999, "lon": 120.3526926, "tags": {"admin_level": "10", "admin_type:PH": "barangay", "name": "Dinanum", "place": "village"}}, {"type": "node", "id": 8190293206, "lat": 16.6542063, "lon": 120.3515983, "tags": {"admin_level": "10", "admin_type:PH": "barangay", "name": "Casilagan", "place": "village"}}, {"type": "node", "id": 8190293207, "lat": 16.6552599, "lon": 120.3470975, "tags": {"admin_level": "10", "admin_type:PH": "barangay", "name": "Lubing", "place": "village"}}, {"type": "node", "id": 8190293208, "lat": 16.6367804, "lon": 120.3394183, "tags": {"admin_level": "10", "admin_type:PH": "barangay", "name": "Mameltac", "place": "village"}}, {"type": "node", "id": 8190293209, "lat": 16.6657747, "lon": 120.3883016, "tags": {"admin_level": "10", "admin_type:PH": "barangay", "name": "Cabaroan", "place": "village"}}, {"type": "node", "id": 8190293210, "lat": 16.6818491, "lon": 120.3535777, "tags": {"admin_level": "10", "admin_type:PH": "barangay", "name": "Santo Rosario", "place": "village"}}, {"type": "node", "id": 8190293211, "lat": 16.6825222, "lon": 120.3695691, "tags": {"admin_level": "10", "admin_type:PH": "barangay", "name": "Dangdangla", "place": "village"}}, {"type": "node", "id": 8190293212, "lat": 16.6768645, "lon": 120.3880763, "tags": {"admin_level": "10", "admin_type:PH": "barangay", "name": "Cabugnayan", "place": "village"}}, {"type": "node", "id": 8190293216, "lat": 16.6798758, "lon": 120.3951734, "tags": {"admin_level": "10", "admin_type:PH": "barangay", "name": "Bacsayan", "place": "village"}}, {"type": "node", "id": 8190293363, "lat": 16.6698757, "lon": 120.3767359, "tags": {"admin_level": "10", "admin_type:PH": "barangay", "name": "Nadsaag", "place": "village"}}, {"type": "node", "id": 8190293364, "lat": 16.6492056, "lon": 120.3806734, "tags": {"admin_level": "10", "admin_type:PH": "barangay", "is_in:town": "San Juan", "name": "Bugbugcao", "place": "village"}}, {"type": "node", "id": 9291556541, "lat": 16.5287625, "lon": 120.3987922, "tags": {"admin_level": "10", "admin_type:PH": "barangay", "is_in:town": "Naguilian", "name": "Imelda", "place": "village"}}, {"type": "node", "id": 9395828348, "lat": 16.4201743, "lon": 120.336187, "tags": {"admin_level": "10", "admin_type:PH": "barangay", "is_in:town": "Caba", "name": "Santiago Sur", "place": "village", "population": "2082", "population:2015": "1969", "ref": "013309015", "source:name": "extrapolated from OSMaPaaralan, way/452377014", "source:population": "Philippine Statistics Authority"}}, {"type": "node", "id": 9395847303, "lat": 16.8181364, "lon": 120.3650308, "tags": {"admin_level": "10", "admin_type:PH": "barangay", "name": "Ayaoan", "old_ref": "013310002", "place": "village", "population": "713", "population:date": "2020-05-01", "ref": "0103310002", "wikidata": "Q133442088"}}, {"type": "node", "id": 9395847304, "lat": 16.8339255, "lon": 120.3650919, "tags": {"admin_level": "10", "admin_type:PH": "barangay", "name": "Sucoc Sur", "old_ref": "013310037", "place": "village", "population": "419", "population:date": "2020-05-01", "ref": "0103310037", "wikidata": "Q133442124"}}, {"type": "node", "id": 9395847309, "lat": 16.8405179, "lon": 120.3405711, "tags": {"admin_level": "10", "admin_type:PH": "barangay", "name": "Nalvo Sur", "old_ref": "013310019", "place": "village", "population": "1597", "population:date": "2020-05-01", "ref": "0103310019", "wikidata": "Q133442105"}}, {"type": "node", "id": 9395847310, "lat": 16.8276307, "lon": 120.3616264, "tags": {"admin_level": "10", "admin_type:PH": "barangay", "name": "Bungro", "old_ref": "013310005", "place": "village", "population": "464", "population:date": "2020-05-01", "ref": "0103310005", "wikidata": "Q133442091"}}, {"type": "node", "id": 9554418585, "lat": 16.7218955, "lon": 120.3420281, "tags": {"admin_level": "11", "admin_type:PH": "sitio", "name": "Paratong", "place": "hamlet"}}, {"type": "node", "id": 9718481776, "lat": 16.8499346, "lon": 120.3761297, "tags": {"admin_level": "10", "admin_type:PH": "barangay", "name": "Alcala", "old_ref": "013310001", "place": "neighbourhood", "population": "814", "population:date": "2020-05-01", "ref": "0103310001", "wikidata": "Q133442087"}}, {"type": "node", "id": 9718517065, "lat": 16.7223682, "lon": 120.3586578, "tags": {"admin_level": "10", "admin_type:PH": "barangay", "is_in:town": "Bacnotan", "name": "Raois", "place": "village"}}, {"type": "node", "id": 9718517075, "lat": 16.7189337, "lon": 120.3496912, "tags": {"admin_level": "10", "admin_type:PH": "barangay", "is_in:town": "Bacnotan", "name": "Nagsimbaanan", "place": "village"}}, {"type": "node", "id": 9744053524, "lat": 16.6117965, "lon": 120.3554553, "tags": {"admin_level": "11", "admin_type:PH": "purok", "is_in:village": "Pias", "name": "Purok 1", "place": "hamlet"}}, {"type": "node", "id": 10119998649, "lat": 16.7189903, "lon": 120.354772, "tags": {"admin_level": "10", "admin_type:PH": "barangay", "name": "Nagsaraboan", "place": "village"}}, {"type": "node", "id": 10120012167, "lat": 16.7294838, "lon": 120.3461387, "tags": {"admin_level": "10", "admin_type:PH": "barangay", "name": "Bulala", "place": "village"}}, {"type": "node", "id": 10120012168, "lat": 16.7437793, "lon": 120.3384612, "tags": {"admin_level": "10", "admin_type:PH": "barangay", "name": "Cabarsican", "place": "village"}}, {"type": "node", "id": 10120012169, "lat": 16.7487348, "lon": 120.337859, "tags": {"admin_level": "10", "admin_type:PH": "barangay", "name": "Tammocalao", "place": "village"}}, {"type": "node", "id": 10120012170, "lat": 16.7536218, "lon": 120.3534451, "tags": {"admin_level": "10", "admin_type:PH": "barangay", "is_in:town": "Bacnotan", "name": "Nangalisan", "place": "village"}}, {"type": "node", "id": 10120012171, "lat": 16.757844, "lon": 120.3448304, "tags": {"admin_level": "10", "admin_type:PH": "barangay", "is_in:town": "Bacnotan", "name": "Maragayap", "place": "village"}}, {"type": "node", "id": 10120043926, "lat": 16.7063118, "lon": 120.3643065, "tags": {"admin_level": "10", "admin_type:PH": "barangay", "name": "Lisqueb", "place": "village"}}, {"type": "node", "id": 10120043927, "lat": 16.7111776, "lon": 120.3496593, "tags": {"admin_level": "10", "admin_type:PH": "barangay", "name": "Bacsil", "place": "village"}}, {"type": "node", "id": 10120043928, "lat": 16.7123444, "lon": 120.3694793, "tags": {"admin_level": "10", "admin_type:PH": "barangay", "name": "Bussaoit", "place": "village"}}, {"type": "node", "id": 10120043929, "lat": 16.7149919, "lon": 120.3687971, "tags": {"admin_level": "10", "admin_type:PH": "barangay", "name": "Burayoc", "place": "village"}}, {"type": "node", "id": 10120043930, "lat": 16.7210383, "lon": 120.3686417, "tags": {"admin_level": "10", "admin_type:PH": "barangay", "name": "Agtipal", "place": "village"}}, {"type": "node", "id": 10120043931, "lat": 16.7276742, "lon": 120.3707109, "tags": {"admin_level": "10", "admin_type:PH": "barangay", "name": "Bagutot", "place": "village"}}, {"type": "node", "id": 10120046703, "lat": 16.7665762, "lon": 120.3453524, "tags": {"admin_level": "10", "admin_type:PH": "barangay", "is_in:town": "Bacnotan", "name": "Ballogo", "place": "village"}}, {"type": "node", "id": 10120046704, "lat": 16.7896852, "lon": 120.3488602, "tags": {"name": "Paagan", "place": "village"}}, {"type": "node", "id": 10120046705, "lat": 16.7759849, "lon": 120.3466899, "tags": {"name": "Ubbog", "place": "village"}}, {"type": "node", "id": 10120046706, "lat": 16.7726161, "lon": 120.3555527, "tags": {"name": "Nagatiran", "place": "village"}}, {"type": "node", "id": 10120046707, "lat": 16.7609567, "lon": 120.3512626, "tags": {"admin_level": "10", "admin_type:PH": "barangay", "is_in:town": "Bacnotan", "name": "Mabanengbeng 2nd", "place": "village"}}, {"type": "node", "id": 10120046708, "lat": 16.7581195, "lon": 120.3685825, "tags": {"admin_level": "10", "admin_type:PH": "barangay", "is_in:town": "Bacnotan", "name": "Narra", "place": "village"}}, {"type": "node", "id": 10120056272, "lat": 16.7364719, "lon": 120.3520919, "tags": {"admin_level": "10", "admin_type:PH": "barangay", "is_in:town": "Bacnotan", "name": "Sipulo", "place": "village"}}, {"type": "node", "id": 10120056273, "lat": 16.7353118, "lon": 120.3583056, "tags": {"admin_level": "10", "admin_type:PH": "barangay", "is_in:town": "Bacnotan", "name": "San Martin", "place": "village"}}, {"type": "node", "id": 10120056274, "lat": 16.7333828, "lon": 120.3439511, "tags": {"admin_level": "10", "admin_type:PH": "barangay", "name": "Pandan", "place": "village"}}, {"type": "node", "id": 10120065043, "lat": 16.7487922, "lon": 120.3868719, "tags": {"admin_level": "10", "admin_type:PH": "barangay", "is_in:town": "Bacnotan", "name": "Calautit", "place": "village"}}, {"type": "node", "id": 10120065044, "lat": 16.7516874, "lon": 120.3675972, "tags": {"admin_level": "10", "admin_type:PH": "barangay", "is_in:town": "Bacnotan", "name": "Cabugao", "place": "village"}}, {"type": "node", "id": 10120065049, "lat": 16.7470127, "lon": 120.3717972, "tags": {"admin_level": "10", "admin_type:PH": "barangay", "is_in:town": "Bacnotan", "name": "Santa Rita", "place": "village"}}, {"type": "node", "id": 10120065059, "lat": 16.7428666, "lon": 120.372816, "tags": {"admin_level": "10", "admin_type:PH": "barangay", "is_in:town": "Bacnotan", "name": "Pangpang", "place": "village"}}, {"type": "node", "id": 10120065064, "lat": 16.7453955, "lon": 120.377912, "tags": {"admin_level": "10", "admin_type:PH": "barangay", "is_in:town": "Bacnotan", "name": "Bacqui", "place": "village"}}, {"type": "node", "id": 10120078275, "lat": 16.7281491, "lon": 120.3849128, "tags": {"admin_level": "10", "admin_type:PH": "barangay", "name": "Sapilang", "place": "village"}}, {"type": "node", "id": 10167177230, "lat": 16.5356695, "lon": 120.3263775, "tags": {"admin_level": "11", "admin_type:PH": "purok", "alt_name": "Purok 1", "is_in:village": "Taberna", "name": "Sitio Pai-yas", "place": "hamlet"}}, {"type": "node", "id": 10862124834, "lat": 16.440263, "lon": 120.3955436, "tags": {"admin_level": "11", "admin_type:PH": "sitio", "is_in:town": "Caba", "is_in:village": "San Fermin", "name": "Labbon", "place": "hamlet"}}, {"type": "node", "id": 10862124835, "lat": 16.4449039, "lon": 120.3939986, "tags": {"admin_level": "10", "admin_type:PH": "barangay", "is_in:town": "Caba", "name": "San Fermin", "place": "village"}}, {"type": "node", "id": 11041652703, "lat": 16.7351763, "lon": 120.3730398, "tags": {"admin_level": "10", "admin_type:PH": "barangay", "alt_name": "Sayoan", "is_in:town": "Bacnotan", "name": "Say-oan", "place": "village"}}, {"type": "node", "id": 11041731886, "lat": 16.5287693, "lon": 120.3853136, "tags": {"name": "Sitio Boulevard", "place": "neighbourhood"}}, {"type": "node", "id": 11118792551, "lat": 16.5304742, "lon": 120.3978288, "tags": {"admin_level": "11", "admin_type:PH": "purok", "check_date": "2023-08-15", "name": "Sitio Centrum", "place": "neighbourhood", "source": "survey;bing;barangay"}}, {"type": "node", "id": 11118792552, "lat": 16.5318395, "lon": 120.3989124, "tags": {"admin_level": "11", "admin_type:PH": "purok", "check_date": "2023-08-15", "name": "Sitio Kaloakan", "place": "neighbourhood", "source": "survey;bing;barangay"}}, {"type": "node", "id": 11120945385, "lat": 16.5302736, "lon": 120.3906888, "tags": {"admin_level": "11", "admin_type:PH": "purok", "check_date": "2023-08-17", "name": "Sitio Manga", "place": "neighbourhood", "source": "survey;bing"}}, {"type": "node", "id": 11140650224, "lat": 16.5327395, "lon": 120.3574133, "tags": {"name": "Baratao", "place": "hamlet"}}, {"type": "node", "id": 11158554029, "lat": 16.6437409, "lon": 120.3131716, "tags": {"name": "Mariville Subdivision", "place": "neighbourhood"}}, {"type": "node", "id": 11269985454, "lat": 16.6749272, "lon": 120.3415051, "tags": {"name": "Saint Louis Ville", "place": "neighbourhood"}}, {"type": "node", "id": 11270158616, "lat": 16.6915018, "lon": 120.3412905, "tags": {"admin_level": "10", "admin_type:PH": "barangay", "name": "Talogtog", "place": "village"}}, {"type": "node", "id": 12133847286, "lat": 16.5452563, "lon": 120.3898117, "tags": {"admin_level": "10", "admin_type:PH": "barangay", "name": "Baraoas Sur", "place": "village"}}, {"type": "node", "id": 12133847287, "lat": 16.5560343, "lon": 120.3964662, "tags": {"admin_level": "10", "admin_type:PH": "barangay", "name": "Baraoas Norte", "place": "village"}}, {"type": "node", "id": 12196488191, "lat": 16.4044015, "lon": 119.9449564, "tags": {"admin_level": "10", "admin_type:PH": "barangay", "is_in:town": "Bolinao", "name": "Goyoden", "place": "village", "population": "2989", "population:2015": "015514012", "ref": "0105514012", "source:population": "Philippine Statistics Authority"}}, {"type": "node", "id": 12532071929, "lat": 16.4174278, "lon": 120.3938806, "tags": {"admin_level": "10", "admin_type:PH": "barangay", "name": "San Juan East", "place": "village"}}, {"type": "node", "id": 12532278728, "lat": 16.4352944, "lon": 120.3616076, "tags": {"admin_level": "10", "admin_type:PH": "barangay", "name": "San Gregorio", "place": "village"}}, {"type": "node", "id": 12539374736, "lat": 16.6528688, "lon": 120.3840195, "tags": {"admin_level": "10", "admin_type:PH": "barangay", "is_in:town": "San Juan", "name": "Saracat", "place": "village"}}, {"type": "node", "id": 12539431880, "lat": 16.6866691, "lon": 120.3577526, "tags": {"admin_level": "10", "admin_type:PH": "barangay", "is_in:town": "San Juan", "name": "Calincamasan", "place": "village"}}, {"type": "node", "id": 12543577780, "lat": 16.7591084, "lon": 120.3559327, "tags": {"admin_level": "10", "admin_type:PH": "barangay", "is_in:town": "Bacnotan", "name": "Mabanengbeng 1st", "place": "village"}}, {"type": "node", "id": 12648071135, "lat": 16.6558869, "lon": 120.3222576, "tags": {"admin_level": "11", "admin_type:PH": "purok", "name": "Purok 7", "place": "hamlet"}}, {"type": "node", "id": 12648071136, "lat": 16.6754732, "lon": 120.3526685, "tags": {"admin_level": "10", "admin_type:PH": "barangay", "is_in:town": "San Juan", "name": "Cacapian", "place": "village"}}, {"type": "node", "id": 12648071137, "lat": 16.6624446, "lon": 120.330846, "tags": {"admin_level": "10", "admin_type:PH": "barangay", "is_in:town": "San Juan", "name": "Panicsican", "place": "village"}}, {"type": "node", "id": 12648071147, "lat": 16.672476, "lon": 120.3356042, "tags": {"name": "Maria Cristina Arbor Village", "place": "neighbourhood"}}, {"type": "node", "id": 12649469398, "lat": 16.6925218, "lon": 120.3819931, "tags": {"admin_level": "10", "admin_type:PH": "barangay", "is_in:town": "San Juan", "name": "Guinguinabang", "place": "village"}}, {"type": "node", "id": 12649476426, "lat": 16.7006659, "lon": 120.3742039, "tags": {"admin_level": "10", "admin_type:PH": "barangay", "is_in:town": "Bacnotan", "name": "Legleg", "place": "village"}}, {"type": "node", "id": 12649476473, "lat": 16.726938, "lon": 120.3512442, "tags": {"name": "Lacong Village", "place": "hamlet"}}, {"type": "node", "id": 12684874195, "lat": 16.8509127, "lon": 120.3740953, "tags": {"admin_level": "10", "admin_type:PH": "barangay", "name": "Magallanes", "old_ref": "013310014", "place": "neighbourhood", "population": "2232", "population:date": "2020-05-01", "ref": "0103310014", "wikidata": "Q133442100"}}, {"type": "node", "id": 12685998109, "lat": 16.8384852, "lon": 120.3872502, "tags": {"admin_level": "10", "admin_type:PH": "barangay", "name": "Nagrebcan", "old_ref": "013310017", "place": "village", "population": "946", "population:date": "2020-05-01", "ref": "0103310017", "wikidata": "Q133442103"}}, {"type": "node", "id": 12697790157, "lat": 16.8475403, "lon": 120.391064, "tags": {"admin_level": "10", "admin_type:PH": "barangay", "alt_name": "Buselbusel", "name": "Busel-Busel", "old_ref": "013310006", "place": "village", "population": "1115", "population:date": "2020-05-01", "ref": "0103310006", "wikidata": "Q133442092"}}, {"type": "node", "id": 12705296654, "lat": 16.6394685, "lon": 120.3090477, "tags": {"name": "Catalan Compound", "place": "neighbourhood"}}, {"type": "node", "id": 12705312649, "lat": 16.6096015, "lon": 120.3134519, "tags": {"name": "Saint Willam Subdivision", "place": "neighbourhood"}}, {"type": "node", "id": 12707147186, "lat": 16.8129321, "lon": 120.3571147, "tags": {"admin_level": "10", "admin_type:PH": "barangay", "name": "Cabalitocan", "old_ref": "013310007", "place": "village", "population": "1124", "population:date": "2020-05-01", "ref": "0103310007", "wikidata": "Q133442093"}}, {"type": "node", "id": 12708759693, "lat": 16.8303393, "lon": 120.3786363, "tags": {"admin_level": "10", "admin_type:PH": "barangay", "name": "Tallaoen", "old_ref": "013310039", "place": "village", "population": "747", "population:date": "2020-05-01", "ref": "0103310039", "wikidata": "Q133442126"}}, {"type": "node", "id": 12709030737, "lat": 16.8299556, "lon": 120.370757, "tags": {"admin_level": "10", "admin_type:PH": "barangay", "name": "Magsiping", "old_ref": "013310015", "place": "village", "population": "960", "population:date": "2020-05-01", "ref": "0103310015", "wikidata": "Q133442101"}}, {"type": "node", "id": 12711023132, "lat": 16.8390769, "lon": 120.3680791, "tags": {"admin_level": "10", "admin_type:PH": "barangay", "name": "Sucoc Norte", "old_ref": "013310036", "place": "village", "population": "601", "population:date": "2020-05-01", "ref": "0103310036", "wikidata": "Q133442123"}}, {"type": "node", "id": 12718432541, "lat": 16.8302007, "lon": 120.3429072, "tags": {"admin_level": "10", "admin_type:PH": "barangay", "name": "Carisquis", "old_ref": "013310012", "place": "village", "population": "793", "population:date": "2020-05-01", "ref": "0103310012", "wikidata": "Q133442098"}}, {"type": "node", "id": 12718432553, "lat": 16.8291805, "lon": 120.347112, "tags": {"admin_level": "10", "admin_type:PH": "barangay", "name": "Pila", "old_ref": "013310025", "place": "village", "population": "1293", "population:date": "2020-05-01", "ref": "0103310025", "wikidata": "Q133442112"}}, {"type": "node", "id": 12718432554, "lat": 16.8211581, "lon": 120.3581541, "tags": {"admin_level": "10", "admin_type:PH": "barangay", "name": "Mamay", "old_ref": "013310016", "place": "village", "population": "342", "population:date": "2020-05-01", "ref": "0103310016", "wikidata": "Q133442102"}}, {"type": "node", "id": 12860150458, "lat": 16.845052, "lon": 120.3585774, "tags": {"admin_level": "11", "admin_type:PH": "purok", "is_in:village": "Nalvo Norte", "name": "Purok 1", "place": "hamlet"}}, {"type": "node", "id": 12860150486, "lat": 16.8428468, "lon": 120.3445065, "tags": {"admin_level": "11", "admin_type:PH": "purok", "is_in:village": "Nalvo Norte", "name": "Purok 7", "place": "hamlet"}}, {"type": "node", "id": 12860150489, "lat": 16.8443615, "lon": 120.3471807, "tags": {"admin_level": "11", "admin_type:PH": "purok", "is_in:village": "Nalvo Norte", "name": "Purok 6", "place": "hamlet"}}]}