{"version": 0.6, "generator": "Overpass API 0.7.62.5 1bd436f1", "osm3s": {"timestamp_osm_base": "2025-05-24T17:49:13Z", "copyright": "The data included in this document is from www.openstreetmap.org. The data is made available under ODbL."}, "elements": [{"type": "node", "id": 198492705, "lat": 15.2889971, "lon": 120.0247358, "tags": {"admin_level": "6", "gns_classification": "ADM2", "gns_uni": "-3332468", "is_in:province": "Zambales", "name": "Botolan", "place": "town", "place:PH": "municipality", "population": "57707", "population:date": "2015-08-01", "source:population": "Philippine Statistics Authority", "wikidata": "Q56529", "wikimedia_commons": "Category:Botolan", "wikipedia": "en:Botolan, Zambales"}}, {"type": "node", "id": 198505927, "lat": 15.3264614, "lon": 119.9801043, "tags": {"admin_level": "6", "capital": "4", "designation": "municipality", "name": "Iba", "name:eo": "Iba (Filipinoj)", "name:es": "Iba (Filipinas)", "name:ja": "\u30a4\u30d0", "name:ka": "\u10d8\u10d1\u10d0 (\u10e1\u10d0\u10db\u10d1\u10d0\u10da\u10d4\u10e1\u10d8)", "name:ko": "\uc774\ubc14", "name:lv": "Iba (Filip\u012bnas)", "name:th": "\u0e2d\u0e35\u0e1a\u0e32 (\u0e08\u0e31\u0e07\u0e2b\u0e27\u0e31\u0e14\u0e0b\u0e31\u0e21\u0e1a\u0e32\u0e40\u0e25\u0e2a)", "name:ur": "\u0627\u06cc\u0628\u0627\u060c \u0632\u0627\u0645\u0628\u0627\u0644\u06cc\u0633", "name:zh": "\u4f0a\u5df4 (\u83f2\u5f8b\u8cd3)", "official_name": "Munisipyo ng Iba", "official_name:en": "Municipality of Iba", "official_name:es": "Municipio de Iba", "official_name:tl": "Bayan ng Iba", "old_ref": "037105000", "place": "town", "population": "55581", "population:date": "2020-05-01", "ref": "0307105000", "source:population": "Philippine Statistics Authority", "wikidata": "Q56566", "wikimedia_commons": "Category:Iba, Zambales", "wikipedia": "en:Iba, Zambales"}}, {"type": "node", "id": 198532584, "lat": 15.1589463, "lon": 120.0554631, "tags": {"admin_level": "6", "admin_type:PH": "municipality", "gns_classification": "ADM2", "gns_uni": "-3334850", "is_in:province": "Zambales", "name": "Cabangan", "place": "town", "population": "25163", "population:date": "2015-08-01", "source": "GNS", "source:population": "Philippine Statistics Authority", "wikidata": "Q56533", "wikimedia_commons": "Category:Cabangan", "wikipedia": "en:Cabangan"}}, {"type": "node", "id": 944771203, "lat": 15.2817847, "lon": 120.0336997, "tags": {"admin_level": "10", "admin_type:PH": "barangay", "name": "Carael", "place": "village", "place:PH": "barangay", "source:name": "extrapolated from OSMaPaaralan, way/204260934"}}, {"type": "node", "id": 1121545164, "lat": 15.3284667, "lon": 120.0079907, "tags": {"alt_name": "ABS-CBN Eco Village", "description": "a resettlement area for people displaced by the eruption of Mt. Pinatubo", "is_in:village": "Palanginan", "name": "Eco Village", "place": "neighbourhood"}}, {"type": "node", "id": 1631004026, "lat": 15.2363304, "lon": 120.3738155, "tags": {"alt_name": "Sitio Tarukan", "ele": "400", "is_in:barangay": "Santa Juliana", "is_in:municipality": "Capas", "name": "Tarukan", "place": "hamlet", "postal_code": "2315"}}, {"type": "node", "id": 1632858432, "lat": 15.264221, "lon": 120.3476842, "tags": {"name": "Alunan", "place": "hamlet"}}, {"type": "node", "id": 3120078424, "lat": 15.2913413, "lon": 120.0021059, "tags": {"admin_level": "10", "admin_type:PH": "barangay", "name": "Danacbunga", "place": "village"}}, {"type": "node", "id": 3120078425, "lat": 15.3037893, "lon": 119.9990576, "tags": {"admin_level": "10", "admin_type:PH": "barangay", "name": "Parel", "place": "village", "population": "1257", "population:2015": "1091", "ref": "037101014", "source:name": "extrapolated from OSMaPaaralan, way/1022730810", "source:population": "Philippine Statistics Authority"}}, {"type": "node", "id": 3120078543, "lat": 15.2838373, "lon": 120.0060073, "tags": {"name": "Beneg", "place": "village"}}, {"type": "node", "id": 3120078544, "lat": 15.2876756, "lon": 120.0473766, "tags": {"admin_level": "10", "admin_type:PH": "barangay", "name": "Paudpod", "place": "village", "population": "21877"}}, {"type": "node", "id": 3120107858, "lat": 15.2889955, "lon": 120.0322574, "tags": {"name": "Batonlapoc", "place": "village"}}, {"type": "node", "id": 3120107859, "lat": 15.2736555, "lon": 120.0097413, "tags": {"admin_level": "10", "admin_type:PH": "barangay", "name": "Bangan", "place": "village"}}, {"type": "node", "id": 3122134043, "lat": 15.3082286, "lon": 120.0024253, "tags": {"admin_level": "10", "admin_type:PH": "barangay", "is_in:town": "Botolan", "name": "Bancal", "place": "village", "population": "1146", "population:2015": "1142", "ref": "037101025", "source:population": "Philippine Statistics Authority"}}, {"type": "node", "id": 3122225456, "lat": 15.313905, "lon": 119.9946444, "tags": {"admin_level": "10", "admin_type:PH": "barangay", "name": "Palanginan", "old_name": "Palanguinan-Tambak", "place": "village", "population": "10973", "population:2015": "10413", "ref": "037105012", "source:population": "Philippine Statistics Authority"}}, {"type": "node", "id": 3125117416, "lat": 15.2861292, "lon": 120.0162741, "tags": {"name": "San Miguel", "place": "village"}}, {"type": "node", "id": 3125117417, "lat": 15.2756053, "lon": 120.0107805, "tags": {"admin_level": "10", "admin_type:PH": "barangay", "name": "Capayawan", "place": "village"}}, {"type": "node", "id": 3125117420, "lat": 15.3028154, "lon": 120.0186886, "tags": {"admin_level": "10", "admin_type:PH": "barangay", "name": "Santiago", "place": "village", "population": "2331", "population:2015": "2025", "ref": "037101021", "source:name": "extrapolated from OSMaPaaralan, way/1022770826"}}, {"type": "node", "id": 3125117478, "lat": 15.3138425, "lon": 120.0150558, "tags": {"admin_level": "10", "admin_type:PH": "barangay", "name": "San Isidro", "name:es": "San Isidro", "place": "village", "population": "1802", "population:2015": "1533", "ref": "037101018"}}, {"type": "node", "id": 3125117479, "lat": 15.3129518, "lon": 120.030629, "tags": {"admin_level": "10", "admin_type:PH": "barangay", "is_in:town": "Botolan", "name": "Mambog", "place": "village", "population": "4524", "population:2015": "4145", "ref": "037101009", "source:name": "extrapolated from OSMaPaaralan, way/837198544"}}, {"type": "node", "id": 3125117480, "lat": 15.2799838, "lon": 120.0871549, "tags": {"name": "Baquilan", "place": "village"}}, {"type": "node", "id": 3125117481, "lat": 15.2882864, "lon": 120.0654288, "tags": {"admin_level": "10", "admin_type:PH": "barangay", "name": "San Juan", "place": "village"}}, {"type": "node", "id": 3125117482, "lat": 15.2507678, "lon": 120.017416, "tags": {"admin_level": "10", "admin_type:PH": "barangay", "is_in:town": "Botolan", "name": "Porac", "place": "village", "population": "3579", "population:2015": "3306", "ref": "037101017", "source:name": "extrapolated from OSMaPaaralan, way/839300015", "source:population": "Philippine Statistics Authority"}}, {"type": "node", "id": 3125118929, "lat": 15.2889849, "lon": 120.0282618, "tags": {"name": "Paco", "place": "village"}}, {"type": "node", "id": 3125119491, "lat": 15.2608332, "lon": 120.0362982, "tags": {"name": "Panan", "place": "neighbourhood"}}, {"type": "node", "id": 5703495140, "lat": 15.2761963, "lon": 120.3287564, "tags": {"name": "Malalabatay", "place": "hamlet"}}, {"type": "node", "id": 5743809135, "lat": 15.4715711, "lon": 120.3836285, "tags": {"name": "Maamot Relocation", "place": "neighbourhood"}}, {"type": "node", "id": 7921722481, "lat": 15.2981278, "lon": 120.0395313, "tags": {"admin_level": "11", "alt_name": "Purok 6", "designation": "purok", "is_in:town": "Botolan", "is_in:village": "Taugtog", "name": "Paitan", "place": "neighbourhood", "source:name": "extrapolated from Note 193734"}}, {"type": "node", "id": 8523499601, "lat": 15.5360958, "lon": 120.3938883}, {"type": "node", "id": 8649540152, "lat": 15.5418221, "lon": 120.394626}, {"type": "node", "id": 8649540153, "lat": 15.5231672, "lon": 120.3900109}, {"type": "node", "id": 8649540154, "lat": 15.4996721, "lon": 120.3910347}, {"type": "node", "id": 8649540155, "lat": 15.5130652, "lon": 120.3664663}, {"type": "node", "id": 8649540156, "lat": 15.5233609, "lon": 120.3444071}, {"type": "node", "id": 8649540157, "lat": 15.5213486, "lon": 120.3289715}, {"type": "node", "id": 8649540158, "lat": 15.5107632, "lon": 120.2914788}, {"type": "node", "id": 8649540159, "lat": 15.5413364, "lon": 120.2994805}, {"type": "node", "id": 8649540160, "lat": 15.5419463, "lon": 120.3426766}, {"type": "node", "id": 8649540161, "lat": 15.5357015, "lon": 120.3666076}, {"type": "node", "id": 8649540162, "lat": 15.5374067, "lon": 120.3773493}, {"type": "node", "id": 8649540163, "lat": 15.5373542, "lon": 120.378148}, {"type": "node", "id": 8649540164, "lat": 15.5403145, "lon": 120.3878754}, {"type": "node", "id": 9093028864, "lat": 15.4625659, "lon": 120.3926955, "tags": {"admin_level": "10", "admin_type:PH": "barangay", "name": "Sula", "place": "village"}}, {"type": "node", "id": 9093030238, "lat": 15.4358698, "lon": 120.4122767, "tags": {"admin_level": "10", "admin_type:PH": "barangay", "is_in:town": "Iba", "name": "San Pedro", "place": "village", "source:name": "extrapolated from OSMaPaaralan"}}, {"type": "node", "id": 9093034316, "lat": 15.4531917, "lon": 120.4082787, "tags": {"admin_level": "10", "admin_type:PH": "barangay", "is_in:town": "San Jose", "name": "Iba", "place": "village", "source:name": "extrapolated from OSMaPaaralan"}}, {"type": "node", "id": 9093536263, "lat": 15.391771, "lon": 120.3499899, "tags": {"name": "Dirita", "place": "hamlet"}}, {"type": "node", "id": 9093546213, "lat": 15.4586623, "lon": 120.3505304, "tags": {"name": "Pisapungan", "place": "hamlet"}}, {"type": "node", "id": 9093549242, "lat": 15.4361576, "lon": 120.3545658, "tags": {"admin_level": "10", "admin_type:PH": "barangay", "name": "Maamot", "place": "village"}}, {"type": "node", "id": 9179916817, "lat": 15.3938073, "lon": 120.3958395, "tags": {"admin_level": "11", "admin_type:PH": "sitio", "is_in": "Sula;San Jose", "name": "Baag", "place": "hamlet"}}, {"type": "node", "id": 9432344511, "lat": 15.3041041, "lon": 119.9990675, "tags": {"admin_level": "12", "admin_type:PH": "purok", "is_in:town": "Botolan", "is_in:village": "Parel", "name": "Purok 2", "place": "neighbourhood", "source:name": "extrapolated from OSMaPaaralan, way/1022730810"}}, {"type": "node", "id": 9432395170, "lat": 15.3133165, "lon": 120.029524, "tags": {"admin_level": "12", "admin_type:PH": "purok", "is_in:town": "Botolan", "is_in:village": "Mambog", "name": "Purok 3", "place": "neighbourhood", "source:name": "extrapolated from OSMaPaaralan, way/837198544"}}, {"type": "node", "id": 9432850875, "lat": 15.2819108, "lon": 120.0325468, "tags": {"admin_level": "12", "admin_type:PH": "purok", "is_in:town": "Botolan", "is_in:village": "Carael", "name": "Purok 2", "place": "neighbourhood", "source:name": "extrapolated from OSMaPaaralan, way/204260934"}}, {"type": "node", "id": 9432912645, "lat": 15.2585482, "lon": 120.0312694, "tags": {"admin_level": "12", "admin_type:PH": "purok", "is_in:town": "Botolan", "is_in:village": "Porac", "name": "Bucao", "place": "neighbourhood", "source:name": "extrapolated from OSMaPaaralan, way/839300015"}}, {"type": "node", "id": 9432917712, "lat": 15.3114591, "lon": 120.0664613, "tags": {"admin_level": "12", "admin_type:PH": "purok", "is_in:town": "Botolan", "is_in:village": "Taugtog", "name": "Poonbato", "place": "neighbourhood", "source:name": "extrapolated from OSMaPaaralan, way/1022796757"}}, {"type": "node", "id": 9432917713, "lat": 15.314059, "lon": 120.0655568, "tags": {"admin_level": "11", "admin_type:PH": "sitio", "name": "Loob Bunga", "place": "village"}}, {"type": "node", "id": 9432949427, "lat": 15.3161415, "lon": 120.0616072, "tags": {"admin_level": "12", "admin_type:PH": "purok", "is_in:town": "Botolan", "is_in:village": "Taugtog", "name": "Belbel", "place": "neighbourhood", "source:name": "extrapolated from OSMaPaaralan, way/839311839"}}, {"type": "node", "id": 9432949428, "lat": 15.3177144, "lon": 120.0636417, "tags": {"admin_level": "12", "admin_type:PH": "purok", "is_in:town": "Botolan", "name": "Maguisguis", "place": "neighbourhood", "source:name": "extrapolated from OSMaPaaralan, way/789637099"}}, {"type": "node", "id": 9432949429, "lat": 15.3191579, "lon": 120.0607717, "tags": {"name": "Owaog", "place": "neighbourhood", "source:name": "extrapolated from OSMaPaaralan, way/789637097"}}, {"type": "node", "id": 9432978862, "lat": 15.3196416, "lon": 120.0417911, "tags": {"admin_level": "11", "admin_type:PH": "sitio", "is_in:district": "Mambog", "is_in:town": "Botolan", "name": "Bihawo", "place": "village"}}, {"type": "node", "id": 9433360628, "lat": 15.1827822, "lon": 120.0385335, "tags": {"admin_level": "10", "admin_type:PH": "barangay", "is_in:town": "Cabangan", "name": "Arew", "place": "village", "population": "1239", "population:2015": "1049", "ref": "037102004", "source:population": "Philippine Statistics Authority"}}, {"type": "node", "id": 9433375615, "lat": 15.1845424, "lon": 120.0435801, "tags": {"admin_level": "10", "admin_type:PH": "barangay", "is_in:town": "Cabangan", "name": "Apo-apo", "place": "village", "population": "651", "population:2015": "658", "ref": "037102002", "source:population": "Philippine Statistics Authority"}}, {"type": "node", "id": 9433427064, "lat": 15.178313, "lon": 120.0479078, "tags": {"admin_level": "10", "admin_type:PH": "barangay", "is_in:town": "Cabangan", "name": "Santa Rita", "place": "village", "population": "2130", "population:2015": "1944", "ref": "037102023", "source:population": "Philippine Statistics Authority"}}, {"type": "node", "id": 9433455543, "lat": 15.1368557, "lon": 120.0551163, "tags": {"admin_level": "10", "admin_type:PH": "barangay", "is_in:town": "Cabangan", "name": "Longos", "place": "village", "population": "1192", "population:2015": "1052", "ref": "037102014", "source:name": "extrapolated from OSMaPaaralan, way/839091852", "source:population": "Philippine Statistics Authority"}}, {"type": "node", "id": 9433455544, "lat": 15.1368233, "lon": 120.0554743, "tags": {"admin_level": "12", "admin_type:PH": "purok", "is_in:town": "Cabangan", "is_in:village": "Longos", "name": "Purok 2", "place": "neighbourhood", "source:name": "extrapolated from OSMaPaaralan, way/839091852"}}, {"type": "node", "id": 9433455554, "lat": 15.1204398, "lon": 120.0476208, "tags": {"admin_level": "10", "admin_type:PH": "barangay", "is_in:town": "Cabangan", "name": "Laoag", "place": "village", "population": "1458", "population:2015": "1224", "ref": "037102012", "source:population": "Philippine Statistics Authority"}}, {"type": "node", "id": 9435284688, "lat": 15.2002739, "lon": 120.0317314, "tags": {"admin_level": "10", "admin_type:PH": "sitio", "is_in:town": "Cabangan", "name": "Mabanglit", "place": "village", "population": "2098", "population:2015": "1991", "ref": "037102016", "source:name": "extrapolated from OSMaPaaralan, relation/13699311", "source:population": "Philippine Statistics Authority"}}, {"type": "node", "id": 9435344470, "lat": 15.2150232, "lon": 120.0245015, "tags": {"admin_level": "10", "admin_type:PH": "barangay", "is_in:town": "Botolan", "name": "Panan", "place": "village", "population": "2926", "population:2015": "2728", "ref": "037101013", "source:name": "extrapolated from OSMaPaaralan, way/839298239", "source:population": "Philippine Statistics Authority"}}, {"type": "node", "id": 9435344471, "lat": 15.2170251, "lon": 120.0248703, "tags": {"admin_level": "12", "admin_type:PH": "purok", "is_in:town": "Botolan", "is_in:village": "Panan", "name": "Purok 1", "place": "neighbourhood", "source:name": "extrapolated from OSMaPaaralan, way/839298239"}}, {"type": "node", "id": 9435344472, "lat": 15.2124337, "lon": 120.0279616, "tags": {"admin_level": "12", "admin_type:PH": "purok", "is_in:town": "Botolan", "is_in:village": "Panan", "name": "Purok 6", "place": "neighbourhood", "source:name": "extrapolated from OSMaPaaralan, way/839317256"}}, {"type": "node", "id": 9435344539, "lat": 15.2008951, "lon": 120.0335513, "tags": {"admin_level": "12", "admin_type:PH": "sitio", "alt_name": "Sapangbato", "is_in:town": "Cabangan", "is_in:village": "Mabanglit", "name": "Sapang Bato", "place": "neighbourhood", "source:name": "extrapolated from OSMaPaaralan, relation/13699311"}}, {"type": "node", "id": 9438265039, "lat": 15.3481215, "lon": 119.9673343, "tags": {"admin_level": "10", "admin_type:PH": "barangay", "is_in:town": "Iba", "name": "Bangantalinga", "place": "village", "population": "5188", "population:2015": "4759", "ref": "037105004", "source:population": "Philippine Statistics Authority"}}, {"type": "node", "id": 9438301982, "lat": 15.3321437, "lon": 119.9793412, "tags": {"admin_level": "12", "admin_type:PH": "purok", "is_in:town": "Iba", "is_in:village": "Dirita-Baloguen", "name": "Purok 2", "place": "neighbourhood", "source:name": "extrapolated from OSMaPaaralan, way/837205943"}}, {"type": "node", "id": 9438301983, "lat": 15.3330232, "lon": 119.9779183, "tags": {"admin_level": "10", "admin_type:PH": "barangay", "is_in:town": "Iba", "name": "Dirita-Baloguen", "place": "village", "population": "3763", "population:2015": "3162", "ref": "037105008", "source:name": "extrapolated from OSMaPaaralan, way/837205943"}}, {"type": "node", "id": 9438398842, "lat": 15.356569, "lon": 119.9621522, "tags": {"admin_level": "12", "admin_type:PH": "purok", "is_in:town": "Iba", "is_in:village": "Amungan", "name": "Lawak", "place": "neighbourhood", "source:name": "extrapolated from OSMaPaaralan, way/838662579"}}, {"type": "node", "id": 9438399048, "lat": 15.343282, "lon": 119.9715936, "tags": {"admin_level": "12", "admin_type:PH": "purok", "is_in:town": "Iba", "is_in:village": "Bangantalinga", "name": "Purok 2", "place": "neighbourhood", "source:name": "extrapolated from OSMaPaaralan, way/1023474490"}}, {"type": "node", "id": 9438399325, "lat": 15.3711482, "lon": 119.95785, "tags": {"admin_level": "12", "admin_type:PH": "purok", "is_in:town": "Iba", "is_in:village": "Amungan", "name": "Dampay", "place": "neighbourhood", "source:name": "extrapolated from OSMaPaaralan, way/1023472892"}}, {"type": "node", "id": 9438402340, "lat": 15.3640993, "lon": 119.958491, "tags": {"admin_level": "10", "admin_type:PH": "barangay", "is_in:town": "Iba", "name": "Amungan", "place": "village", "population": "10714", "population:2015": "9017", "ref": "037105001", "source:name": "extrapolated from OSMaPaaralan, relation/12327635", "source:population": "Philippine Statistics Authority"}}, {"type": "node", "id": 9438402341, "lat": 15.3631979, "lon": 119.9582657, "tags": {"admin_level": "12", "admin_type:PH": "purok", "is_in:town": "Iba", "is_in:village": "Amungan", "name": "Purok 3", "place": "neighbourhood", "source:name": "extrapolated from OSMaPaaralan, relation/12327635"}}, {"type": "node", "id": 9438403431, "lat": 15.3240781, "lon": 120.0104052, "tags": {"admin_level": "11", "admin_type:PH": "sitio", "is_in:town": "Iba", "is_in:village": "Mambog", "name": "Tambac", "place": "hamlet"}}, {"type": "node", "id": 9438411800, "lat": 15.4051367, "lon": 119.9937862, "tags": {"admin_level": "11", "admin_type:PH": "sitio", "is_in:district": "San Agustin", "is_in:town": "Iba", "name": "Lupang Pangako", "place": "hamlet"}}, {"type": "node", "id": 9441218576, "lat": 15.5103686, "lon": 119.9695276, "tags": {"admin_level": "10", "admin_type:PH": "barangay", "is_in:town": "Masinloc", "name": "Bamban", "place": "village", "population": "2666", "population:2015": "2429", "ref": "037106002", "source:name": "extrapolated from OSMaPaaralan, way/839415885", "source:population": "Philippine Statistics Authority"}}, {"type": "node", "id": 9441218581, "lat": 15.5087979, "lon": 119.9695458, "tags": {"admin_level": "12", "admin_type:PH": "purok", "is_in:town": "Masinloc", "is_in:village": "Bamban", "name": "Purok 1", "place": "neighbourhood", "source:name": "extrapolated from OSMaPaaralan, way/839415885"}}, {"type": "node", "id": 9443853142, "lat": 15.2365533, "lon": 120.0155751, "tags": {"admin_level": "10", "admin_type:PH": "barangay", "is_in:town": "Botolan", "name": "Binoclutan", "not:name": "Binuclutan", "old_ref": "037101027", "place": "village", "population": "1239", "population:2015": "1126", "ref": "0307101027", "source:name": "extrapolated from OSMaPaaralan, way/839298804", "source:population": "Philippine Statistics Authority"}}, {"type": "node", "id": 9444317336, "lat": 15.4365665, "lon": 120.0225395, "tags": {"admin_level": "11", "admin_type:PH": "sitio", "is_in:district": "Salaza", "is_in:town": "Palauig", "name": "Dampay", "place": "hamlet", "source:name": "extrapolated from OSMaPaaralan, way/1024187598"}}, {"type": "node", "id": 9444335696, "lat": 15.460478, "lon": 119.9892774, "tags": {"admin_level": "11", "admin_type:PH": "sitio", "is_in:district": "Salaza", "is_in:town": "Palauig", "name": "Dapla", "place": "hamlet", "source:name": "extrapolated from OSMaPaaralan, way/1024190211"}}, {"type": "node", "id": 9444336429, "lat": 15.4790056, "lon": 119.9999466, "tags": {"admin_level": "11", "admin_type:PH": "sitio", "fixme": "name", "is_in:town": "Palauig", "place": "hamlet"}}, {"type": "node", "id": 9444362721, "lat": 15.4661549, "lon": 119.9679123, "tags": {"admin_level": "10", "admin_type:PH": "barangay", "is_in:town": "Palauig", "name": "Pangolingan", "place": "village", "population": "2430", "population:2015": "1791", "ref": "037108012", "source:population": "Philippine Statistics Authority"}}, {"type": "node", "id": 9444390986, "lat": 15.4423605, "lon": 119.9817243, "tags": {"admin_level": "11", "admin_type:PH": "sitio", "is_in:district": "Salaza", "is_in:town": "Palauig", "name": "Manggahan", "place": "hamlet", "source:name": "extrapolated from OSMaPaaralan, way/1024196440"}}, {"type": "node", "id": 9611925070, "lat": 15.2432831, "lon": 120.133363, "tags": {"admin_level": "10", "admin_type:PH": "barangay", "is_in:town": "Botolan", "name": "Owaog-Nebloc", "old_ref": "037101032", "place": "hamlet", "population": "420", "population:2015": "479", "ref": "0307101032"}}, {"type": "node", "id": 10877845819, "lat": 15.117151, "lon": 120.2312599, "tags": {"name": "Loyloy", "place": "hamlet"}}, {"type": "node", "id": 10877845820, "lat": 15.1354386, "lon": 120.2268003, "tags": {"name": "Paudpud", "place": "neighbourhood"}}, {"type": "node", "id": 10877845822, "lat": 15.0819048, "lon": 120.2129645, "tags": {"name": "Maquinang", "place": "village"}}, {"type": "node", "id": 10877906311, "lat": 15.1592961, "lon": 120.2334733, "tags": {"admin_level": "10", "admin_type:PH": "barangay", "name": "Moraza", "place": "village"}}, {"type": "node", "id": 10877906312, "lat": 15.2312744, "lon": 120.2237942, "tags": {"name": "Insunay", "place": "hamlet"}}, {"type": "node", "id": 10877906313, "lat": 15.1851127, "lon": 120.2424395, "tags": {"admin_level": "10", "admin_type:PH": "barangay", "name": "Villar", "place": "village"}}, {"type": "node", "id": 10877906314, "lat": 15.2013444, "lon": 120.2588433, "tags": {"name": "Tiguy", "place": "hamlet"}}, {"type": "node", "id": 10877906315, "lat": 15.250167, "lon": 120.2390462, "tags": {"name": "Banunang", "place": "hamlet"}}, {"type": "node", "id": 10877906316, "lat": 15.2477912, "lon": 120.221024, "tags": {"name": "Yangil", "place": "hamlet"}}, {"type": "node", "id": 10877906317, "lat": 15.299049, "lon": 120.237763, "tags": {"name": "Tambalao", "place": "hamlet"}}, {"type": "node", "id": 10877906344, "lat": 15.2516343, "lon": 120.1691068, "tags": {"admin_level": "10", "admin_type:PH": "barangay", "alt_name": "Poonbato", "name": "Poon Bato", "place": "village"}}, {"type": "node", "id": 11366820611, "lat": 15.3392261, "lon": 119.9667656, "tags": {"admin_level": "11", "admin_type:PH": "purok", "alt_name": "Purok 5", "is_in:village": "Santo Rosario", "name": "Masigasig", "place": "hamlet"}}, {"type": "node", "id": 11366900309, "lat": 15.330677, "lon": 119.96556, "tags": {"admin_level": "10", "admin_type:PH": "barangay", "name": "Santo Rosario", "place": "village"}}, {"type": "node", "id": 11367036860, "lat": 15.1262671, "lon": 120.0575638, "tags": {"admin_level": "10", "admin_type:PH": "barangay", "name": "Anonang", "place": "village"}}, {"type": "node", "id": 11987722626, "lat": 15.4943786, "lon": 120.4034099, "tags": {"admin_level": "10", "admin_type:PH": "barangay", "is_in:municipality": "San Jose", "name": "Burgos", "place": "village", "postal_code": "2318"}}, {"type": "node", "id": 12084607315, "lat": 15.3319006, "lon": 120.3531539, "tags": {"name": "Pilien", "place": "hamlet"}}, {"type": "node", "id": 12189249465, "lat": 15.5044584, "lon": 120.333598, "tags": {"addr:village": "Burgos", "alt_name": "Sitio Tala", "is_in:town": "San Jose", "name": "Tala", "place": "hamlet"}}, {"type": "node", "id": 12189352415, "lat": 15.4957941, "lon": 120.3507266, "tags": {"addr:village": "Burgos", "alt_name": "Sitio Agus", "is_in:town": "San Jose", "name": "Agus", "place": "hamlet"}}, {"type": "node", "id": 12189557054, "lat": 15.3995176, "lon": 120.0280206, "tags": {"admin_level": "11", "admin_type:PH": "sitio", "is_in:province": "Zambales", "is_in:town": "Iba", "is_in:village": "Amungan", "name": "Olpoy", "place": "hamlet"}}, {"type": "node", "id": 12766572150, "lat": 15.4177463, "lon": 119.9532412, "tags": {"admin_level": "10", "admin_type:PH": "barangay", "name": "Bulawen", "place": "village"}}, {"type": "node", "id": 12800188298, "lat": 15.4918723, "lon": 119.9614374, "tags": {"admin_level": "10", "admin_type:PH": "barangay", "name": "Santo Rosario", "place": "village"}}, {"type": "node", "id": 12800314646, "lat": 15.3479378, "lon": 120.030511, "tags": {"admin_level": "11", "admin_type:PH": "sitio", "name": "Jesmag", "place": "hamlet"}}, {"type": "node", "id": 12800314652, "lat": 15.3322485, "lon": 119.99927, "tags": {"admin_level": "10", "admin_type:PH": "barangay", "name": "Santa Barbara", "place": "village"}}, {"type": "node", "id": 12800331326, "lat": 15.2324863, "lon": 120.2204892, "tags": {"admin_level": "10", "admin_type:PH": "barangay", "name": "Maguisguis", "place": "village"}}, {"type": "node", "id": 12800331327, "lat": 15.205646, "lon": 120.2183917, "tags": {"admin_level": "10", "admin_type:PH": "barangay", "name": "Burgos", "place": "village"}}, {"type": "node", "id": 12800331328, "lat": 15.2384101, "lon": 120.1846898, "tags": {"admin_level": "11", "admin_type:PH": "sitio", "is_in:town": "Botolan", "is_in:village": "Poonbato", "name": "Boen-Lawak", "place": "hamlet"}}, {"type": "node", "id": 12800332867, "lat": 15.2989454, "lon": 120.2381569, "tags": {"admin_level": "10", "admin_type:PH": "barangay", "name": "Cabatuan", "place": "village"}}, {"type": "node", "id": 12800360431, "lat": 15.2695506, "lon": 120.2550602, "tags": {"admin_level": "10", "admin_type:PH": "barangay", "name": "Nacolcol", "place": "village"}}, {"type": "node", "id": 12800360432, "lat": 15.2632991, "lon": 120.3011405, "tags": {"admin_level": "10", "admin_type:PH": "barangay", "name": "Palis", "place": "village"}}, {"type": "node", "id": 12803713653, "lat": 15.1012014, "lon": 120.0993043, "tags": {"admin_level": "11", "admin_type:PH": "sitio", "is_in:village": "Maloma", "name": "Sagpat", "place": "hamlet"}}, {"type": "node", "id": 12803713654, "lat": 15.0903352, "lon": 120.1622557, "tags": {"admin_level": "11", "admin_type:PH": "sitio", "is_in:village": "Maloma", "name": "Banawen", "place": "hamlet"}}, {"type": "node", "id": 12803713655, "lat": 15.1117692, "lon": 120.0637087, "tags": {"admin_level": "10", "admin_type:PH": "barangay", "name": "Maloma", "place": "village"}}, {"type": "node", "id": 12803764471, "lat": 15.1519615, "lon": 120.0509548, "tags": {"admin_level": "10", "admin_type:PH": "barangay", "name": "Santo Ni\u00f1o", "place": "village"}}, {"type": "node", "id": 12803764474, "lat": 15.1521583, "lon": 120.0710928, "tags": {"admin_level": "11", "admin_type:PH": "sitio", "is_in:quarter": "New San Juan", "name": "Maporac", "place": "neighbourhood"}}, {"type": "way", "id": 933114314, "nodes": [8649540152, 8523499601, 8649540153, 8649540154, 8649540155, 8649540156, 8649540157, 8649540158, 8649540159, 8649540160, 8649540161, 8649540162, 8649540163, 8649540164, 8649540152], "tags": {"place": "village"}}]}