{"version": 0.6, "generator": "Overpass API 0.7.62.5 1bd436f1", "osm3s": {"timestamp_osm_base": "2025-05-24T18:01:29Z", "copyright": "The data included in this document is from www.openstreetmap.org. The data is made available under ODbL."}, "elements": [{"type": "node", "id": 198490709, "lat": 11.1666905, "lon": 123.7188816, "tags": {"admin_level": "6", "admin_type:PH": "municipality", "gns_classification": "ADM2", "gns_uni": "-3328416", "is_in:province": "Cebu", "name": "Bantayan", "place": "town", "population": "86247", "population:date": "2020-05-01", "source": "GNS", "source:population": "Philippine Statistics Authority", "wikidata": "Q315771", "wikimedia_commons": "Category:Bantayan, Cebu", "wikipedia": "en:Bantayan, Cebu"}}, {"type": "node", "id": 198507062, "lat": 11.1283811, "lon": 123.9615625, "tags": {"admin_level": "6", "admin_type:PH": "municipality", "gns_classification": "ADM2", "gns_uni": "-3362222", "is_in:province": "Cebu", "name": "Medellin", "nga:ufi": "-2439677", "place": "town", "population": "59605", "population:date": "2020-05-01", "ref": "0702231000", "source": "Bing;USGS, 2013-10-11;NGA", "source:population": "Philippine Statistics Authority", "wikidata": "Q316125", "wikimedia_commons": "Category:Medellin, Cebu", "wikipedia": "en:Medellin, Cebu"}}, {"type": "node", "id": 198516406, "lat": 11.1537949, "lon": 123.8068632, "tags": {"admin_level": "6", "designation": "municipality", "gns_classification": "ADM2", "gns_uni": "-3376399", "is_in:province": "Cebu", "name": "Santa Fe", "place": "town", "population": "34471", "population:date": "2020-05-01", "ref": "0702244000", "source": "GNS", "source:population": "Philippine Statistics Authority", "wikidata": "Q316370", "wikimedia_commons": "Category:Santa Fe, Cebu", "wikipedia": "en:Santa Fe, Cebu"}}, {"type": "node", "id": 323068105, "lat": 11.3456621, "lon": 124.1102019}, {"type": "node", "id": 367808928, "lat": 11.2503512, "lon": 123.999128, "tags": {"admin_level": "6", "designation": "municipality", "gns_classification": "ADM2", "is_in:province": "Cebu", "name": "Daanbantayan", "nga:ufi": "-2423018", "place": "town", "population": "93502", "population:date": "2020-05-01", "source": "Bing;USGS, 2013-10-11;NGA", "source:population": "Philippine Statistics Authority", "wikidata": "Q315981", "wikimedia_commons": "Category:Daanbantayan", "wikipedia": "en:Daanbantayan"}}, {"type": "node", "id": 367808941, "lat": 11.1876999, "lon": 123.946202, "tags": {"admin_level": "10", "designation": "barangay", "is_in:province": "Cebu", "is_in:province_code": "CEB", "is_in:town": "Medellin", "name": "Kawit", "place": "village", "source": "Bing; USGS, 2013-10-11; NGA"}}, {"type": "node", "id": 367808947, "lat": 11.2444168, "lon": 124.0622505, "tags": {"admin_level": "10", "admin_type:PH": "barangay", "is_in:town": "Daanbantayan", "name": "Talisay", "nga:ufi": "-2455842", "place": "village", "population": "4377", "population:date": "2020-05-01", "ref": "0702221017", "source": "Bing;USGS, 2013-10-11;NGA", "source:name": "extrapolated from OSMaPaaralan", "source:population": "Philippine Statistics Authority"}}, {"type": "node", "id": 367808954, "lat": 11.2772313, "lon": 124.0314014, "tags": {"admin_level": "10", "admin_type:PH": "barangay", "alt_name": "Tablon", "is_in:town": "Daanbantayan", "name": "Tapilon", "nga:ufi": "-2456788", "place": "village", "population": "8843", "population:date": "2020-05-01", "ref": "0702221014", "source": "Bing;USGS, 2013-10-11;NGA", "source:population": "Philippine Statistics Authority"}}, {"type": "node", "id": 367808962, "lat": 11.1956631, "lon": 124.0359146, "tags": {"admin_level": "10", "designation": "barangay", "is_in:town": "Daanbantayan", "name": "Bagay", "nga:ufi": "-2410140", "place": "village", "population": "5151", "population:date": "2020-05-01", "ref": "0702221002", "source": "Bing;USGS, 2013-10-11;NGA", "source:population": "Philippine Statistics Authority"}}, {"type": "node", "id": 367808975, "lat": 11.0916114, "lon": 123.9444336, "tags": {"admin_level": "10", "designation": "barangay", "is_in:town": "San Remigio", "name": "Hagnaya", "place": "village", "population": "4222", "population:2015": "4127", "population:date": "2020-05-01", "postal_code": "6011", "ref": "0702243011", "source:population": "Philippine Statistics Authority"}}, {"type": "node", "id": 367808979, "lat": 11.0835479, "lon": 123.9366262, "tags": {"admin_level": "6", "gns_classification": "ADM2", "is_in:province": "Cebu", "name": "San Remigio", "place": "town", "place:PH": "municipality", "population": "65744", "population:date": "2020-05-01", "ref": "0702243000", "source:population": "Philippine Statistics Authority", "wikidata": "Q316350", "wikimedia_commons": "Category:San Remigio, Cebu", "wikipedia": "en:San Remigio, Cebu"}}, {"type": "node", "id": 663340917, "lat": 11.3443973, "lon": 124.1114153}, {"type": "node", "id": 683873633, "lat": 11.0790424, "lon": 123.97459, "tags": {"admin_level": "10", "admin_type:PH": "barangay", "is_in:city": "Bogo", "is_in:province": "Cebu", "name": "Dayhagon", "old_ref": "072231005", "place": "village", "population": "2019", "population:2015": "1803", "population:date": "2020-05-01", "ref": "0702231005", "source:population": "Philippine Statistics Authority"}}, {"type": "node", "id": 683875869, "lat": 11.1245512, "lon": 124.0114555, "tags": {"admin_level": "10", "designation": "barangay", "is_in:town": "Medellin", "name": "Tindog", "nga:ufi": "-2457857", "place": "village", "population": "3981", "population:date": "2020-05-01", "ref": "0702231015", "source": "Bing;USGS, 2013-10-11;NGA", "source:population": "Philippine Statistics Authority"}}, {"type": "node", "id": 683876230, "lat": 11.1145058, "lon": 123.9658589, "tags": {"admin_level": "10", "designation": "barangay", "is_in:town": "Medellin", "name": "Luy-a", "nga:ufi": "-2434023", "place": "village", "population": "1564", "population:date": "2020-05-01", "postal_code": "6012", "ref": "0702231012", "source": "Bing;USGS, 2013-10-11;NGA", "source:population": "Philippine Statistics Authority"}}, {"type": "node", "id": 683879822, "lat": 11.0907124, "lon": 123.9675071, "tags": {"admin_level": "10", "designation": "barangay", "is_in:province": "Cebu", "is_in:town": "Medellin", "name": "Lamintak Sur", "place": "village", "population": "2904", "population:date": "2020-05-01", "ref": "0702231017", "source:population": "Philippine Statistics Authority"}}, {"type": "node", "id": 683883747, "lat": 11.1536191, "lon": 124.0052288, "tags": {"admin_level": "10", "designation": "barangay", "is_in:town": "Medellin", "name": "Panugnawan", "place": "village", "population": "2665", "population:date": "2020-05-01", "ref": "0702231013", "source:population": "Philippine Statistics Authority"}}, {"type": "node", "id": 683889796, "lat": 11.1412168, "lon": 124.0264263, "tags": {"admin_level": "10", "designation": "barangay", "is_in:town": "Daanbantayan", "name": "Bateria", "place": "village", "population": "3865", "population:date": "2020-05-01", "ref": "0702221004", "source:population": "Philippine Statistics Authority"}}, {"type": "node", "id": 683889802, "lat": 11.1581251, "lon": 124.0238721, "tags": {"admin_level": "10", "admin_type:PH": "barangay", "gns_classification": "ADM3", "is_in:town": "Daanbantayan", "name": "Malbago", "old_ref": "0702221011", "place": "village", "population": "4661", "population:date": "2020-05-01", "ref": "0702221011", "source:population": "Philippine Statistics Authority"}}, {"type": "node", "id": 683890878, "lat": 11.1231773, "lon": 123.976239, "tags": {"admin_level": "10", "designation": "barangay", "is_in:town": "Medellin", "name": "Caputatan Sur", "place": "village", "population": "2772", "population:date": "2020-05-01", "ref": "0702231009", "source:population": "Philippine Statistics Authority"}}, {"type": "node", "id": 683891894, "lat": 11.1742856, "lon": 123.9447942, "tags": {"admin_level": "10", "designation": "barangay", "is_in:town": "Medellin", "name": "Mahawak", "place": "village", "population": "2946", "population:date": "2020-05-01", "ref": "0702231019", "source:population": "Philippine Statistics Authority"}}, {"type": "node", "id": 683892329, "lat": 11.1478855, "lon": 123.9507801, "tags": {"admin_level": "10", "designation": "barangay", "is_in:town": "Medellin", "name": "Daanlungsod", "place": "village", "population": "2947", "population:date": "2020-05-01", "ref": "0702231003", "source:population": "Philippine Statistics Authority"}}, {"type": "node", "id": 683892923, "lat": 11.1583471, "lon": 123.972299, "tags": {"admin_level": "10", "designation": "barangay", "is_in:town": "Medellin", "name": "Caputatan Norte", "place": "village", "population": "2932", "population:date": "2020-05-01", "ref": "0702231008", "source:population": "Philippine Statistics Authority"}}, {"type": "node", "id": 683893490, "lat": 11.175345, "lon": 123.9840929, "tags": {"admin_level": "10", "designation": "barangay", "is_in:town": "Medellin", "name": "Dalingding Sur", "place": "village", "population": "896", "population:date": "2020-05-01", "ref": "0702231004", "source:population": "Philippine Statistics Authority"}}, {"type": "node", "id": 683893846, "lat": 11.1056135, "lon": 123.9978782, "tags": {"admin_level": "10", "alt_name": "Kanhabagat", "designation": "barangay", "is_in:province": "Cebu", "is_in:town": "Medellin", "name": "Canhabagat", "nga:ufi": "-2430099", "place": "village", "population": "2373", "population:date": "2020-05-01", "ref": "0702231007", "source": "Bing;USGS, 2013-10-11;NGA", "source:name": "extrapolated from OSMaPaaralan", "source:population": "Philippine Statistics Authority"}}, {"type": "node", "id": 683894785, "lat": 11.2015297, "lon": 123.9996819, "tags": {"admin_level": "10", "alt_name": "Dalingding Norte", "designation": "barangay", "is_in:town": "Daanbantayan", "name": "Dalingding", "place": "village", "population": "2027", "population:date": "2020-05-01", "ref": "0702221008", "source:population": "Philippine Statistics Authority"}}, {"type": "node", "id": 1403887820, "lat": 11.2684746, "lon": 124.008646, "tags": {"admin_level": "10", "admin_type:PH": "barangay", "alt_name": "Agoho", "is_in:town": "Daanbantayan", "name": "Agujo", "nga:ufi": "-2407275", "place": "village", "population": "5992", "population:date": "2020-05-01", "ref": "0702221001", "source": "Bing;USGS, 2013-10-11;NGA", "source:population": "Philippine Statistics Authority"}}, {"type": "node", "id": 1403887825, "lat": 11.2745715, "lon": 124.0598776, "tags": {"admin_level": "10", "admin_type:PH": "barangay", "is_in:town": "Daanbantayan", "name": "Maya", "nga:ufi": "-2439468", "place": "village", "population": "9804", "population:2015": "8822", "population:date": "2020-05-01", "ref": "0702221013", "source": "Bing;USGS, 2013-10-11;NGA", "source:population": "Philippine Statistics Authority"}}, {"type": "node", "id": 1661857623, "lat": 11.2327494, "lon": 123.993993, "tags": {"admin_level": "10", "designation": "barangay", "is_in:town": "Daanbantayan", "name": "Bitoon", "place": "village", "population": "5267", "population:date": "2020-05-01", "ref": "0702221005", "source:population": "Philippine Statistics Authority"}}, {"type": "node", "id": 1661857629, "lat": 11.2154582, "lon": 123.9753162, "tags": {"admin_level": "10", "designation": "barangay", "is_in:town": "Daanbantayan", "name": "Paypay", "nga:ufi": "-2445463", "place": "village", "population": "3305", "population:date": "2020-05-01", "ref": "0702221015", "source": "Bing;USGS,2013-10-11;NGA", "source:population": "Philippine Statistics Authority"}}, {"type": "node", "id": 1661857635, "lat": 11.2065342, "lon": 123.9641403, "tags": {"admin_level": "10", "alt_name": "Bakhauan", "designation": "barangay", "is_in:town": "Daanbantayan", "name": "Bakhawan", "nga:ufi": "-2410578", "place": "village", "population": "3074", "population:date": "2020-05-01", "ref": "0702221003", "source": "Bing;USGS, 2013-10-11;NGA", "source:population": "Philippine Statistics Authority"}}, {"type": "node", "id": 1723899684, "lat": 11.3018129, "lon": 123.8960813}, {"type": "node", "id": 1723899687, "lat": 11.30203, "lon": 123.8966581}, {"type": "node", "id": 1723899692, "lat": 11.3022814, "lon": 123.8961512}, {"type": "node", "id": 1723899710, "lat": 11.3026327, "lon": 123.8972668}, {"type": "node", "id": 1723899723, "lat": 11.3028755, "lon": 123.8966726}, {"type": "node", "id": 1723899733, "lat": 11.3033496, "lon": 123.8968853}, {"type": "node", "id": 1723899736, "lat": 11.303381, "lon": 123.8977183}, {"type": "node", "id": 1723899762, "lat": 11.3040694, "lon": 123.8972843}, {"type": "node", "id": 1723899765, "lat": 11.3042094, "lon": 123.8977241}, {"type": "node", "id": 1723899766, "lat": 11.3042294, "lon": 123.8982368}, {"type": "node", "id": 1723899784, "lat": 11.3047406, "lon": 123.8981523}, {"type": "node", "id": 1723899788, "lat": 11.3049549, "lon": 123.8987116}, {"type": "node", "id": 1723899794, "lat": 11.3052091, "lon": 123.8983358}, {"type": "node", "id": 1723899800, "lat": 11.3055747, "lon": 123.8989388}, {"type": "node", "id": 1723899801, "lat": 11.3057318, "lon": 123.8984145}, {"type": "node", "id": 1723899827, "lat": 11.3071285, "lon": 123.8975728}, {"type": "node", "id": 1723899838, "lat": 11.307389, "lon": 123.8974431}, {"type": "node", "id": 1723899841, "lat": 11.3074456, "lon": 123.8990311}, {"type": "node", "id": 1723899844, "lat": 11.3076839, "lon": 123.8982278}, {"type": "node", "id": 1723899865, "lat": 11.3079929, "lon": 123.8988189}, {"type": "node", "id": 1723899880, "lat": 11.3083948, "lon": 123.8979436}, {"type": "node", "id": 1723899882, "lat": 11.3084776, "lon": 123.8985862}, {"type": "node", "id": 1723899894, "lat": 11.3089664, "lon": 123.8977355}, {"type": "node", "id": 1723899901, "lat": 11.3090573, "lon": 123.8978797}, {"type": "node", "id": 1723899907, "lat": 11.3093966, "lon": 123.898269}, {"type": "node", "id": 1723899916, "lat": 11.3096935, "lon": 123.8977294}, {"type": "node", "id": 1723899917, "lat": 11.3097783, "lon": 123.8981207}, {"type": "node", "id": 1723901027, "lat": 11.3393603, "lon": 123.8894765}, {"type": "node", "id": 1723901034, "lat": 11.3394452, "lon": 123.8883519}, {"type": "node", "id": 1723901055, "lat": 11.3413558, "lon": 123.8904083}, {"type": "node", "id": 1723901061, "lat": 11.3410234, "lon": 123.8891297}, {"type": "node", "id": 1724305984, "lat": 11.0878559, "lon": 123.6552999}, {"type": "node", "id": 1724305994, "lat": 11.0880049, "lon": 123.6563392}, {"type": "node", "id": 1724305997, "lat": 11.0880318, "lon": 123.6565058}, {"type": "node", "id": 1724305999, "lat": 11.0883364, "lon": 123.6552458}, {"type": "node", "id": 1724306004, "lat": 11.0885726, "lon": 123.6556166}, {"type": "node", "id": 1724306009, "lat": 11.0888597, "lon": 123.656559}, {"type": "node", "id": 1724306013, "lat": 11.0889444, "lon": 123.6561865}, {"type": "node", "id": 1724306018, "lat": 11.0892732, "lon": 123.6568181}, {"type": "node", "id": 1724306024, "lat": 11.0898194, "lon": 123.6574339}, {"type": "node", "id": 1724306027, "lat": 11.0896382, "lon": 123.6566981}, {"type": "node", "id": 1724306035, "lat": 11.0900757, "lon": 123.6572298}, {"type": "node", "id": 1724306037, "lat": 11.0899391, "lon": 123.656514}, {"type": "node", "id": 1724306040, "lat": 11.0901538, "lon": 123.6568969}, {"type": "node", "id": 2305360780, "lat": 11.5141146, "lon": 124.0922818, "tags": {"name": "Pantao", "place": "hamlet"}}, {"type": "node", "id": 2527025379, "lat": 11.1622443, "lon": 123.9590917, "tags": {"admin_level": "10", "designation": "barangay", "is_in:town": "Medellin", "name": "Antipolo", "nga:ufi": "-2408759", "place": "village", "population": "6532", "population:date": "2020-05-01", "ref": "0702231001", "source": "Bing;USGS, 2013-10-11;NGA", "source:population": "Philippine Statistics Authority"}}, {"type": "node", "id": 2527025392, "lat": 11.2808, "lon": 124.0578, "tags": {"fixme": "Location approximate.", "name": "Bolilaqui", "nga:ufi": "-2416356", "place": "hamlet", "source": "Bing; USGS, 2013-10-11; NGA"}}, {"type": "node", "id": 2527025404, "lat": 11.2528, "lon": 124.0647, "tags": {"fixme": "Location approximate.", "name": "Campatoc", "nga:ufi": "9131727", "place": "hamlet", "source": "Bing; USGS, 2013-10-11; NGA"}}, {"type": "node", "id": 2527025439, "lat": 11.2346, "lon": 124.053, "tags": {"name": "Dapdap", "nga:ufi": "-2423822", "place": "neighbourhood", "source": "Bing; USGS, 2013-10-11; NGA"}}, {"type": "node", "id": 2527025465, "lat": 11.2411115, "lon": 124.0291888, "tags": {"fixme": "Location approximate.", "nga:ufi": "-2432945", "place": "hamlet", "source": "Bing;USGS, 2013-10-11;NGA"}}, {"type": "node", "id": 2527025488, "lat": 11.2181031, "lon": 124.0066364, "tags": {"admin_level": "11", "designation": "sitio", "is_in:village": "Bitoon", "name": "Somimbang", "nga:ufi": "-2453879", "place": "hamlet", "source": "Bing;USGS, 2013-10-11;NGA"}}, {"type": "node", "id": 2527025497, "lat": 11.2275895, "lon": 124.0440315, "tags": {"admin_level": "10", "designation": "barangay", "is_in:town": "Daanbantayan", "name": "Tominjao", "nga:ufi": "-2458206", "place": "village", "population": "4352", "population:date": "2020-05-01", "ref": "0702221020", "source": "Bing;USGS, 2013-10-11;NGA", "source:population": "Philippine Statistics Authority"}}, {"type": "node", "id": 2527168620, "lat": 11.2032336, "lon": 124.0159974, "tags": {"is_in:village": "Bagay", "name": "Libertad", "place": "neighbourhood"}}, {"type": "node", "id": 2527168646, "lat": 11.1861533, "lon": 124.0092109, "tags": {"admin_level": "10", "alt_name": "Tinubuan", "designation": "barangay", "is_in:town": "Daanbantayan", "name": "Tinubdan", "place": "village", "population": "1920", "population:date": "2020-05-01", "ref": "0702221019", "source": "Bing;USGS, 2013-10-11;NGA", "source:population": "Philippine Statistics Authority"}}, {"type": "node", "id": 2527202971, "lat": 11.2644393, "lon": 123.7152294, "tags": {"admin_level": "10", "designation": "barangay", "is_in:town": "Madridejos", "name": "Bunakan", "nga:ufi": "-2416609", "place": "village", "population": "2139", "population:date": "2020-05-01", "ref": "0702228001", "source": "Bing;USGS, 2013-10-11;NGA", "source:population": "Philippine Statistics Authority"}}, {"type": "node", "id": 2527202975, "lat": 11.3161873, "lon": 123.8862112, "tags": {"is_in:village": "Kinatarcan", "name": "Bitoon", "nga:ufi": "-2414682", "place": "neighbourhood", "source": "Bing;USGS, 2013-10-11;NGA"}}, {"type": "node", "id": 2527202978, "lat": 11.2511834, "lon": 123.7321257, "tags": {"admin_level": "10", "designation": "barangay", "is_in:town": "Madridejos", "name": "Kangwayan", "nga:ufi": "-2430097", "place": "village", "population": "1365", "population:date": "2020-05-01", "ref": "0702228002", "source": "Bing;USGS, 2013-10-11;NGA", "source:population": "Philippine Statistics Authority"}}, {"type": "node", "id": 2527202982, "lat": 11.2470088, "lon": 123.7107206, "tags": {"admin_level": "10", "designation": "barangay", "is_in:town": "Madridejos", "name": "Kodia", "nga:ufi": "-2430914", "place": "village", "population": "2370", "population:date": "2020-05-01", "ref": "0702228004", "source": "Bing;USGS, 2013-10-11;NGA;local knowledge;osm notes", "source:population": "Philippine Statistics Authority"}}, {"type": "node", "id": 2527202986, "lat": 11.3183401, "lon": 123.886421, "tags": {"admin_level": "10", "alt_name": "Quinatarcan;Guintacan;Kinatarkan", "designation": "barangay", "is_in:town": "Santa Fe", "name": "Kinatarcan", "nga:ufi": "-2447591", "place": "village", "population": "2124", "population:date": "2020-05-01", "source": "Bing;USGS, 2013-10-11;NGA", "source:name": "extrapolated from OSMaPaaralan", "source:population": "Philippine Statistics Authority"}}, {"type": "node", "id": 2527202992, "lat": 11.2558697, "lon": 123.7505411, "tags": {"admin_level": "10", "designation": "barangay", "is_in:town": "Madridejos", "name": "San Agustin", "nga:ufi": "-2457703", "place": "village", "population": "3027", "population:date": "2020-05-01", "ref": "0702228011", "source": "Bing;USGS, 2013-10-11;NGA", "source:population": "Philippine Statistics Authority"}}, {"type": "node", "id": 2529225405, "lat": 11.0890376, "lon": 123.6566521}, {"type": "node", "id": 2529225430, "lat": 11.0893819, "lon": 123.6564262}, {"type": "node", "id": 2529225473, "lat": 11.0899446, "lon": 123.6570347}, {"type": "node", "id": 2529252531, "lat": 11.0877539, "lon": 123.6558617}, {"type": "node", "id": 2529252552, "lat": 11.0880449, "lon": 123.6555261}, {"type": "node", "id": 2529252558, "lat": 11.0880669, "lon": 123.6551432}, {"type": "node", "id": 2529252594, "lat": 11.0883787, "lon": 123.6565063}, {"type": "node", "id": 2529252595, "lat": 11.0883836, "lon": 123.6565524}, {"type": "node", "id": 2530184715, "lat": 11.3045785, "lon": 123.8986662}, {"type": "node", "id": 2530184744, "lat": 11.3414689, "lon": 123.8900274}, {"type": "node", "id": 2532458504, "lat": 11.0844752, "lon": 123.9826703, "tags": {"fixme": "Copied from topo map, please add name and correct location, then remove this fixme.", "place": "hamlet", "source": "US Army Topo Map"}}, {"type": "node", "id": 2532458509, "lat": 11.0925129, "lon": 123.9586723, "tags": {"fixme": "Copied from topo map, please add name and correct location, then remove this fixme.", "place": "hamlet", "source": "US Army Topo Map"}}, {"type": "node", "id": 2532458516, "lat": 11.1456167, "lon": 123.9903126, "tags": {"fixme": "Copied from topo map, please add name and correct location, then remove this fixme.", "place": "hamlet", "source": "US Army Topo Map"}}, {"type": "node", "id": 2532463332, "lat": 11.1377054, "lon": 123.722751, "tags": {"admin_level": "10", "designation": "barangay", "is_in:town": "Bantayan", "name": "Sulangan", "place": "village", "population": "6022", "population:date": "2020-05-01", "ref": "0702209023", "source:population": "Philippine Statistics Authority"}}, {"type": "node", "id": 2532463349, "lat": 11.1514534, "lon": 123.7656901, "tags": {"admin_level": "10", "alt_name": "Maricaban", "designation": "barangay", "is_in:town": "Santa Fe", "name": "Marikaban", "old_ref": "072244006", "place": "village", "population": "5771", "population:2015": "3286", "population:date": "2020-05-01", "ref": "0702244006", "source": "US Army Topo Map"}}, {"type": "node", "id": 2532463427, "lat": 11.2580238, "lon": 123.71225, "tags": {"admin_level": "10", "designation": "barangay", "is_in:town": "Madridejos", "name": "Tabagak", "place": "village", "population": "2196", "population:date": "2020-05-01", "ref": "0702228012", "source": "US Army Topo Map", "source:population": "Philippine Statistics Authority"}}, {"type": "node", "id": 2532463435, "lat": 11.2684699, "lon": 123.7242514, "tags": {"admin_level": "10", "designation": "barangay", "is_in:town": "Madridejos", "name": "Maalat", "place": "village", "population": "2864", "population:date": "2020-05-01", "ref": "0702228005", "source": "US Army Topo Map", "source:population": "Philippine Statistics Authority"}}, {"type": "node", "id": 2532463438, "lat": 11.2883047, "lon": 123.7457191, "tags": {"admin_level": "10", "designation": "barangay", "is_in:town": "Madridejos", "name": "Malbago", "place": "village", "population": "3166", "population:date": "2020-05-01", "ref": "0702228006", "source": "US Army Topo Map", "source:population": "Philippine Statistics Authority"}}, {"type": "node", "id": 2532463451, "lat": 11.2827795, "lon": 123.7199899, "tags": {"admin_level": "10", "designation": "barangay", "is_in:town": "Madridejos", "name": "Tarong", "place": "village", "population": "3100", "population:date": "2020-05-01", "ref": "0702228014", "source": "US Army Topo Map;local knowledge;osm notes", "source:population": "Philippine Statistics Authority"}}, {"type": "node", "id": 2532463455, "lat": 11.2903753, "lon": 123.8806358, "tags": {"fixme": "Copied from topo map, please add name and correct location, then remove this fixme.", "place": "hamlet", "source": "US Army Topo Map"}}, {"type": "node", "id": 2532463465, "lat": 11.3301164, "lon": 123.8941571, "tags": {"admin_level": "10", "designation": "barangay", "is_in:town": "Santa Fe", "name": "Hagdan", "place": "village", "population": "3957", "population:date": "2020-05-01", "ref": "0702244002", "source:population": "Philippine Statistics Authority"}}, {"type": "node", "id": 2533054829, "lat": 11.2000015, "lon": 123.7736051, "tags": {"admin_level": "10", "designation": "barangay", "is_in:town": "Bantayan", "name": "Sillon", "place": "village", "population": "4679", "population:date": "2020-05-01", "ref": "0702209019", "source:population": "Philippine Statistics Authority"}}, {"type": "node", "id": 2534305635, "lat": 11.2195665, "lon": 124.0398852}, {"type": "node", "id": 2534312758, "lat": 11.2460365, "lon": 124.009664}, {"type": "node", "id": 2534312837, "lat": 11.2484688, "lon": 124.0094836}, {"type": "node", "id": 2534323213, "lat": 11.172099, "lon": 124.0162907}, {"type": "node", "id": 2534323226, "lat": 11.1721336, "lon": 124.0150363}, {"type": "node", "id": 2534323233, "lat": 11.1722446, "lon": 124.0152384}, {"type": "node", "id": 4206686986, "lat": 11.1874273, "lon": 123.7417822, "tags": {"admin_level": "10", "designation": "barangay", "is_in:town": "Bantayan", "name": "Kangkaibe", "place": "village", "population": "2631", "population:date": "2020-05-01", "ref": "0702209012", "source:population": "Philippine Statistics Authority"}}, {"type": "node", "id": 4206686987, "lat": 11.1674526, "lon": 123.7540289, "tags": {"admin_level": "10", "designation": "barangay", "is_in:town": "Bantayan", "name": "Mojon", "place": "village", "place:PH": "barangay", "population": "3218", "population:date": "2020-05-01", "ref": "0702209016", "source:name": "extrapolated from OSMaPaaralan", "source:population": "Philippine Statistics Authority"}}, {"type": "node", "id": 4214988462, "lat": 11.0903805, "lon": 123.9470721, "tags": {"admin_level": "11", "designation": "purok", "name": "Agbati", "official_name": "Purok Agbati", "place": "neighbourhood"}}, {"type": "node", "id": 4214988889, "lat": 11.0885901, "lon": 123.9494045, "tags": {"admin_level": "11", "designation": "purok", "name": "Paliya", "official_name": "Purok Paliya", "place": "neighbourhood"}}, {"type": "node", "id": 4313088135, "lat": 11.2993749, "lon": 123.8859886, "tags": {"admin_level": "10", "designation": "barangay", "is_in:town": "Santa Fe", "name": "Langub", "place": "village", "population": "2532", "population:date": "2020-05-01", "ref": "0702244005", "source:population": "Philippine Statistics Authority"}}, {"type": "node", "id": 4411337816, "lat": 11.2962076, "lon": 123.7329261, "tags": {"admin_level": "6", "designation": "municipality", "gns_classification": "ADM2", "is_in:province": "Cebu", "name": "Madridejos", "place": "town", "population": "42039", "population:date": "2020-05-01", "ref": "0702228000", "source:population": "Philippine Statistics Authority", "wikidata": "Q316080", "wikimedia_commons": "Category:Madridejos, Cebu", "wikipedia": "en:Madridejos, Cebu"}}, {"type": "node", "id": 4673757379, "lat": 11.1761036, "lon": 124.0341482, "tags": {"admin_level": "10", "designation": "barangay", "is_in:town": "Daanbantayan", "name": "Calape", "place": "village", "population": "3218", "population:date": "2020-05-01", "ref": "0702221006", "source:population": "Philippine Statistics Authority"}}, {"type": "node", "id": 4673779506, "lat": 11.246118, "lon": 124.0284865, "tags": {"admin_level": "10", "admin_type:PH": "barangay", "is_in:town": "Daanbantayan", "name": "Lanao", "nga:ufi": "-2414680", "place": "village", "population": "4259", "population:date": "2020-05-01", "ref": "0702221009", "source": "Bing;USGS, 2013-10-11;NGA", "source:population": "Philippine Statistics Authority"}}, {"type": "node", "id": 4673779507, "lat": 11.2158951, "lon": 124.0163763, "tags": {"admin_level": "10", "designation": "barangay", "is_in:town": "Daanbantayan", "name": "Malingin", "place": "village", "population": "1804", "population:date": "2020-05-01", "ref": "0702221012", "source:population": "Philippine Statistics Authority"}}, {"type": "node", "id": 4673779508, "lat": 11.2365219, "lon": 124.0118177, "tags": {"admin_level": "10", "designation": "barangay", "is_in:town": "Daanbantayan", "name": "Pajo", "place": "village", "population": "4453", "population:date": "2020-05-01", "ref": "0702221014", "source:population": "Philippine Statistics Authority"}}, {"type": "node", "id": 4924030826, "lat": 11.3455964, "lon": 124.1098948}, {"type": "node", "id": 4924030839, "lat": 11.344202, "lon": 124.1112784}, {"type": "node", "id": 4924030840, "lat": 11.3442177, "lon": 124.1111279}, {"type": "node", "id": 4924030841, "lat": 11.3443932, "lon": 124.1110146}, {"type": "node", "id": 4924030842, "lat": 11.344505, "lon": 124.1108376}, {"type": "node", "id": 4924030843, "lat": 11.3441644, "lon": 124.110389}, {"type": "node", "id": 4924030844, "lat": 11.3444379, "lon": 124.110102}, {"type": "node", "id": 4924030845, "lat": 11.34472, "lon": 124.1097701}, {"type": "node", "id": 4924030846, "lat": 11.3448058, "lon": 124.1093704}, {"type": "node", "id": 4924030847, "lat": 11.3447418, "lon": 124.1091212}, {"type": "node", "id": 4924030848, "lat": 11.3448654, "lon": 124.1090825}, {"type": "node", "id": 4924030849, "lat": 11.3452847, "lon": 124.1089681}, {"type": "node", "id": 4924030850, "lat": 11.3458488, "lon": 124.1088005}, {"type": "node", "id": 4924030851, "lat": 11.3454747, "lon": 124.1105442}, {"type": "node", "id": 4924030852, "lat": 11.3451795, "lon": 124.1108973}, {"type": "node", "id": 4924030853, "lat": 11.3450638, "lon": 124.1116241}, {"type": "node", "id": 4924043422, "lat": 11.3452877, "lon": 124.110681}, {"type": "node", "id": 4924043423, "lat": 11.345386, "lon": 124.1105576}, {"type": "node", "id": 4924043428, "lat": 11.3452456, "lon": 124.1108312}, {"type": "node", "id": 5298544221, "lat": 11.2481551, "lon": 124.010425}, {"type": "node", "id": 5304150492, "lat": 11.2459966, "lon": 124.010755}, {"type": "node", "id": 6004380624, "lat": 11.2710471, "lon": 123.7489652, "tags": {"admin_level": "10", "designation": "barangay", "is_in:town": "Madridejos", "name": "Kaongkod", "place": "village", "population": "4028", "population:date": "2020-05-01", "ref": "0702228003", "source:population": "Philippine Statistics Authority"}}, {"type": "node", "id": 6004380625, "lat": 11.2656578, "lon": 123.7334418, "tags": {"admin_level": "10", "designation": "barangay", "is_in:town": "Madridejos", "name": "Pili", "old_ref": "072228008", "place": "village", "population": "2885", "population:2015": "2449", "population:date": "2020-05-01", "ref": "0702228008", "source:population": "Philippine Statistics Authority"}}, {"type": "node", "id": 6070927507, "lat": 11.1374675, "lon": 124.0024937, "tags": {"admin_level": "10", "designation": "barangay", "is_in:town": "Medellin", "name": "Curva", "place": "village", "population": "2468", "population:2015": "2241", "population:date": "2020-05-01", "ref": "0702231002", "source:population": "Philippine Statistics Authority"}}, {"type": "node", "id": 6083076604, "lat": 11.1724866, "lon": 124.0006417, "tags": {"fixme": "name", "is_in:city": "Daanbantayan", "is_in:village": "Tinubdan", "place": "neighbourhood"}}, {"type": "node", "id": 6083117990, "lat": 11.1630688, "lon": 123.9931369, "tags": {"fixme": "name", "place": "neighbourhood"}}, {"type": "node", "id": 6086949149, "lat": 11.1816015, "lon": 124.0146321, "tags": {"fixme": "name", "place": "neighbourhood"}}, {"type": "node", "id": 6087244907, "lat": 11.1672685, "lon": 123.9992228, "tags": {"name": "Sitio 117", "place": "neighbourhood"}}, {"type": "node", "id": 6087354145, "lat": 11.1814726, "lon": 123.9949983, "tags": {"name": "Sitio Thress", "place": "neighbourhood"}}, {"type": "node", "id": 6089876331, "lat": 11.1932606, "lon": 124.0112592, "tags": {"fixme": "name", "is_in:city": "Daanbantayan", "is_in:village": "Tinubdan", "place": "neighbourhood"}}, {"type": "node", "id": 6089979268, "lat": 11.2024775, "lon": 124.0077817, "tags": {"admin_level": "11", "is_in:village": "Dalingding", "name": "Calumpang", "place": "hamlet"}}, {"type": "node", "id": 6093920647, "lat": 11.2242911, "lon": 124.0087017, "tags": {"fixme": "name", "is_in:city": "Daanbantayan", "is_in:village": "Bitoon", "place": "neighbourhood"}}, {"type": "node", "id": 6095877493, "lat": 11.2477703, "lon": 124.0095742}, {"type": "node", "id": 6095877494, "lat": 11.2472541, "lon": 124.0095627}, {"type": "node", "id": 6098052058, "lat": 11.3444339, "lon": 123.8940711, "tags": {"admin_level": "11", "designation": "sitio", "is_in:village": "Hagdan", "name": "Pianas", "place": "hamlet"}}, {"type": "node", "id": 6098402904, "lat": 11.2417079, "lon": 123.7557721, "tags": {"admin_level": "10", "designation": "barangay", "is_in:town": "Bantayan", "name": "Atop-atop", "place": "village", "population": "3671", "population:2015": "3187", "population:date": "2020-05-01", "ref": "0702209001", "source:population": "Philippine Statistics Authority"}}, {"type": "node", "id": 6098402909, "lat": 11.2200035, "lon": 123.7601947, "tags": {"admin_level": "10", "designation": "barangay", "is_in:town": "Bantayan", "name": "Tamiao", "place": "village", "population": "2311", "population:date": "2020-05-01", "ref": "0702209023", "source:population": "Philippine Statistics Authority"}}, {"type": "node", "id": 6098402916, "lat": 11.1752894, "lon": 123.795173, "tags": {"admin_level": "10", "designation": "barangay", "is_in:town": "Santa Fe", "name": "Okoy", "place": "village", "population": "4692", "population:date": "2020-05-01", "ref": "0702244007", "source:population": "Philippine Statistics Authority"}}, {"type": "node", "id": 6098402944, "lat": 11.1519812, "lon": 123.7563432, "tags": {"admin_level": "10", "designation": "barangay", "is_in:town": "Bantayan", "name": "Obo-ob", "old_ref": "072209017", "place": "village", "population": "2353", "population:2015": "2086", "population:date": "2020-05-01", "ref": "0702209017", "source:population": "Philippine Statistics Authority"}}, {"type": "node", "id": 6098402945, "lat": 11.1542472, "lon": 123.7339188, "tags": {"admin_level": "10", "designation": "barangay", "is_in:town": "Bantayan", "name": "Sungko", "place": "village", "population": "3780", "population:date": "2020-05-01", "ref": "0702209021", "source:population": "Philippine Statistics Authority"}}, {"type": "node", "id": 6098402956, "lat": 11.1790214, "lon": 123.7844648, "tags": {"admin_level": "10", "designation": "barangay", "is_in:town": "Santa Fe", "name": "Balidbid", "place": "village", "population": "2006", "population:date": "2020-05-01", "ref": "0702244009", "source:population": "Philippine Statistics Authority"}}, {"type": "node", "id": 6098402975, "lat": 11.2007226, "lon": 123.7050133, "tags": {"admin_level": "10", "designation": "barangay", "is_in:town": "Bantayan", "name": "Guiwanon", "place": "village", "population": "3003", "population:date": "2020-05-01", "ref": "0702209009", "source:population": "Philippine Statistics Authority"}}, {"type": "node", "id": 6098439205, "lat": 11.2106571, "lon": 123.721336, "tags": {"admin_level": "10", "designation": "barangay", "is_in:town": "Bantayan", "name": "Kabangbang", "place": "village", "population": "2321", "population:date": "2020-05-01", "ref": "0702209010", "source:population": "Philippine Statistics Authority"}}, {"type": "node", "id": 6098439206, "lat": 11.2110759, "lon": 123.7004836, "tags": {"admin_level": "10", "designation": "barangay", "is_in:town": "Bantayan", "name": "Baod", "place": "village", "population": "3290", "population:date": "2020-05-01", "ref": "0702209003", "source:population": "Philippine Statistics Authority"}}, {"type": "node", "id": 6098439219, "lat": 11.2186426, "lon": 123.6908121, "tags": {"admin_level": "10", "designation": "barangay", "is_in:town": "Bantayan", "name": "Patao", "place": "village", "population": "5963", "population:date": "2020-05-01", "ref": "0702209017", "source:population": "Philippine Statistics Authority"}}, {"type": "node", "id": 6098439220, "lat": 11.2238878, "lon": 123.709191, "tags": {"admin_level": "10", "designation": "barangay", "is_in:town": "Bantayan", "name": "Putian", "place": "village", "population": "1504", "population:date": "2020-05-01", "ref": "0702209018", "source:population": "Philippine Statistics Authority"}}, {"type": "node", "id": 6098439225, "lat": 11.2311055, "lon": 123.7223667, "tags": {"admin_level": "10", "designation": "barangay", "is_in:town": "Bantayan", "name": "Kampingganon", "place": "village", "population": "1108", "population:date": "2020-05-01", "ref": "0702209011", "source:population": "Philippine Statistics Authority"}}, {"type": "node", "id": 6098439230, "lat": 11.2388984, "lon": 123.6972584, "tags": {"admin_level": "10", "designation": "barangay", "is_in:town": "Bantayan", "name": "Kabac", "place": "village", "population": "5487", "population:date": "2020-05-01", "ref": "0702209006", "source:population": "Philippine Statistics Authority"}}, {"type": "node", "id": 6099631811, "lat": 11.2341976, "lon": 124.012603, "tags": {"alt_name": "Purok Saging", "is_in:village": "Pajo", "name": "Saging", "place": "neighbourhood"}}, {"type": "node", "id": 6102577503, "lat": 11.1037283, "lon": 123.6721487, "tags": {"admin_level": "10", "designation": "barangay", "is_in:town": "Bantayan", "name": "Botigues", "old_ref": "072209005", "place": "village", "population": "2959", "population:date": "2020-05-01", "ref": "0702209005", "source:population": "Philippine Statistics Authority", "wikidata": "Q28823651"}}, {"type": "node", "id": 6102824530, "lat": 11.1842443, "lon": 123.9729461, "tags": {"admin_level": "10", "designation": "barangay", "is_in:town": "Medellin", "name": "Maharuhay", "place": "village", "population": "1679", "population:date": "2020-05-01", "ref": "0702231018", "source:population": "Philippine Statistics Authority"}}, {"type": "node", "id": 6104728576, "lat": 11.1631016, "lon": 123.9599673, "tags": {"alt_name": "Sitio Maryhills", "name": "Maryhills", "place": "neighbourhood"}}, {"type": "node", "id": 6109545972, "lat": 11.1914345, "lon": 123.9683077, "tags": {"fixme": "name", "place": "neighbourhood"}}, {"type": "node", "id": 6231467196, "lat": 11.1941387, "lon": 123.8126155, "tags": {"admin_level": "10", "admin_type:PH": "barangay", "is_in:town": "Santa Fe", "name": "Hilantagaan", "old_ref": "072244003", "place": "village", "population": "4318", "population:date": "2020-05-01", "ref": "0702244003", "source:population": "Philippine Statistics Authority", "wikidata": "Q26763524"}}, {"type": "node", "id": 6677969255, "lat": 11.174067, "lon": 124.0147118}, {"type": "node", "id": 6677969256, "lat": 11.1738517, "lon": 124.0153205}, {"type": "node", "id": 6677969257, "lat": 11.1739004, "lon": 124.0163186}, {"type": "node", "id": 6677969258, "lat": 11.1731643, "lon": 124.0162053}, {"type": "node", "id": 6677969259, "lat": 11.1729351, "lon": 124.0165522}, {"type": "node", "id": 6677969260, "lat": 11.1725393, "lon": 124.0166159}, {"type": "node", "id": 6677969261, "lat": 11.1723032, "lon": 124.0167928}, {"type": "node", "id": 6677969262, "lat": 11.172164, "lon": 124.0166985}, {"type": "node", "id": 6677969263, "lat": 11.1722313, "lon": 124.0154674}, {"type": "node", "id": 6677969264, "lat": 11.1721439, "lon": 124.0145687}, {"type": "node", "id": 6677969265, "lat": 11.1721643, "lon": 124.0144003}, {"type": "node", "id": 6677969266, "lat": 11.172081, "lon": 124.0142375}, {"type": "node", "id": 6677969267, "lat": 11.1721296, "lon": 124.0141597}, {"type": "node", "id": 6677969268, "lat": 11.222447, "lon": 124.0346907}, {"type": "node", "id": 6677969269, "lat": 11.2224789, "lon": 124.0354063}, {"type": "node", "id": 6677969270, "lat": 11.2214421, "lon": 124.0389026}, {"type": "node", "id": 6677969271, "lat": 11.2203893, "lon": 124.038496}, {"type": "node", "id": 6677969272, "lat": 11.219789, "lon": 124.0399707}, {"type": "node", "id": 6677969273, "lat": 11.2202298, "lon": 124.0384635}, {"type": "node", "id": 6677969274, "lat": 11.2201341, "lon": 124.0383009}, {"type": "node", "id": 6677969275, "lat": 11.2204372, "lon": 124.0374065}, {"type": "node", "id": 6677969276, "lat": 11.220501, "lon": 124.0370975}, {"type": "node", "id": 6677969277, "lat": 11.2202777, "lon": 124.0369674}, {"type": "node", "id": 6677969278, "lat": 11.2203893, "lon": 124.0365934}, {"type": "node", "id": 6677969279, "lat": 11.2208359, "lon": 124.0365446}, {"type": "node", "id": 6677969280, "lat": 11.2216016, "lon": 124.0347558}, {"type": "node", "id": 7607871101, "lat": 11.2792186, "lon": 123.73421, "tags": {"admin_level": "10", "designation": "barangay", "is_in:town": "Madridejos", "name": "Tugas", "place": "village", "population": "2337", "population:date": "2020-05-01", "ref": "0702228015", "source:population": "Philippine Statistics Authority"}}, {"type": "node", "id": 7624406950, "lat": 11.2822258, "lon": 124.0589288, "tags": {"name": "Tagasa", "place": "neighbourhood"}}, {"type": "node", "id": 7624813783, "lat": 11.2618374, "lon": 124.0313825, "tags": {"admin_level": "11", "admin_type:PH": "sitio", "is_in:village": "Tapilon", "name": "Looc", "place": "hamlet"}}, {"type": "node", "id": 7668203711, "lat": 11.1964769, "lon": 123.9795571, "tags": {"name": "Pangadlawan", "place": "neighbourhood"}}, {"type": "node", "id": 7746211077, "lat": 11.1003166, "lon": 123.9361098, "tags": {"admin_level": "10", "designation": "barangay", "is_in:town": "San Remigio", "name": "Punta", "old_ref": "072243021", "place": "village", "population": "3272", "population:2015": "3174", "population:date": "2020-05-01", "ref": "0702243021", "source:population": "Philippine Statistics Authority"}}, {"type": "node", "id": 7967851515, "lat": 11.1289622, "lon": 123.6920527, "tags": {"admin_level": "11", "designation": "sitio", "is_in:town": "Bantayan", "is_in:village": "Sulangan", "name": "Moamboc", "place": "hamlet", "source:name": "extrapolated from OSMaPaaralan"}}, {"type": "node", "id": 7967972523, "lat": 11.1703104, "lon": 123.7287194, "tags": {"name": "M.Y. Village", "place": "neighbourhood", "source:name": "extrapolated from note 2371375"}}, {"type": "node", "id": 7983369892, "lat": 11.2476474, "lon": 124.0450604, "tags": {"admin_level": "11", "alt_name": "Hubot", "designation": "sitio", "is_in:town": "Daanbantayan", "is_in:village": "Talisay", "name": "Jubot", "place": "hamlet", "source:name": "extrapolated from OSMaPaaralan"}}, {"type": "node", "id": 7993927563, "lat": 11.0969247, "lon": 123.9872266, "tags": {"admin_level": "10", "designation": "barangay", "is_in:town": "Medellin", "name": "Don Virgilio Gonzales", "place": "village", "population": "1547", "population:date": "2020-05-01", "ref": "0702231016", "source:name": "extrapolated from OSMaPaaralan, way/658313906", "source:population": "Philippine Statistics Authority"}}, {"type": "node", "id": 9049945708, "lat": 11.5085614, "lon": 124.0977028, "tags": {"admin_level": "10", "admin_type:PH": "barangay", "name": "Carnaza", "old_ref": "072221007", "place": "village", "population": "2471", "population:date": "2020-05-01", "ref": "0702221007", "wikidata": "Q1043912", "wikipedia": "en:Carnaza"}}, {"type": "node", "id": 9391045592, "lat": 11.2339615, "lon": 123.7538168, "tags": {"admin_level": "12", "admin_type:PH": "purok", "is_in:town": "Bantayan", "is_in:village": "Atop-atop", "name": "Kulo", "place": "neighbourhood", "source:name": "extrapolated from way/492476794"}}, {"type": "node", "id": 9567237450, "lat": 11.1529781, "lon": 123.7965917, "tags": {"admin_level": "10", "designation": "barangay", "is_in:town": "Santa Fe", "name": "Pooc", "place": "village", "population": "3423", "population:2015": "3280", "population:date": "2020-05-01", "ref": "0702244010", "source:name": "extrapolated from way:814086838", "source:population": "Philippine Statistics Authority"}}, {"type": "node", "id": 9758763819, "lat": 11.1582347, "lon": 123.7441447, "tags": {"admin_level": "12", "admin_type:PH": "purok", "is_in:town": "Bantayan", "is_in:village": "Obo-ob", "name": "San Vicente", "place": "neighbourhood", "source": "extrapolation", "source_ref": "https://osm.org/relation/14075059"}}, {"type": "node", "id": 10724726888, "lat": 11.1415407, "lon": 123.7366197, "tags": {"is_in:village": "Sulangan", "name": "Basawon", "place": "neighbourhood"}}, {"type": "node", "id": 10863870288, "lat": 11.2368962, "lon": 123.7075509}, {"type": "node", "id": 10863870289, "lat": 11.236452, "lon": 123.708807}, {"type": "node", "id": 10863870290, "lat": 11.232901, "lon": 123.7082419}, {"type": "node", "id": 10863870291, "lat": 11.2327017, "lon": 123.707374}, {"type": "node", "id": 10863870292, "lat": 11.2321215, "lon": 123.7058433}, {"type": "node", "id": 10863870293, "lat": 11.232261, "lon": 123.7057945}, {"type": "node", "id": 10863870294, "lat": 11.2502553, "lon": 123.7163761}, {"type": "node", "id": 10863870295, "lat": 11.2507761, "lon": 123.7172979}, {"type": "node", "id": 10863870296, "lat": 11.2484569, "lon": 123.7176505}, {"type": "node", "id": 10863870297, "lat": 11.2484878, "lon": 123.7182583}, {"type": "node", "id": 10863870298, "lat": 11.2479481, "lon": 123.7182905}, {"type": "node", "id": 10863870299, "lat": 11.2479892, "lon": 123.7189468}, {"type": "node", "id": 10863870300, "lat": 11.2469998, "lon": 123.7190031}, {"type": "node", "id": 10863870301, "lat": 11.2469526, "lon": 123.7170711}, {"type": "node", "id": 10863876024, "lat": 11.1540867, "lon": 123.7822283}, {"type": "node", "id": 10863876025, "lat": 11.1541709, "lon": 123.7829471}, {"type": "node", "id": 10863876026, "lat": 11.1535078, "lon": 123.7837612}, {"type": "node", "id": 10863876027, "lat": 11.1534103, "lon": 123.7840328}, {"type": "node", "id": 10863876028, "lat": 11.1515019, "lon": 123.783835}, {"type": "node", "id": 10863876029, "lat": 11.1515301, "lon": 123.7836103}, {"type": "node", "id": 10863876030, "lat": 11.1515992, "lon": 123.783617}, {"type": "node", "id": 10863876031, "lat": 11.1516407, "lon": 123.7828533}, {"type": "node", "id": 10863876032, "lat": 11.1515328, "lon": 123.781421}, {"type": "node", "id": 10863876033, "lat": 11.1520848, "lon": 123.7811085}, {"type": "node", "id": 10863876035, "lat": 11.1520794, "lon": 123.7803193}, {"type": "node", "id": 10863876036, "lat": 11.1520604, "lon": 123.7796682}, {"type": "node", "id": 10863876037, "lat": 11.1521972, "lon": 123.7796628}, {"type": "node", "id": 10863876038, "lat": 11.1522393, "lon": 123.7794589}, {"type": "node", "id": 10863876039, "lat": 11.1533551, "lon": 123.7795019}, {"type": "node", "id": 10863876040, "lat": 11.1536775, "lon": 123.7805613}, {"type": "node", "id": 10863876041, "lat": 11.1528446, "lon": 123.7805855}, {"type": "node", "id": 10863876042, "lat": 11.1529183, "lon": 123.7809342}, {"type": "node", "id": 10863876043, "lat": 11.1534472, "lon": 123.781771}, {"type": "node", "id": 10925712442, "lat": 11.1749274, "lon": 123.9246378, "tags": {"admin_level": "10", "admin_type:PH": "barangay", "is_in:town": "Medellin", "name": "Gibitngil", "old_ref": "072231006", "place": "village", "population": "2216", "population:2015": "2128", "population:date": "2020-05-01", "ref": "0702231006", "source:population": "Philippine Statistics Authority"}}, {"type": "node", "id": 11189423399, "lat": 11.3442325, "lon": 124.1112998}, {"type": "node", "id": 11330456927, "lat": 11.3456687, "lon": 124.1086328}, {"type": "node", "id": 11386938321, "lat": 11.154123, "lon": 123.7830059}, {"type": "node", "id": 11386938322, "lat": 11.1536743, "lon": 123.7803599}, {"type": "node", "id": 11386938323, "lat": 11.1516368, "lon": 123.7812424}, {"type": "node", "id": 11386938324, "lat": 11.1515388, "lon": 123.7819351}, {"type": "node", "id": 11386938325, "lat": 11.1516065, "lon": 123.7824011}, {"type": "node", "id": 11386938326, "lat": 11.1516329, "lon": 123.7833144}, {"type": "node", "id": 11428188971, "lat": 11.1567821, "lon": 123.7991622}, {"type": "node", "id": 11428188972, "lat": 11.1567979, "lon": 123.8004202}, {"type": "node", "id": 11428188973, "lat": 11.1568374, "lon": 123.8006079}, {"type": "node", "id": 11428188974, "lat": 11.1578058, "lon": 123.8003451}, {"type": "node", "id": 11428188975, "lat": 11.1582005, "lon": 123.8014126}, {"type": "node", "id": 11428188976, "lat": 11.1573637, "lon": 123.8021877}, {"type": "node", "id": 11428188977, "lat": 11.156719, "lon": 123.8024291}, {"type": "node", "id": 11428188978, "lat": 11.1564927, "lon": 123.8020268}, {"type": "node", "id": 11428188979, "lat": 11.1554348, "lon": 123.8025203}, {"type": "node", "id": 11428188980, "lat": 11.1553269, "lon": 123.8020134}, {"type": "node", "id": 11428188981, "lat": 11.1548927, "lon": 123.8014287}, {"type": "node", "id": 11428188982, "lat": 11.15534, "lon": 123.8009593}, {"type": "node", "id": 11428188983, "lat": 11.1553979, "lon": 123.8007125}, {"type": "node", "id": 11428188984, "lat": 11.1554321, "lon": 123.8002914}, {"type": "node", "id": 11428188985, "lat": 11.155369, "lon": 123.7999696}, {"type": "node", "id": 11428188986, "lat": 11.1550506, "lon": 123.7992319}, {"type": "node", "id": 11428188987, "lat": 11.1566848, "lon": 123.7991703}, {"type": "node", "id": 11768053759, "lat": 11.1180172, "lon": 123.703782, "tags": {"is_in:village": "Sulangan", "name": "Panitugan", "place": "hamlet"}}, {"type": "node", "id": 11768069481, "lat": 11.2058225, "lon": 123.747758, "tags": {"admin_level": "11", "designation": "sitio", "is_in:village": "Kangkaibe", "name": "Vito", "place": "hamlet"}}, {"type": "node", "id": 11768069482, "lat": 11.1872787, "lon": 123.7807426, "tags": {"admin_level": "10", "designation": "barangay", "is_in:town": "Bantayan", "name": "Baigad", "place": "village", "population": "1612", "population:date": "2020-05-01", "ref": "0702209002", "source:population": "Philippine Statistics Authority"}}, {"type": "node", "id": 11807224045, "lat": 11.1022109, "lon": 123.9672351, "tags": {"admin_level": "10", "designation": "barangay", "is_in:town": "Medellin", "name": "Lamintak Norte", "place": "village", "population": "2348", "population:date": "2020-05-01", "ref": "0702231011", "source:population": "Philippine Statistics Authority"}}, {"type": "node", "id": 11832191850, "lat": 11.2137365, "lon": 123.9899236, "tags": {"admin_level": "11", "designation": "sitio", "is_in:village": "Paypay", "name": "Guinsolungan", "place": "hamlet"}}, {"type": "node", "id": 12320008289, "lat": 11.2497874, "lon": 123.7174648}, {"type": "node", "id": 12320008290, "lat": 11.2499992, "lon": 123.7184197}, {"type": "node", "id": 12320008291, "lat": 11.248964, "lon": 123.7186195}, {"type": "node", "id": 12320008292, "lat": 11.2493981, "lon": 123.7174058}, {"type": "node", "id": 12785386256, "lat": 11.1582979, "lon": 124.0237462, "tags": {"admin_level": "11", "admin_type:PH": "sitio", "is_in:town": "Daanbantayan", "is_in:village": "Malbago", "name": "Proper", "place": "neighbourhood"}}, {"type": "node", "id": 12785387203, "lat": 11.1652897, "lon": 124.0262032, "tags": {"admin_level": "11", "admin_type:PH": "sitio", "is_in:town": "Daanbantayan", "is_in:village": "Malbago", "name": "Flores", "place": "neighbourhood"}}, {"type": "way", "id": 160342590, "nodes": [1723899827, 1723899841, 1723899865, 1723899882, 1723899907, 1723899917, 1723899916, 1723899901, 1723899894, 1723899880, 1723899844, 1723899838, 1723899827], "tags": {"landuse": "residential", "name": "Sitio Dabdab", "place": "hamlet"}}, {"type": "way", "id": 160342596, "nodes": [1723899684, 1723899687, 1723899710, 1723899736, 1723899766, 2530184715, 1723899788, 1723899800, 1723899801, 1723899794, 1723899784, 1723899765, 1723899762, 1723899733, 1723899723, 1723899692, 1723899684], "tags": {"landuse": "residential", "name": "Sitio Pasil", "place": "hamlet"}}, {"type": "way", "id": 160342603, "nodes": [1723901061, 1723901034, 1723901027, 1723901055, 2530184744, 1723901061], "tags": {"landuse": "residential", "name": "Sitio Biaring", "place": "hamlet"}}, {"type": "way", "id": 160384720, "nodes": [1724306040, 1724306037, 1724306027, 2529225430, 1724306013, 1724306004, 1724305999, 2529252558, 1724305984, 2529252552, 2529252531, 1724305994, 1724305997, 2529252594, 2529252595, 1724306009, 2529225405, 1724306018, 1724306024, 1724306035, 2529225473, 1724306040], "tags": {"landuse": "residential", "name": "Sitio Silangga", "place": "hamlet"}}, {"type": "way", "id": 501660603, "nodes": [4924030853, 4924030852, 4924043428, 4924043422, 4924043423, 4924030851, 323068105, 4924030826, 4924030850, 11330456927, 4924030849, 4924030848, 4924030847, 4924030846, 4924030845, 4924030844, 4924030843, 4924030842, 4924030841, 4924030840, 4924030839, 11189423399, 663340917, 4924030853], "tags": {"admin_level": "11", "admin_type:PH": "sitio", "landuse": "residential", "name": "Guimbitayan", "place": "neighbourhood"}}, {"type": "way", "id": 549077864, "nodes": [2534312837, 6095877493, 6095877494, 2534312758, 5304150492, 5298544221, 2534312837], "tags": {"landuse": "residential", "name": "Daanbantayan GK Village", "place": "neighbourhood"}}, {"type": "way", "id": 710373102, "nodes": [6677969255, 6677969256, 6677969257, 6677969258, 6677969259, 6677969260, 6677969261, 6677969262, 2534323213, 6677969263, 2534323233, 2534323226, 6677969264, 6677969265, 6677969266, 6677969267, 6677969255], "tags": {"name": "NHA Relocation Site", "place": "hamlet"}}, {"type": "way", "id": 710373103, "nodes": [6677969268, 6677969269, 6677969270, 6677969271, 6677969272, 2534305635, 6677969273, 6677969274, 6677969275, 6677969276, 6677969277, 6677969278, 6677969279, 6677969280, 6677969268], "tags": {"name": "NHA Relocation Site", "place": "hamlet"}}, {"type": "way", "id": 1168159288, "nodes": [10863870288, 10863870289, 10863870290, 10863870291, 10863870292, 10863870293, 10863870288], "tags": {"name": "NHA Housing Project", "place": "hamlet"}}, {"type": "way", "id": 1168159289, "nodes": [10863870294, 10863870295, 12320008289, 12320008290, 12320008291, 12320008292, 10863870296, 10863870297, 10863870298, 10863870299, 10863870300, 10863870301, 10863870294], "tags": {"alt_name": "La Kodia Village", "landuse": "residential", "name": "NHA Kodia Housing Project", "place": "neighbourhood"}}, {"type": "way", "id": 1168159295, "nodes": [10863876024, 10863876025, 11386938321, 10863876026, 10863876027, 10863876028, 10863876029, 10863876030, 11386938326, 10863876031, 11386938325, 11386938324, 10863876032, 11386938323, 10863876033, 10863876035, 10863876036, 10863876037, 10863876038, 10863876039, 11386938322, 10863876040, 10863876041, 10863876042, 10863876043, 10863876024], "tags": {"landuse": "residential", "name": "NHA Housing Project", "place": "neighbourhood"}}, {"type": "way", "id": 1232092322, "nodes": [11428188987, 11428188986, 11428188985, 11428188984, 11428188983, 11428188982, 11428188981, 11428188980, 11428188979, 11428188978, 11428188977, 11428188976, 11428188975, 11428188974, 11428188973, 11428188972, 11428188971, 11428188987], "tags": {"name": "Rosca Subdivision", "place": "neighbourhood"}}]}