{"version": 0.6, "generator": "Overpass API 0.7.62.5 1bd436f1", "osm3s": {"timestamp_osm_base": "2025-05-24T17:56:16Z", "copyright": "The data included in this document is from www.openstreetmap.org. The data is made available under ODbL."}, "elements": [{"type": "node", "id": 198515287, "lat": 7.5852175, "lon": 122.140523, "tags": {"admin_level": "6", "admin_subdivisions": "34 barangays", "admin_type:PH": "municipality", "ele": "5", "is_in:province": "Zamboanga del Norte", "name": "Sirawai", "official_name": "Municipality of Sirawai", "old_ref": "097220000", "place": "town", "population": "31163", "population:date": "2020-05-01", "postal_code": "7121", "ref": "0907220000", "wikidata": "Q132613", "wikimedia_commons": "Category:Sirawai", "wikipedia": "en:Sirawai"}}, {"type": "node", "id": 198525032, "lat": 7.7064072, "lon": 122.1359108, "tags": {"admin_level": "6", "gns_classification": "ADM2", "gns_uni": "-3378857", "is_in:province": "Zamboanga del Norte", "name": "Siocon", "place": "town", "place:PH": "municipality", "population": "46907", "population:date": "2015-08-01", "source": "GNS", "source:population": "Philippine Statistics Authority", "wikidata": "Q132610", "wikimedia_commons": "Category:Siocon", "wikipedia": "en:Siocon"}}, {"type": "node", "id": 4635087448, "lat": 7.8097453, "lon": 122.1451356, "tags": {"admin_level": "6", "gns_classification": "ADM2", "is_in:province": "Zamboanga del Norte", "name": "Baliguian", "place": "town", "place:PH": "municipality", "population": "22588", "population:date": "2015-08-01", "source:population": "Philippine Statistics Authority", "wikidata": "Q132482", "wikimedia_commons": "Category:Baliguian", "wikipedia": "en:Baliguian, Zamboanga del Norte"}}, {"type": "node", "id": 8889680648, "lat": 7.726852, "lon": 122.1836132, "tags": {"name": "Bulacan", "place": "village"}}, {"type": "node", "id": 9363344864, "lat": 7.5210212, "lon": 122.1221043, "tags": {"admin_level": "10", "admin_type:PH": "barangay", "is_in:municipality": "Sirawai", "name": "Lubok", "old_ref": "097220016", "place": "village", "population": "841", "population:2015": "765", "population:date": "2020-05-01"}}, {"type": "node", "id": 9363381616, "lat": 7.5288018, "lon": 122.1064711, "tags": {"admin_level": "10", "admin_type:PH": "barangay", "name": "Bongon", "official_name": "Barangay Bongon", "old_ref": "097220005", "place": "village", "population": "769", "population:2015": "725", "population:date": "2020-05-01"}}, {"type": "node", "id": 9363387000, "lat": 7.5259592, "lon": 122.1047088, "tags": {"admin_level": "10", "admin_type:PH": "barangay", "name": "Piacan", "old_ref": "097220022", "place": "village", "population": "753", "population:2015": "695", "population:date": "2020-05-01"}}, {"type": "node", "id": 9363387272, "lat": 7.5226632, "lon": 122.0987543, "tags": {"fixme": "name", "place": "neighbourhood"}}, {"type": "node", "id": 9363391832, "lat": 7.5542245, "lon": 122.1285939, "tags": {"admin_level": "10", "admin_type:PH": "barangay", "is_in:municipality": "Sirawai", "name": "Tapanayan", "old_ref": "097220040", "place": "village", "population": "441", "population:2015": "392", "population:date": "2020-05-01"}}, {"type": "node", "id": 9363391833, "lat": 7.5542033, "lon": 122.1278, "tags": {"admin_level": "11", "admin_type:PH": "purok", "is_in:barangay": "Tapanayan", "is_in:municipality": "Sirawai", "name": "San Nicolas", "place": "neighbourhood"}}, {"type": "node", "id": 9364646806, "lat": 7.7408992, "lon": 122.2659887, "tags": {"name": "Skyline", "place": "neighbourhood", "relation": "12272870"}}, {"type": "node", "id": 9364655648, "lat": 7.7392714, "lon": 122.2689083, "tags": {"admin_level": "11", "admin_type:PH": "sitio", "is_in:district": "Tabayo", "is_in:town": "Siocon", "name": "Canatuan", "place": "hamlet", "source:name": "extrapolated from OSMaPaaralan, relation/12272871"}}, {"type": "node", "id": 9364661850, "lat": 7.7405325, "lon": 122.1916895, "tags": {"admin_level": "10", "admin_type:PH": "barangay", "is_in:town": "Siocon", "name": "Pisawak", "place": "village", "source:name": "extrapolated from OSMaPaaralan, way/904694137"}}, {"type": "node", "id": 9364709439, "lat": 7.7051468, "lon": 122.1731025, "tags": {"admin_level": "10", "admin_type:PH": "barangay", "is_in:municipality": "Siocon", "name": "Makiang", "old_ref": "097219026", "place": "village", "population": "2090", "population:2015": "2143", "population:date": "2020-05-01"}}, {"type": "node", "id": 9364709488, "lat": 7.7101584, "lon": 122.1719941, "tags": {"admin_level": "10", "admin_type:PH": "barangay", "is_in:town": "Siocon", "name": "New Lituban", "place": "village"}}, {"type": "node", "id": 9364711195, "lat": 7.6939538, "lon": 122.128315, "tags": {"admin_level": "10", "admin_type:PH": "barangay", "name": "Bucana", "official_name": "Barangay Bucana", "old_ref": "097219005", "place": "village", "population": "3440", "population:2015": "2773", "population:date": "2020-05-01"}}, {"type": "node", "id": 9364741933, "lat": 7.6978691, "lon": 122.1264535, "tags": {"admin_level": "10", "admin_type:PH": "barangay", "is_in:municipality": "Siocon", "name": "Suhaile Arabi", "old_ref": "097219022", "place": "village", "population": "2533", "population:2015": "2482", "population:date": "2020-05-01"}}, {"type": "node", "id": 9364748018, "lat": 7.7292022, "lon": 122.1651202, "tags": {"admin_level": "10", "admin_type:PH": "barangay", "is_in:municipality": "Siocon", "name": "Malipot", "old_ref": "097219014", "place": "village", "population": "824", "population:2015": "728", "population:date": "2020-05-01"}}, {"type": "node", "id": 9364761426, "lat": 7.7605344, "lon": 122.124356, "tags": {"admin_level": "10", "admin_type:PH": "barangay", "is_in:town": "Siocon", "name": "Santa Maria", "place": "village", "source:name": "extrapolated from OSMaPaaralan,"}}, {"type": "node", "id": 9364764518, "lat": 7.7297896, "lon": 122.1320674, "tags": {"admin_level": "10", "admin_type:PH": "barangay", "is_in:town": "Siocon", "name": "Tibangao", "place": "village", "source:name": "extrapolated from OSMaPaaralan, way/1015164676"}}, {"type": "node", "id": 9364772380, "lat": 7.7399956, "lon": 122.179006, "tags": {"admin_level": "10", "admin_type:PH": "barangay", "is_in:municipality": "Siocon", "name": "Siay", "old_ref": "097219031", "place": "village", "population": "1782", "population:2015": "1747", "population:date": "2020-05-01"}}, {"type": "node", "id": 10836317925, "lat": 7.9104052, "lon": 122.2310275, "tags": {"admin_level": "10", "admin_type:PH": "barangay", "is_in:municipality": "Baliguian", "name": "Milidan", "old_ref": "097224012", "place": "village", "population": "1677", "population:date": "2020-05-01", "ref": "0907224012"}}, {"type": "node", "id": 10836351760, "lat": 7.9299553, "lon": 122.2336708, "tags": {"admin_level": "10", "admin_type:PH": "barangay", "is_in:municipality": "Baliguian", "name": "Malinao", "old_ref": "097224009", "place": "village", "population": "1730", "population:date": "2020-05-01", "ref": "0907224009"}}, {"type": "node", "id": 12137381925, "lat": 7.5442999, "lon": 122.2363563, "tags": {"admin_level": "10", "admin_type:PH": "barangay", "is_in:municipality": "Sirawai", "name": "Guban", "old_ref": "097220013", "place": "village", "population": "8863", "ref": "0907220013", "source:population": "Philippine Statistics Authority"}}]}