{"version": 0.6, "generator": "Overpass API 0.7.62.5 1bd436f1", "osm3s": {"timestamp_osm_base": "2025-05-24T17:53:13Z", "copyright": "The data included in this document is from www.openstreetmap.org. The data is made available under ODbL."}, "elements": [{"type": "node", "id": 198492716, "lat": 18.2148452, "lon": 121.4191186, "tags": {"admin_level": "6", "name": "Flora", "name:ilo": "Flora", "official_name:ilo": "Ili ti Flora", "place": "town", "place:PH": "municipality", "population": "17391", "population:date": "2015-08-01", "postal_code": "3807", "ref": "148103000", "source:population": "Philippine Statistics Authority", "wikidata": "Q30042", "wikimedia_commons": "Category:Flora, Apayao", "wikipedia": "en:Flora, Apayao", "wikipedia:ilo": "Flora, Apayao"}}, {"type": "node", "id": 198493662, "lat": 18.2380574, "lon": 121.3731587, "tags": {"admin_level": "6", "admin_type:PH": "municipality", "name": "Pudtol", "name:ilo": "Pudtol", "official_name:ilo": "Ili ti Pudtol", "place": "town", "population": "14925", "population:date": "2015-08-01", "postal_code": "3812", "ref": "148106000", "source:population": "Philippine Statistics Authority", "wikidata": "Q30062", "wikimedia_commons": "Category:Pudtol", "wikipedia": "en:Pudtol", "wikipedia:ilo": "Pudtol, Apayao"}}, {"type": "node", "id": 198505523, "lat": 18.3573529, "lon": 121.6374711, "tags": {"admin_level": "6", "admin_type:PH": "municipality", "name": "Aparri", "place": "town", "population": "68839", "population:date": "2020-05-01", "ref": "021505000", "source:population": "Philippine Statistics Authority", "wikidata": "Q43517", "wikimedia_commons": "Category:Aparri", "wikipedia": "en:Aparri"}}, {"type": "node", "id": 198506666, "lat": 18.4641165, "lon": 121.3405544, "tags": {"admin_level": "6", "designation": "municipality", "name": "Pamplona", "old_ref": "021518000", "place": "town", "population": "24781", "population:date": "2020-05-01", "ref": "0201518000", "source:population": "Philippine Statistics Authority", "wikidata": "Q49324", "wikimedia_commons": "Category:Pamplona, Cagayan", "wikipedia": "en:Pamplona, Cagayan"}}, {"type": "node", "id": 198511890, "lat": 18.273536, "lon": 121.6757107, "tags": {"admin_level": "6", "admin_type:PH": "municipality", "name": "Camalaniugan", "place": "town", "population": "25236", "population:date": "2020-05-01", "postal_code": "3510", "ref": "021510000", "source:population": "Philippine Statistics Authority", "wikidata": "Q49313", "wikimedia_commons": "Category:Camalaniugan", "wikipedia": "en:Camalaniugan"}}, {"type": "node", "id": 198512066, "lat": 18.225865, "lon": 121.5560253, "tags": {"admin_level": "6", "admin_type:PH": "municipality", "name": "Allacapan", "place": "town", "population": "35234", "population:date": "2020-05-01", "ref": "021503000", "source:population": "Philippine Statistics Authority", "wikidata": "Q43508", "wikimedia_commons": "Category:Allacapan", "wikipedia": "en:Allacapan"}}, {"type": "node", "id": 198514250, "lat": 18.4094347, "lon": 121.5147489, "tags": {"admin_level": "6", "admin_type:PH": "municipality", "name": "Ballesteros", "place": "town", "population": "34488", "population:date": "2020-05-01", "ref": "021507000", "source:population": "Philippine Statistics Authority", "wikidata": "Q49058", "wikimedia_commons": "Category:Ballesteros, Cagayan", "wikipedia": "en:Ballesteros, Cagayan"}}, {"type": "node", "id": 198518385, "lat": 18.4434854, "lon": 121.4572732, "tags": {"admin_level": "6", "designation": "municipality", "name": "Abulug", "place": "town", "population": "34579", "population:date": "2020-05-01", "ref": "021501000", "source:population": "Philippine Statistics Authority", "wikidata": "Q43500", "wikimedia_commons": "Category:Abulug", "wikipedia": "en:Abulug"}}, {"type": "node", "id": 198522579, "lat": 18.2875298, "lon": 121.4359707, "tags": {"admin_level": "6", "name": "Santa Marcela", "name:ilo": "Santa Marcela", "official_name:ilo": "Ili ti Santa Marcela", "place": "town", "place:PH": "municipality", "population": "13613", "population:date": "2015-08-01", "postal_code": "3811", "ref": "148107000", "source:population": "Philippine Statistics Authority", "wikidata": "Q30073", "wikimedia_commons": "Category:Santa Marcela, Apayao", "wikipedia": "en:Santa Marcela", "wikipedia:ilo": "Santa Marcela, Apayao"}}, {"type": "node", "id": 198522871, "lat": 18.3312102, "lon": 121.3729788, "tags": {"admin_level": "6", "name": "Luna", "name:ilo": "Luna", "official_name:ilo": "Ili ti Luna", "old_name": "Macatel", "place": "town", "place:PH": "municipality", "population": "19063", "population:date": "2015-08-01", "postal_code": "3813", "ref": "148105000", "source:population": "Philippine Statistics Authority", "wikidata": "Q801777", "wikimedia_commons": "Category:Luna, Apayao", "wikipedia": "en:Luna, Apayao", "wikipedia:ilo": "Luna, Apayao"}}, {"type": "node", "id": 1332532374, "lat": 18.2978806, "lon": 121.6612403, "tags": {"admin_level": "10", "admin_type:PH": "barangay", "is_in:town": "Camalaniugan", "name": "Catotoran Norte", "place": "village"}}, {"type": "node", "id": 2160213060, "lat": 18.3509389, "lon": 121.6399767, "tags": {"admin_level": "10", "admin_type:PH": "barangay", "is_in:town": "Aparri", "name": "Macanaya", "place": "village"}}, {"type": "node", "id": 2164671447, "lat": 18.3105681, "lon": 121.6072785, "tags": {"admin_level": "10", "admin_type:PH": "barangay", "is_in:town": "Aparri", "name": "Bukig", "place": "village", "population": "788"}}, {"type": "node", "id": 2164678093, "lat": 18.2380748, "lon": 121.5705879, "tags": {"admin_level": "10", "admin_type:PH": "barangay", "is_in:town": "Allacapan", "name": "Pacac", "place": "village"}}, {"type": "node", "id": 2164678102, "lat": 18.2655129, "lon": 121.5466626, "tags": {"admin_level": "10", "admin_type:PH": "barangay", "name": "Matucay", "place": "village"}}, {"type": "node", "id": 2164678119, "lat": 18.239481, "lon": 121.5556115, "tags": {"admin_level": "10", "admin_type:PH": "barangay", "name": "Daan-Ili", "place": "village"}}, {"type": "node", "id": 2164680506, "lat": 18.2957587, "lon": 121.564031, "tags": {"admin_level": "10", "admin_type:PH": "barangay", "name": "Bangag", "place": "village"}}, {"type": "node", "id": 2164838633, "lat": 18.3236679, "lon": 121.5936914, "tags": {"is_in:state": "Cagayan", "is_in:town": "Aparri", "name": "Caagaman", "place": "village", "population": "1547"}}, {"type": "node", "id": 2164838744, "lat": 18.3823837, "lon": 121.5701995, "tags": {"admin_level": "10", "admin_type:PH": "barangay", "is_in:town": "Aparri", "name": "Bulala Sur", "old_ref": "021505021", "place": "village", "population": "836", "population:2015": "765", "ref": "0201505021", "source:population": "Philippine Statistics Authority"}}, {"type": "node", "id": 2164847458, "lat": 18.4042295, "lon": 121.5203791, "tags": {"admin_level": "10", "admin_type:PH": "barangay", "is_in:town": "Ballesteros", "name": "Santa Cruz", "place": "village"}}, {"type": "node", "id": 2185647442, "lat": 18.2628639, "lon": 121.6894522, "tags": {"admin_level": "10", "admin_type:PH": "barangay", "is_in:town": "Calamaniugan", "name": "Bulala", "place": "village"}}, {"type": "node", "id": 2185647516, "lat": 18.2710236, "lon": 121.6799126, "tags": {"admin_level": "10", "admin_type:PH": "barangay", "is_in:town": "Camalaniugan", "name": "Baggao", "place": "village"}}, {"type": "node", "id": 2185653929, "lat": 18.2953614, "lon": 121.6634567, "tags": {"admin_level": "10", "admin_type:PH": "barangay", "is_in:town": "Camalaniugan", "name": "Catotoran Sur", "old_name": "Catotoran", "place": "village"}}, {"type": "node", "id": 2185661143, "lat": 18.3152194, "lon": 121.6551577, "tags": {"admin_level": "10", "admin_type:PH": "barangay", "is_in:town": "Aparri", "name": "Toran", "place": "village"}}, {"type": "node", "id": 3554714940, "lat": 18.511633, "lon": 121.3177859, "tags": {"is_in:city": "Pamplona", "is_in:province": "Cagayan", "name": "Bidduang", "place": "village"}}, {"type": "node", "id": 5592162263, "lat": 18.3240213, "lon": 121.7377959, "tags": {"admin_level": "10", "admin_type:PH": "barangay", "is_in:town": "Aparri", "name": "Paddaya", "place": "village"}}, {"type": "node", "id": 5592164930, "lat": 18.3357602, "lon": 121.7044143, "tags": {"name": "Dodan", "place": "village"}}, {"type": "node", "id": 5592166382, "lat": 18.3447025, "lon": 121.6535156, "tags": {"admin_level": "10", "admin_type:PH": "barangay", "is_in:town": "Aparri", "name": "Gaddang", "place": "village"}}, {"type": "node", "id": 5592168323, "lat": 18.3347721, "lon": 121.6497357, "tags": {"admin_level": "10", "admin_type:PH": "barangay", "name": "Tallungan", "place": "village", "population": "3329"}}, {"type": "node", "id": 5592173226, "lat": 18.3595864, "lon": 121.5638623, "tags": {"admin_level": "10", "admin_type:PH": "barangay", "is_in:town": "Aparri", "name": "Navagan", "place": "village", "population": "900"}}, {"type": "node", "id": 5592174091, "lat": 18.3278763, "lon": 121.6285631, "tags": {"admin_level": "10", "admin_type:PH": "barangay", "is_in:town": "Aparri", "name": "Sanja", "place": "village", "population": "1620"}}, {"type": "node", "id": 5592174095, "lat": 18.3489399, "lon": 121.6200628, "tags": {"admin_level": "10", "admin_type:PH": "barangay", "is_in:town": "Aparri", "name": "Bisagu", "place": "village", "population": "1708"}}, {"type": "node", "id": 5592176177, "lat": 18.3715149, "lon": 121.6009275, "tags": {"admin_level": "10", "admin_type:PH": "barangay", "is_in:town": "Aparri", "name": "Linao", "old_ref": "021502057", "place": "village", "population": "1810", "population:2015": "1747", "ref": "0201502057", "source:population": "Philippine Statistics Authority"}}, {"type": "node", "id": 5592179361, "lat": 18.3797979, "lon": 121.5760538, "tags": {"admin_level": "10", "admin_type:PH": "barangay", "is_in:town": "Aparri", "name": "Bulala Norte", "old_ref": "021505020", "place": "village", "population": "779", "population:2015": "763", "ref": "0201505020", "source:population": "Philippine Statistics Authority"}}, {"type": "node", "id": 5592183340, "lat": 18.3251871, "lon": 121.5433352, "tags": {"admin_level": "10", "admin_type:PH": "barangay", "is_in:town": "Aparri", "name": "Binalan", "place": "village", "population": "2122"}}, {"type": "node", "id": 5592183341, "lat": 18.3561143, "lon": 121.5487947, "tags": {"admin_level": "10", "admin_type:PH": "barangay", "is_in:town": "Ballesteros", "name": "Payagan East", "place": "village", "population": "1755"}}, {"type": "node", "id": 5592183342, "lat": 18.2939601, "lon": 121.5859175, "tags": {"admin_level": "10", "admin_type:PH": "barangay", "name": "Backiling", "place": "village", "population": "1208"}}, {"type": "node", "id": 5592183343, "lat": 18.3055336, "lon": 121.5919658, "tags": {"admin_level": "10", "admin_type:PH": "barangay", "is_in:town": "Aparri", "name": "Plaza", "place": "village", "population": "809"}}, {"type": "node", "id": 5592183344, "lat": 18.3090671, "lon": 121.6177647, "tags": {"admin_level": "10", "admin_type:PH": "barangay", "is_in:town": "Aparri", "name": "Paruddun Norte", "place": "village", "population": "1480"}}, {"type": "node", "id": 5592183345, "lat": 18.3010283, "lon": 121.6430075, "tags": {"admin_level": "10", "admin_type:PH": "barangay", "is_in:town": "Aparri", "name": "Paruddun Sur", "old_ref": "021505035", "place": "village", "population": "1245", "population:2015": "1123", "ref": "0201505035", "source:population": "Philippine Statistics Authority"}}, {"type": "node", "id": 5592183346, "lat": 18.2895582, "lon": 121.6438481, "tags": {"admin_level": "10", "admin_type:PH": "barangay", "is_in:town": "Aparri", "name": "Mabanguc", "old_ref": "021505028", "place": "village", "population": "1021", "population:2015": "942", "ref": "0201505028", "source:population": "Philippine Statistics Authority"}}, {"type": "node", "id": 5909103760, "lat": 18.2101362, "lon": 121.7230438}, {"type": "node", "id": 5909103761, "lat": 18.2101082, "lon": 121.7230947}, {"type": "node", "id": 5909103762, "lat": 18.2101822, "lon": 121.7231398}, {"type": "node", "id": 5909103763, "lat": 18.2102102, "lon": 121.7230888}, {"type": "node", "id": 6959331306, "lat": 18.3591078, "lon": 121.4600158, "tags": {"is_in:city": "Abulug", "is_in:province": "Cagayan", "name": "San Agustin", "place": "village"}}, {"type": "node", "id": 6959331307, "lat": 18.3637308, "lon": 121.4416051, "tags": {"is_in:city": "Abulug", "is_in:province": "Cagayan", "name": "Santa Rosa", "place": "village"}}, {"type": "node", "id": 6959331308, "lat": 18.3978998, "lon": 121.449759, "tags": {"admin_level": "10", "admin_type:PH": "barangay", "is_in:city": "Abulug", "is_in:province": "Cagayan", "name": "Banguian", "place": "village"}}, {"type": "node", "id": 6959331309, "lat": 18.4440365, "lon": 121.4543939, "tags": {"alt_name": "Poblacion", "is_in:city": "Abulug", "is_in:province": "Cagayan", "name": "Centro", "place": "village"}}, {"type": "node", "id": 6959331310, "lat": 18.4353852, "lon": 121.4533853, "tags": {"admin_level": "10", "admin_type:PH": "barangay", "is_in:city": "Abulug", "is_in:province": "Cagayan", "name": "Alinunu", "place": "village"}}, {"type": "node", "id": 6959331311, "lat": 18.4295479, "lon": 121.4648652, "tags": {"is_in:city": "Abulug", "is_in:province": "Cagayan", "name": "Santa Filomena", "place": "village"}}, {"type": "node", "id": 6959331312, "lat": 18.4372733, "lon": 121.4679765, "tags": {"is_in:city": "Abulug", "is_in:province": "Cagayan", "name": "Bagu", "place": "village"}}, {"type": "node", "id": 6959331313, "lat": 18.4411002, "lon": 121.3957071, "tags": {"admin_level": "10", "admin_type:PH": "barangay", "is_in:city": "Abulug", "is_in:province": "Cagayan", "is_in:town": "Abulug", "name": "San Julian", "place": "village"}}, {"type": "node", "id": 6959331314, "lat": 18.4725368, "lon": 121.4159524, "tags": {"admin_level": "10", "admin_type:PH": "barangay", "is_in:city": "Abulug", "is_in:province": "Cagayan", "is_in:town": "Abulug", "name": "Siguiran", "place": "village"}}, {"type": "node", "id": 6959331315, "lat": 18.4400213, "lon": 121.4246106, "tags": {"is_in:city": "Abulug", "is_in:province": "Cagayan", "name": "Santo Tomas", "place": "village"}}, {"type": "node", "id": 6959331316, "lat": 18.4239598, "lon": 121.4239454, "tags": {"is_in:city": "Abulug", "is_in:province": "Cagayan", "name": "Dana-Ili", "place": "village"}}, {"type": "node", "id": 6959331317, "lat": 18.4095051, "lon": 121.4202976, "tags": {"is_in:city": "Abulug", "is_in:province": "Cagayan", "name": "Sirit", "place": "village"}}, {"type": "node", "id": 6959331318, "lat": 18.3982256, "lon": 121.4247608, "tags": {"is_in:city": "Abulug", "is_in:province": "Cagayan", "name": "Canayun", "place": "village"}}, {"type": "node", "id": 6959331319, "lat": 18.3788816, "lon": 121.4133024, "tags": {"is_in:city": "Abulug", "is_in:province": "Cagayan", "name": "Simayung", "place": "village"}}, {"type": "node", "id": 6959331320, "lat": 18.3752111, "lon": 121.3903051, "tags": {"is_in:city": "Abulug", "is_in:province": "Cagayan", "name": "Pinili", "place": "village"}}, {"type": "node", "id": 6959331321, "lat": 18.364525, "lon": 121.385901, "tags": {"admin_level": "10", "admin_type:PH": "barangay", "is_in:town": "Abulug", "name": "Calog Norte", "place": "village"}}, {"type": "node", "id": 6959331322, "lat": 18.3613073, "lon": 121.4060712, "tags": {"admin_level": "10", "admin_type:PH": "barangay", "is_in:town": "Abulug", "name": "Calog Sur", "place": "village"}}, {"type": "node", "id": 6959331323, "lat": 18.3455083, "lon": 121.4133829, "tags": {"admin_level": "10", "admin_type:PH": "barangay", "name": "Libertad", "place": "village", "postal_code": "3517"}}, {"type": "node", "id": 6959331324, "lat": 18.3365159, "lon": 121.431241, "tags": {"admin_level": "10", "admin_type:PH": "barangay", "is_in:province": "Cagayan", "is_in:town": "Abulug", "name": "Lucban", "place": "village"}}, {"type": "node", "id": 6959331325, "lat": 18.3360169, "lon": 121.4648491, "tags": {"admin_level": "10", "admin_type:PH": "barangay", "is_in:province": "Cagayan", "is_in:town": "Abulug", "name": "Guiddam", "place": "village"}}, {"type": "node", "id": 6964082453, "lat": 18.2390344, "lon": 121.5067989, "tags": {"admin_level": "10", "admin_type:PH": "barangay", "is_in:province": "Cagayan", "is_in:town": "Allacapan", "name": "Cataratan", "place": "village", "population": "2332", "ref": "021503009", "source:population": "PSA, 2020 Census", "source:ref": "PSA"}}, {"type": "node", "id": 6964082463, "lat": 18.2078076, "lon": 121.5049159, "tags": {"admin_level": "10", "admin_type:PH": "barangay", "is_in:town": "Allacapan", "name": "Capanickian Norte", "place": "village"}}, {"type": "node", "id": 6964082466, "lat": 18.2134231, "lon": 121.5546656, "tags": {"admin_level": "10", "admin_type:PH": "barangay", "is_in:town": "Allacapan", "name": "Dagupan", "place": "village"}}, {"type": "node", "id": 6964082468, "lat": 18.2207161, "lon": 121.5692742, "tags": {"admin_level": "10", "admin_type:PH": "barangay", "is_in:town": "Allacapan", "name": "Burot", "place": "village"}}, {"type": "node", "id": 6964082469, "lat": 18.2251325, "lon": 121.5787732, "tags": {"admin_level": "10", "admin_type:PH": "barangay", "is_in:town": "Allacapan", "name": "Binobongan", "place": "village"}}, {"type": "node", "id": 6964082470, "lat": 18.230992, "lon": 121.5853286, "tags": {"admin_level": "10", "admin_type:PH": "barangay", "is_in:town": "Allacapan", "name": "Dalayap", "place": "village"}}, {"type": "node", "id": 6964082474, "lat": 18.2601796, "lon": 121.5931016, "tags": {"admin_level": "10", "admin_type:PH": "barangay", "alt_name": "Maguininango", "is_in:town": "Allacapan", "name": "San Juan", "place": "village"}}, {"type": "node", "id": 6964082475, "lat": 18.2632667, "lon": 121.5776789, "tags": {"admin_level": "10", "admin_type:PH": "barangay", "is_in:town": "Allacapan", "name": "Tamboli", "place": "village"}}, {"type": "node", "id": 6964082476, "lat": 18.2651872, "lon": 121.5177047, "tags": {"admin_level": "10", "admin_type:PH": "barangay", "name": "Silangan", "place": "village"}}, {"type": "node", "id": 6964082477, "lat": 18.2489947, "lon": 121.5496042, "tags": {"admin_level": "10", "admin_type:PH": "barangay", "name": "Bulo", "place": "village"}}, {"type": "node", "id": 6964092713, "lat": 18.2887562, "lon": 121.4788181, "tags": {"admin_level": "10", "admin_type:PH": "barangay", "is_in:town": "Ballesteros", "name": "Cabayu", "place": "village"}}, {"type": "node", "id": 6964092714, "lat": 18.2783449, "lon": 121.493125, "tags": {"admin_level": "10", "admin_type:PH": "barangay", "is_in:town": "Ballesteros", "name": "San Juan", "place": "village"}}, {"type": "node", "id": 6964092715, "lat": 18.3172822, "lon": 121.490711, "tags": {"admin_level": "10", "admin_type:PH": "barangay", "is_in:town": "Ballesteros", "name": "Nararagan", "place": "village"}}, {"type": "node", "id": 6964092716, "lat": 18.3317293, "lon": 121.5293375, "tags": {"name": "Fugu", "place": "village"}}, {"type": "node", "id": 6964092717, "lat": 18.3470816, "lon": 121.5004206, "tags": {"admin_level": "10", "admin_type:PH": "barangay", "is_in:town": "Ballesteros", "name": "Zitanga", "place": "village"}}, {"type": "node", "id": 6964092719, "lat": 18.3673964, "lon": 121.5308368, "tags": {"admin_level": "10", "admin_type:PH": "barangay", "is_in:town": "Ballesteros", "name": "Payagan West", "place": "village"}}, {"type": "node", "id": 6964092720, "lat": 18.3743711, "lon": 121.516723, "tags": {"admin_level": "10", "admin_type:PH": "barangay", "is_in:town": "Ballesteros", "name": "Mabuttal East", "place": "village"}}, {"type": "node", "id": 6964092721, "lat": 18.373974, "lon": 121.5103018, "tags": {"admin_level": "10", "admin_type:PH": "barangay", "is_in:town": "Ballesteros", "name": "Mabuttal West", "place": "village"}}, {"type": "node", "id": 6964092722, "lat": 18.3827404, "lon": 121.4759159, "tags": {"is_in:state": "Cagayan", "is_in:town": "Ballesteros", "name": "Baran", "place": "village"}}, {"type": "node", "id": 6964108302, "lat": 18.3914605, "lon": 121.5460503, "tags": {"admin_level": "10", "admin_type:PH": "barangay", "is_in:town": "Ballesteros", "name": "Palloc", "place": "village"}}, {"type": "node", "id": 6964108303, "lat": 18.3967544, "lon": 121.5354314, "tags": {"admin_level": "10", "admin_type:PH": "barangay", "is_in:town": "Ballesteros", "name": "Ammubuan", "place": "village"}}, {"type": "node", "id": 6964108306, "lat": 18.4128987, "lon": 121.503949, "tags": {"admin_level": "10", "admin_type:PH": "barangay", "is_in:town": "Ballesteros", "name": "Cabuluan East", "place": "village"}}, {"type": "node", "id": 6964108307, "lat": 18.4149919, "lon": 121.4987683, "tags": {"admin_level": "10", "admin_type:PH": "barangay", "is_in:state": "Cagayan", "is_in:town": "Ballesteros", "name": "Cabuluan West", "place": "village"}}, {"type": "node", "id": 6964108308, "lat": 18.4180152, "lon": 121.4927709, "tags": {"is_in:state": "Cagayan", "is_in:town": "Ballesteros", "name": "Cabaritan East", "place": "village"}}, {"type": "node", "id": 6964108309, "lat": 18.4233999, "lon": 121.482439, "tags": {"admin_level": "10", "admin_type:PH": "barangay", "is_in:town": "Ballesteros", "name": "Cabaritan West", "place": "village"}}, {"type": "node", "id": 6966117857, "lat": 18.391318, "lon": 121.3928103, "tags": {"is_in:city": "Pamplona", "is_in:province": "Cagayan", "name": "Curva", "place": "village"}}, {"type": "node", "id": 6966117858, "lat": 18.4161981, "lon": 121.3745445, "tags": {"is_in:city": "Pamplona", "is_in:province": "Cagayan", "name": "Santa Cruz", "place": "village"}}, {"type": "node", "id": 6966117859, "lat": 18.4252092, "lon": 121.3564315, "tags": {"is_in:city": "Pamplona", "is_in:province": "Cagayan", "name": "Bagu", "place": "village"}}, {"type": "node", "id": 6966117860, "lat": 18.4563918, "lon": 121.3526845, "tags": {"name": "Abbangkeruan", "place": "village"}}, {"type": "node", "id": 6966117861, "lat": 18.4569414, "lon": 121.3374335, "tags": {"is_in:city": "Pamplona", "is_in:province": "Cagayan", "name": "Masi", "place": "village"}}, {"type": "node", "id": 6966117862, "lat": 18.4688429, "lon": 121.3166141, "tags": {"is_in:city": "Pamplona", "is_in:province": "Cagayan", "name": "Gattu", "place": "village"}}, {"type": "node", "id": 6966117863, "lat": 18.4650878, "lon": 121.3417894, "tags": {"is_in:city": "Pamplona", "is_in:province": "Cagayan", "name": "Centro", "place": "village"}}, {"type": "node", "id": 6966117864, "lat": 18.4810235, "lon": 121.3929766, "tags": {"admin_level": "10", "admin_type:PH": "barangay", "is_in:city": "Pamplona", "is_in:province": "Cagayan", "name": "Tupanna", "place": "village"}}, {"type": "node", "id": 6966117865, "lat": 18.4788408, "lon": 121.3739866, "tags": {"is_in:city": "Pamplona", "is_in:province": "Cagayan", "name": "Tabba", "place": "village"}}, {"type": "node", "id": 6966117866, "lat": 18.4965888, "lon": 121.3553493, "tags": {"admin_level": "10", "admin_type:PH": "barangay", "is_in:city": "Pamplona", "is_in:province": "Cagayan", "name": "Nagtupacan", "place": "village"}}, {"type": "node", "id": 6966117867, "lat": 18.4929742, "lon": 121.3473308, "tags": {"admin_level": "10", "admin_type:PH": "barangay", "is_in:city": "Pamplona", "is_in:province": "Cagayan", "name": "Cabaggan", "place": "village"}}, {"type": "node", "id": 6966117868, "lat": 18.478098, "lon": 121.345405, "tags": {"is_in:city": "Pamplona", "is_in:province": "Cagayan", "name": "San Juan", "place": "village"}}, {"type": "node", "id": 6966117869, "lat": 18.4793801, "lon": 121.3327235, "tags": {"is_in:city": "Pamplona", "is_in:province": "Cagayan", "name": "Capalalian", "place": "village"}}, {"type": "node", "id": 6966117870, "lat": 18.493193, "lon": 121.321587, "tags": {"is_in:city": "Pamplona", "is_in:province": "Cagayan", "name": "Casitan", "place": "village"}}, {"type": "node", "id": 6966117871, "lat": 18.5004424, "lon": 121.3363928, "tags": {"is_in:city": "Pamplona", "is_in:province": "Cagayan", "name": "Allasitan", "place": "village"}}, {"type": "node", "id": 7564634670, "lat": 18.2663385, "lon": 121.6847849, "tags": {"admin_level": "10", "admin_type:PH": "barangay", "is_in:town": "Calamaniugan", "name": "Dacal-Lafugu", "place": "village"}}, {"type": "node", "id": 8409436417, "lat": 18.4634952, "lon": 121.435613, "tags": {"name": "Sawang", "place": "hamlet"}}, {"type": "node", "id": 8748565482, "lat": 18.2706786, "lon": 121.5999412, "tags": {"admin_level": "10", "admin_type:PH": "barangay", "is_in:town": "Allacapan", "name": "Tubel", "place": "village"}}, {"type": "node", "id": 9349925553, "lat": 18.2442811, "lon": 121.5102588, "tags": {"name": "Zone 5", "place": "neighbourhood"}}, {"type": "node", "id": 9504239703, "lat": 18.3375241, "lon": 121.3602792, "tags": {"admin_level": "10", "admin_type:PH": "barangay", "is_in:town": "Luna", "name": "Poblacion", "place": "village", "population": "1235", "population:2015": "1181", "ref": "148105007", "source:population": "Philippine Statistics Authority"}}, {"type": "node", "id": 9504239893, "lat": 18.3338146, "lon": 121.3777122, "tags": {"admin_level": "10", "admin_type:PH": "barangay", "is_in:town": "Luna", "name": "San Isidro Sur", "place": "village", "population": "1708", "population:2015": "1545", "ref": "148105021", "source:population": "Philippine Statistics Authority"}}, {"type": "node", "id": 9583503538, "lat": 18.3427841, "lon": 121.3692391, "tags": {"admin_level": "10", "designation": "barangay", "name": "Capagaypayan", "place": "village"}}, {"type": "node", "id": 9583503539, "lat": 18.3519492, "lon": 121.3678631, "tags": {"admin_level": "10", "designation": "barangay", "name": "Luyon", "place": "village"}}, {"type": "node", "id": 9583506315, "lat": 18.343665, "lon": 121.3763845, "tags": {"admin_level": "10", "designation": "barangay", "name": "San Isidro Norte", "place": "village"}}, {"type": "node", "id": 9583556366, "lat": 18.3382879, "lon": 121.3861209, "tags": {"admin_level": "10", "designation": "barangay", "name": "Quirino", "place": "village"}}, {"type": "node", "id": 9583580129, "lat": 18.316503, "lon": 121.3819635, "tags": {"admin_level": "10", "designation": "barangay", "name": "Tumog", "place": "village"}}, {"type": "node", "id": 9583601675, "lat": 18.3072902, "lon": 121.3843238, "tags": {"admin_level": "10", "designation": "barangay", "name": "Santa Lina", "place": "village"}}, {"type": "node", "id": 9692915141, "lat": 18.2338809, "lon": 121.4188063, "tags": {"admin_level": "10", "designation": "barangay", "name": "Bagutong", "place": "village"}}, {"type": "node", "id": 9692938763, "lat": 18.2549069, "lon": 121.4188358, "tags": {"admin_level": "10", "designation": "barangay", "name": "Sipa", "place": "village"}}, {"type": "node", "id": 9692938764, "lat": 18.2668326, "lon": 121.4254636, "tags": {"admin_level": "10", "designation": "barangay", "name": "Imelda", "place": "village"}}, {"type": "node", "id": 9692938765, "lat": 18.2770001, "lon": 121.4250183, "tags": {"admin_level": "10", "designation": "barangay", "name": "San Mariano", "place": "village"}}, {"type": "node", "id": 9693059418, "lat": 18.2488992, "lon": 121.368362, "tags": {"admin_level": "10", "admin_type:PH": "barangay", "name": "Cabatacan", "place": "village"}}, {"type": "node", "id": 9698314040, "lat": 18.413068, "lon": 121.4455962, "tags": {"admin_level": "11", "admin_type:PH": "sitio", "name": "Langay", "place": "hamlet"}}, {"type": "node", "id": 11141949704, "lat": 18.3525551, "lon": 121.6378891, "tags": {"admin_level": "10", "admin_type:PH": "barangay", "is_in:town": "Aparri", "name": "Minanga", "place": "village"}}, {"type": "node", "id": 11141965505, "lat": 18.359062, "lon": 121.6404963, "tags": {"admin_level": "10", "admin_type:PH": "barangay", "is_in:town": "Aparri", "name": "San Antonio", "place": "village"}}, {"type": "node", "id": 11141965506, "lat": 18.3545383, "lon": 121.6478227, "tags": {"admin_level": "10", "admin_type:PH": "barangay", "is_in:town": "Aparri", "name": "Maura", "place": "village"}}, {"type": "node", "id": 11583978337, "lat": 18.3080465, "lon": 121.5146014, "tags": {"admin_level": "11", "admin_type:PH": "sitio", "is_in:village": "Fugu", "name": "Calappawan", "place": "hamlet"}}, {"type": "node", "id": 11584092313, "lat": 18.2989937, "lon": 121.7621948, "tags": {"admin_level": "11", "admin_type:PH": "sitio", "is_in:town": "Aparri", "is_in:village": "Paddaya", "name": "Zimay", "place": "hamlet"}}, {"type": "node", "id": 12151502907, "lat": 18.2402725, "lon": 121.7225289, "tags": {"admin_level": "10", "admin_type:PH": "barangay", "name": "San Juan", "place": "village"}}, {"type": "node", "id": 12157560315, "lat": 18.2407336, "lon": 121.7121863, "tags": {"admin_level": "10", "admin_type:PH": "barangay", "is_in:town": "Lal-lo", "name": "Fusina", "place": "village"}}, {"type": "node", "id": 12157560316, "lat": 18.2556571, "lon": 121.7055787, "tags": {"admin_level": "10", "admin_type:PH": "barangay", "is_in:town": "Calamaniugan", "name": "Tuluttuging", "place": "village"}}, {"type": "node", "id": 12157560317, "lat": 18.2531595, "lon": 121.6866195, "tags": {"admin_level": "10", "admin_type:PH": "barangay", "is_in:town": "Calamaniugan", "name": "Dugo", "place": "village"}}, {"type": "node", "id": 12157560318, "lat": 18.2508059, "lon": 121.6915843, "tags": {"admin_level": "10", "admin_type:PH": "barangay", "is_in:town": "Calamaniugan", "name": "Bantay", "place": "village"}}, {"type": "node", "id": 12157560319, "lat": 18.2452935, "lon": 121.6837817, "tags": {"admin_level": "10", "admin_type:PH": "barangay", "is_in:town": "Calamaniugan", "name": "Gang-ngo", "place": "village"}}, {"type": "node", "id": 12157560390, "lat": 18.2421118, "lon": 121.7056471, "tags": {"admin_level": "10", "admin_type:PH": "barangay", "is_in:town": "Camalaniugan", "name": "Paragat", "place": "village"}}, {"type": "node", "id": 12481016556, "lat": 18.3178169, "lon": 121.4767581, "tags": {"admin_level": "11", "admin_type:PH": "sitio", "is_in:town": "Abulug", "is_in:village": "Guiddam", "name": "Pinaron", "place": "hamlet"}}, {"type": "node", "id": 12582131867, "lat": 18.2429652, "lon": 121.7303985, "tags": {"admin_level": "10", "admin_type:PH": "barangay", "is_in:town": "Lal-lo", "name": "Bical", "place": "village"}}, {"type": "node", "id": 12582131868, "lat": 18.2154002, "lon": 121.7499813, "tags": {"admin_level": "10", "admin_type:PH": "barangay", "is_in:town": "Lal-lo", "name": "Rosario", "place": "village"}}, {"type": "node", "id": 12582133167, "lat": 18.228033, "lon": 121.7635238, "tags": {"admin_level": "10", "admin_type:PH": "barangay", "is_in:town": "Lal-lo", "name": "Naguilian", "place": "village"}}, {"type": "node", "id": 12585542982, "lat": 18.2410095, "lon": 121.4755441, "tags": {"admin_level": "10", "admin_type:PH": "barangay", "is_in:province": "Apayao", "is_in:town": "Santa Marcela", "name": "San Juan", "place": "village"}}, {"type": "node", "id": 12828535520, "lat": 18.2578438, "lon": 121.7321795, "tags": {"admin_level": "10", "admin_type:PH": "barangay", "name": "Luec", "place": "village"}}, {"type": "node", "id": 12828535533, "lat": 18.259553, "lon": 121.7141604, "tags": {"admin_level": "10", "admin_type:PH": "barangay", "name": "Afunan Cabayu", "place": "village"}}, {"type": "node", "id": 12828535631, "lat": 18.2699374, "lon": 121.7066315, "tags": {"admin_level": "10", "admin_type:PH": "barangay", "name": "Casili Sur", "place": "village"}}, {"type": "node", "id": 12828535632, "lat": 18.2744608, "lon": 121.7083293, "tags": {"admin_level": "10", "admin_type:PH": "barangay", "name": "Casili Norte", "place": "village"}}, {"type": "node", "id": 12828535633, "lat": 18.2718578, "lon": 121.7231137, "tags": {"admin_level": "10", "admin_type:PH": "barangay", "name": "Minanga", "place": "village"}}, {"type": "node", "id": 12828535634, "lat": 18.2631521, "lon": 121.7261419, "tags": {"admin_level": "10", "admin_type:PH": "barangay", "name": "Ziminila", "place": "village"}}, {"type": "way", "id": 625871496, "nodes": [5909103763, 5909103762, 5909103761, 5909103760, 5909103763], "tags": {"building": "yes", "place": "neighbourhood"}}]}