{"version": 0.6, "generator": "Overpass API 0.7.62.5 1bd436f1", "osm3s": {"timestamp_osm_base": "2025-05-24T17:47:11Z", "copyright": "The data included in this document is from www.openstreetmap.org. The data is made available under ODbL."}, "elements": [{"type": "node", "id": 198492697, "lat": 10.3196268, "lon": 119.3430042, "tags": {"admin_level": "6", "gns_classification": "ADM2", "gns_uni": "-3372683", "is_in:province": "Palawan", "name": "Roxas", "place": "town", "place:PH": "municipality", "population": "65358", "population:date": "2015-08-01", "postal_code": "5308", "source": "GNS", "source:population": "Philippine Statistics Authority", "wikidata": "Q111689", "wikimedia_commons": "Category:Roxas, Palawan", "wikipedia": "en:Roxas, Palawan"}}, {"type": "node", "id": 589734328, "lat": 10.4114, "lon": 119.1779622, "tags": {"admin_level": "10", "admin_type:PH": "barangay", "ele": "5", "gns_classification": "ADM3", "is_in:town": "San Vicente", "name": "Port Barton", "official_name": "Barangay Port Barton", "old_ref": "175319007", "place": "village", "population": "6621", "population:date": "2020-05-01", "postal_code": "5309", "ref": "1705319007", "source:population": "Philippine Statistics Authority", "wikidata": "Q14229805"}}, {"type": "node", "id": 2420021137, "lat": 10.4348644, "lon": 119.1893668, "tags": {"alt_name": "Sitio Pamuayan", "ele": "5", "is_in:barangay": "Port Barton", "is_in:municipality": "San Vicente", "name": "Pamuayan", "place": "hamlet", "postal_code": "5309"}}, {"type": "node", "id": 2437055372, "lat": 10.5270058, "lon": 119.2562819, "tags": {"admin_level": "6", "admin_type:PH": "municipality", "gns_classification": "ADM2", "gns_uni": "-3377160", "name": "San Vicente", "place": "town", "population": "31232", "population:date": "2015-08-01", "postal_code": "5309", "source": "GNS", "source:population": "Philippine Statistics Authority", "wikidata": "Q111707", "wikimedia_commons": "Category:San Vicente, Palawan", "wikipedia": "en:San Vicente, Palawan"}}, {"type": "node", "id": 2441318215, "lat": 10.3146439, "lon": 119.2895222, "tags": {"name": "San Dionisio", "place": "neighbourhood"}}, {"type": "node", "id": 4678228794, "lat": 10.2393523, "lon": 119.2145613, "tags": {"admin_level": "11", "alt_name": "Magtulongan", "designation": "purok", "is_in:town": "Roxas", "is_in:village": "Magara", "name": "Magtulungan", "place": "neighbourhood", "source:name": "extrapolated from OSMaPaaralan"}}, {"type": "node", "id": 5045830701, "lat": 10.2948344, "lon": 119.2429525, "tags": {"name": "Buayan Newcuyo", "place": "hamlet"}}, {"type": "node", "id": 5045830702, "lat": 10.308829, "lon": 119.2614128, "tags": {"name": "San Jose", "place": "village"}}, {"type": "node", "id": 6389240986, "lat": 10.2339986, "lon": 119.2572931, "tags": {"name": "Rizal", "place": "village"}}, {"type": "node", "id": 6390589158, "lat": 10.4721852, "lon": 119.251907, "tags": {"name": "Kemdeng", "place": "village"}}, {"type": "node", "id": 6390589725, "lat": 10.5161851, "lon": 119.2704476, "tags": {"admin_level": "11", "designation": "sitio", "is_in:town": "San Vicente", "is_in:village": "Poblacion", "name": "Macatumbalen", "place": "neighbourhood"}}, {"type": "node", "id": 6390589739, "lat": 10.5398682, "lon": 119.2794085, "tags": {"is_in:town": "San Vicente", "name": "New Agutaya", "place": "village"}}, {"type": "node", "id": 6390589767, "lat": 10.563745, "lon": 119.3035899, "tags": {"is_in:town": "San Vicente", "name": "San Isidro", "place": "village"}}, {"type": "node", "id": 6390589768, "lat": 10.6102484, "lon": 119.328379, "tags": {"is_in:town": "San Vicente", "name": "Alimanguan", "place": "village"}}, {"type": "node", "id": 6573840069, "lat": 10.1902424, "lon": 119.2299673, "tags": {"name": "Caramay", "place": "village"}}, {"type": "node", "id": 6574102302, "lat": 10.2089296, "lon": 119.2464506, "tags": {"name": "Salvacion", "place": "village"}}, {"type": "node", "id": 6574102303, "lat": 10.2565392, "lon": 119.2078683, "tags": {"name": "Magara", "place": "village"}}, {"type": "node", "id": 7070798007, "lat": 10.4522155, "lon": 119.3715566, "tags": {"is_in:town": "Roxas", "name": "Dumarao", "place": "village"}}, {"type": "node", "id": 7070825518, "lat": 10.2858483, "lon": 119.2645633, "tags": {"is_in:town": "Roxas", "name": "New Cuyo", "place": "village"}}, {"type": "node", "id": 7599553557, "lat": 10.5358794, "lon": 119.3629369, "tags": {"name": "Salvador", "place": "neighbourhood"}}, {"type": "node", "id": 7599621473, "lat": 10.3590398, "lon": 119.386822, "tags": {"name": "Malaya", "place": "neighbourhood"}}, {"type": "node", "id": 7599654308, "lat": 10.3577677, "lon": 119.2130327, "tags": {"alt_name": "Matalangaw", "is_in:barangay": "Abaroan", "is_in:municipality": "Roxas", "name": "Matalangao", "place": "hamlet", "postal_code": "5308"}}, {"type": "node", "id": 7599654954, "lat": 10.2854664, "lon": 119.2952783, "tags": {"name": "Centro", "place": "neighbourhood"}}, {"type": "node", "id": 7599663796, "lat": 10.3042104, "lon": 119.3897005, "tags": {"name": "Shell Island", "place": "neighbourhood"}}, {"type": "node", "id": 7599689905, "lat": 10.396788, "lon": 119.2641678, "tags": {"name": "Ibangan", "place": "neighbourhood"}}, {"type": "node", "id": 7949449787, "lat": 10.5394004, "lon": 119.2782426, "tags": {"name": "Katarungan", "place": "neighbourhood", "source:name": "extrapolated from OSMaPaaralan, way/682405046"}}, {"type": "node", "id": 8861538485, "lat": 10.3690969, "lon": 119.5308774, "tags": {"admin_level": "10", "designation": "barangay", "is_in:town": "Roxas", "name": "Taradungan", "place": "village", "source:name": "extrapolated from OSMaPaaralan, way/957701060"}}, {"type": "node", "id": 8861586300, "lat": 10.4351262, "lon": 119.4966208, "tags": {"admin_level": "10", "designation": "barangay", "is_in:town": "Roxas", "name": "Antonino", "place": "village", "postal_code": "5308", "source:name": "extrapolated from OSMaPaaralan, way/813834720"}}, {"type": "node", "id": 8861597527, "lat": 10.3758368, "lon": 119.4585129, "tags": {"admin_level": "10", "designation": "barangay", "is_in:town": "Roxas", "name": "Tumarbong", "place": "village", "source:name": "extrapolated from OSMaPaaralan, way/957699920"}}, {"type": "node", "id": 8861614342, "lat": 10.4903413, "lon": 119.5206526, "tags": {"admin_level": "11", "alt_name": "Maragok", "designation": "sitio", "is_in:quarter": "Antonino", "is_in:town": "Roxas", "name": "Maragoc", "place": "village", "source:name": "extrapolated from OSMaPaaralan, way/816452693"}}, {"type": "node", "id": 8861667297, "lat": 10.5081095, "lon": 119.5374741, "tags": {"admin_level": "11", "designation": "sitio", "is_in:quarter": "Tanatanaon", "is_in:town": "Dumaran", "name": "Manggahan", "place": "village", "source:name": "extrapolated from OSMaPaaralan, way/819018388"}}, {"type": "node", "id": 8861715409, "lat": 10.5402395, "lon": 119.4668518, "tags": {"admin_level": "10", "designation": "barangay", "is_in:quarter": "Tanatanaon", "is_in:town": "Dumaran", "name": "Malonlon", "place": "village", "source:name": "extrapolated from OSMaPaaralan, way/819744980"}}, {"type": "node", "id": 8862594400, "lat": 10.2528819, "lon": 119.3840465, "tags": {"admin_level": "10", "designation": "barangay", "is_in:island": "Johnson Island", "is_in:town": "Roxas", "name": "Barangay \u2165", "place": "village", "source:name": "extrapolated from OSMaPaaralan"}}, {"type": "node", "id": 9164773327, "lat": 10.3240093, "lon": 119.1364117, "tags": {"is_in:town": "Roxas", "name": "Little Caramay", "place": "hamlet", "postal_code": "5308"}}, {"type": "node", "id": 9164773338, "lat": 10.3710693, "lon": 119.1367671, "tags": {"alt_name": "Sitio TDC", "is_in:barangay": "Port Barton", "is_in:municipality": "San Vicente", "name": "TDC", "place": "hamlet", "postal_code": "5309"}}, {"type": "node", "id": 9164773339, "lat": 10.3962505, "lon": 119.1188187, "tags": {"alt_name": "Sitio Bunuangin", "is_in:barangay": "Port Barton", "is_in:municipality": "San Vicente", "name": "Bunuangin", "place": "hamlet", "postal_code": "5309"}}, {"type": "node", "id": 9331062088, "lat": 10.3510779, "lon": 119.3647517, "tags": {"name": "Narra", "old_name": "Minara", "place": "village", "population": "1294", "ref": "175318018", "source:population": "PSA, 2020 Census"}}, {"type": "node", "id": 12535731216, "lat": 10.5004791, "lon": 119.1370948, "tags": {"alt_name": "Sitio Albaguen", "ele": "5", "is_in:barangay": "Port Barton", "is_in:municipality": "San Vicente", "name": "Albaguen", "place": "hamlet", "postal_code": "5309"}}, {"type": "node", "id": 12535814734, "lat": 10.4124844, "lon": 119.1791942, "tags": {"admin_level": "11", "admin_type:PH": "purok", "is_in:barangay": "Port Barton", "is_in:municipality": "San Vicente", "name": "Masigla", "official_name": "Purok Masigla", "place": "neighbourhood", "postal_code": "5309"}}, {"type": "node", "id": 12535814735, "lat": 10.4083899, "lon": 119.1753109, "tags": {"admin_level": "11", "admin_type:PH": "purok", "is_in:town": "San Vicente", "is_in:village": "Port Barton", "name": "Pagkakaisa", "official_name": "Purok Pagkakaisa", "place": "neighbourhood", "postal_code": "5309"}}, {"type": "node", "id": 12535814736, "lat": 10.4133187, "lon": 119.1779395, "tags": {"admin_level": "11", "admin_type:PH": "purok", "is_in:barangay": "Port Barton", "is_in:municipality": "San Vicente", "name": "Pag-asa", "official_name": "Purok Pag-asa", "place": "neighbourhood", "postal_code": "5309"}}, {"type": "node", "id": 12535814737, "lat": 10.4198244, "lon": 119.1764473, "tags": {"admin_level": "11", "admin_type:PH": "purok", "is_in:barangay": "Port Barton", "is_in:municipality": "San Vicente", "name": "Mangingisda", "official_name": "Purok Mangingisda", "place": "neighbourhood", "postal_code": "5309"}}, {"type": "node", "id": 12535814738, "lat": 10.4095108, "lon": 119.1816542, "tags": {"admin_level": "11", "admin_type:PH": "purok", "is_in:barangay": "Port Barton", "is_in:municipality": "San Vicente", "name": "Maunlad", "official_name": "Purok Maunlad", "place": "neighbourhood", "postal_code": "5309"}}, {"type": "node", "id": 12536336812, "lat": 10.4212033, "lon": 119.1114741, "tags": {"alt_name": "Sitio Pagdanan", "is_in:barangay": "Port Barton", "is_in:municipality": "San Vicente", "name": "Pagdanan", "place": "hamlet", "postal_code": "5309"}}, {"type": "node", "id": 12669632200, "lat": 10.3356363, "lon": 119.257367, "tags": {"admin_level": "11", "admin_type:PH": "purok", "is_in:barangay": "Abaroan", "is_in:municipality": "Roxas", "name": "Masipag", "official_name": "Purok Masipag", "place": "neighbourhood", "postal_code": "5308"}}, {"type": "node", "id": 12669647201, "lat": 10.3416577, "lon": 119.2523754, "tags": {"admin_level": "10", "admin_type:PH": "barangay", "is_in:municipality": "Roxas", "name": "Abaroan", "official_name": "Barangay Abaroan", "place": "village", "postal_code": "5308"}}]}