{"version": 0.6, "generator": "Overpass API 0.7.62.5 1bd436f1", "osm3s": {"timestamp_osm_base": "2025-05-24T18:04:28Z", "copyright": "The data included in this document is from www.openstreetmap.org. The data is made available under ODbL."}, "elements": [{"type": "node", "id": 2523983549, "lat": 11.0186254, "lon": 125.7350963, "tags": {"name": "Bantod Point", "place": "village"}}, {"type": "node", "id": 2523983550, "lat": 11.0100118, "lon": 125.7696116, "tags": {"name": "Baras", "place": "village"}}, {"type": "node", "id": 2523983551, "lat": 11.0277525, "lon": 125.7546482, "tags": {"name": "Barbo", "nga:ufi": "-2412604", "place": "village", "source": "Bing;USGS, 2013-10-11;NGA"}}, {"type": "node", "id": 2523983552, "lat": 11.0168472, "lon": 125.7433382, "tags": {"alt_name": "Bongtud", "name": "Bungtod", "nga:ufi": "-2415306", "place": "village", "source": "Bing;USGS, 2013-10-11;NGA"}}, {"type": "node", "id": 2523983554, "lat": 11.0214784, "lon": 125.733433, "tags": {"name": "Campoyong", "place": "village"}}, {"type": "node", "id": 2523983557, "lat": 11.0556147, "lon": 125.7516537, "tags": {"fixme": "Confirm name.", "name": "Dumrog", "place": "village"}}, {"type": "node", "id": 2523983559, "lat": 11.0493658, "lon": 125.7440417, "tags": {"name": "Gahoy", "place": "village"}}, {"type": "node", "id": 2523983560, "lat": 10.9867775, "lon": 125.7967045, "tags": {"name": "Ngolos", "place": "village"}}, {"type": "node", "id": 2523983827, "lat": 10.9401898, "lon": 125.8261704, "tags": {"name": "Sulangan", "place": "village"}}, {"type": "node", "id": 2523983828, "lat": 11.0433979, "lon": 125.7531589, "tags": {"admin_level": "10", "admin_type:PH": "barangay", "name": "Sapao", "place": "village", "postal_code": "6809"}}, {"type": "node", "id": 2523992763, "lat": 10.7725759, "lon": 125.662652, "tags": {"admin_level": "10", "admin_type:PH": "barangay", "alt_name": "Inaculangan", "name": "Inapulangan", "old_ref": "082609026", "place": "village", "population": "548", "population:2015": "552", "population:date": "2020-05-01", "ref": "0802609026", "source:population": "Philippine Statistics Authority"}}, {"type": "node", "id": 2525992507, "lat": 11.0580106, "lon": 125.705332, "tags": {"fixme": "Location approximate.", "name": "Alingarog", "nga:ufi": "-2407849", "place": "hamlet", "source": "Bing; USGS, 2013-10-11; NGA"}}, {"type": "node", "id": 2525992510, "lat": 10.9985621, "lon": 125.6180128, "tags": {"admin_level": "10", "admin_type:PH": "barangay", "is_in:town": "Guiuan", "name": "San Jose", "official_name": "Barangay San Jose", "place": "village"}}, {"type": "node", "id": 2525992522, "lat": 11.0017836, "lon": 125.7789458, "tags": {"name": "Sitio Cabadlungan", "nga:ufi": "-2414968", "place": "hamlet", "source": "Bing; USGS, 2013-10-11; NGA"}}, {"type": "node", "id": 2525992528, "lat": 11.0506481, "lon": 125.7305898, "tags": {"name": "Surok", "nga:ufi": "-2416273", "place": "village", "source": "Bing; USGS, 2013-10-11; NGA"}}, {"type": "node", "id": 2525992542, "lat": 11.0310911, "lon": 125.7515547, "tags": {"name": "Tagporo", "nga:ufi": "-2422149", "place": "hamlet", "source": "Bing; USGS, 2013-10-11; NGA"}}, {"type": "node", "id": 2525992545, "lat": 10.8211746, "lon": 125.7001629, "tags": {"admin_level": "10", "admin_type:PH": "barangay", "designation": "barangay", "name": "Habag", "old_ref": "082609024", "place": "hamlet", "population": "317", "population:2015": "300", "population:date": "2020-05-01", "ref": "0802609024", "source:population": "Philippine Statistics Authority"}}, {"type": "node", "id": 2525992546, "lat": 11.0038978, "lon": 125.6309258, "tags": {"addr:city": "Guiuan", "name": "Hamorawon", "nga:ufi": "-2427541", "place": "village", "source": "Bing; USGS, 2013-10-11; NGA"}}, {"type": "node", "id": 2525992548, "lat": 10.7425612, "lon": 125.7232236, "tags": {"admin_level": "10", "admin_type:PH": "barangay", "is_in:town": "Guiuan", "name": "Casuguran", "old_ref": "0802609017", "place": "village", "population": "964", "population:2015": "894", "population:date": "2020-05-01", "ref": "082609017", "source:population": "Philippine Statistics Authority"}}, {"type": "node", "id": 2525992553, "lat": 10.7220045, "lon": 125.8173865, "tags": {"admin_level": "10", "alt_name": "Ceconga-an", "designation": "barangay", "name": "Cagusu-an", "place": "village", "population": "707", "population:date": "2020-05-01", "ref": "082609012", "source:population": "Philippine Statistics Authority"}}, {"type": "node", "id": 2525992557, "lat": 10.7173509, "lon": 125.7260584, "tags": {"admin_level": "10", "admin_type:PH": "barangay", "name": "Culasi", "place": "village", "population": "446", "population:date": "2020-05-01", "ref": "082609019", "source:population": "Philippine Statistics Authority"}}, {"type": "node", "id": 2525992562, "lat": 11.044444, "lon": 125.714444, "tags": {"fixme": "Location approximate.", "name": "Lapa", "nga:ufi": "-2433952", "place": "hamlet", "source": "Bing; USGS, 2013-10-11; NGA"}}, {"type": "node", "id": 2525992573, "lat": 10.9983375, "lon": 125.6538992, "tags": {"admin_level": "10", "designation": "barangay", "is_in:island": "Manicani Island", "is_in:town": "Guiuan", "name": "Buenavista", "nga:ufi": "-2437878", "place": "village", "population": "721", "population:2015": "695", "ref": "082609010", "source": "Bing;USGS, 2013-10-11;NGA", "source:name": "extrapolated from OSMaPaaralan", "source:population": "Philippine Statistics Authority"}}, {"type": "node", "id": 2525992579, "lat": 11.0271599, "lon": 125.764311, "tags": {"name": "Pagnamitan", "nga:ufi": "-2443057", "place": "village", "source": "Bing; USGS, 2013-10-11; NGA"}}, {"type": "node", "id": 2525992588, "lat": 11.0251877, "lon": 125.7357608, "tags": {"admin_level": "10", "admin_type:PH": "barangay", "gns_classification": "ADM3", "is_in:town": "Guiuan", "name": "Salug", "official_name": "Barangay Salug", "old_ref": "082609044", "place": "village", "population": "1529", "ref": "0802609044", "source:population": "Philippine Statistics Authority"}}, {"type": "node", "id": 2525992594, "lat": 11.055833, "lon": 125.751667, "tags": {"fixme": "Confirm name.", "name": "Santa Cruz", "nga:ufi": "-2451381", "place": "hamlet", "source": "Bing; USGS, 2013-10-11; NGA"}}, {"type": "node", "id": 2525992595, "lat": 11.0514706, "lon": 125.7539069, "tags": {"name": "Sapao", "nga:ufi": "-2452417", "place": "hamlet", "source": "Bing; USGS, 2013-10-11; NGA"}}, {"type": "node", "id": 2525992606, "lat": 10.9836552, "lon": 125.8003543, "tags": {"name": "Tignabon", "nga:ufi": "-2457545", "place": "hamlet", "source": "Bing; USGS, 2013-10-11; NGA"}}, {"type": "node", "id": 2525992607, "lat": 11.0634678, "lon": 125.7291833, "tags": {"name": "Timak", "nga:ufi": "-2457644", "place": "hamlet", "source": "Bing; USGS, 2013-10-11; NGA"}}, {"type": "node", "id": 2525992608, "lat": 11.0628132, "lon": 125.7227717, "tags": {"name": "Timala", "nga:ufi": "-2457645", "place": "village", "source": "Bing; USGS, 2013-10-11; NGA"}}, {"type": "node", "id": 2527212284, "lat": 11.0565059, "lon": 125.679628, "tags": {"admin_level": "10", "name": "Trinidad", "place": "village", "place:PH": "barangay"}}, {"type": "node", "id": 2531776302, "lat": 10.9770326, "lon": 125.6428915, "tags": {"admin_level": "10", "alt_name": "Bana-ag", "designation": "barangay", "is_in:island": "Manicani Island", "is_in:town": "Guiuan", "name": "Banaag", "place": "village", "source": "US Army Topo Map", "source:name": "extrapolated from OSMaPaaralan, way/662706807"}}, {"type": "node", "id": 2531776303, "lat": 10.9887061, "lon": 125.6198288, "tags": {"addr:city": "Guiuan", "fixme": "location approximate", "name": "Cauntan", "place": "hamlet", "source": "US Army Topo Map"}}, {"type": "node", "id": 2531776304, "lat": 10.9805066, "lon": 125.6472559, "tags": {"is_in:town": "Guiuan", "name": "Napanulos", "place": "neighbourhood", "source": "US Army Topo Map"}}, {"type": "node", "id": 2532400510, "lat": 10.7868055, "lon": 125.7191169, "tags": {"is_in": "Habag;Guiuan", "name": "Camadaya", "place": "hamlet"}}, {"type": "node", "id": 2532522876, "lat": 10.9839123, "lon": 125.8055941, "tags": {"name": "Sorog", "place": "hamlet"}}, {"type": "node", "id": 2532532009, "lat": 11.0588849, "lon": 125.7304153, "tags": {"name": "Aliagara", "place": "hamlet"}}, {"type": "node", "id": 2532532012, "lat": 11.0508098, "lon": 125.7550932, "tags": {"name": "Banahao", "place": "hamlet"}}, {"type": "node", "id": 2532532061, "lat": 11.0347092, "lon": 125.6944723, "tags": {"name": "Camparang", "place": "village"}}, {"type": "node", "id": 2532607022, "lat": 10.7323325, "lon": 125.6995511, "tags": {"admin_level": "10", "admin_type:PH": "barangay", "designation": "barangay", "is_in:town": "Guiuan", "name": "Canawayon", "old_ref": "082609058", "place": "hamlet", "population": "427", "population:2015": "445", "population:date": "2020-05-01", "ref": "0802609058", "source:population": "Philippine Statistics Authority"}}, {"type": "node", "id": 2532607024, "lat": 10.7068488, "lon": 125.7351206, "tags": {"admin_level": "10", "designation": "barangay", "name": "Pagbabangnan", "place": "village", "population": "559", "population:date": "2020-05-01", "ref": "082609031", "source:population": "Philippine Statistics Authority"}}, {"type": "node", "id": 2542228203, "lat": 10.9718763, "lon": 125.8068877, "tags": {"place": "village"}}, {"type": "node", "id": 2896520827, "lat": 10.9986502, "lon": 125.7868463, "tags": {"name": "Sitio Cabanian", "place": "hamlet"}}, {"type": "node", "id": 3890539119, "lat": 10.7603655, "lon": 125.7103649, "tags": {"admin_level": "10", "admin_type:PH": "barangay", "designation": "barangay", "is_in:town": "Guiuan", "name": "Bitaugan", "old_ref": "082609007", "place": "hamlet", "population": "445", "population:2015": "412", "population:date": "2020-05-01", "ref": "0802609007", "source:population": "Philippine Statistics Authority"}}, {"type": "node", "id": 5012993496, "lat": 11.0306685, "lon": 125.7236686, "tags": {"admin_level": "6", "admin_type:PH": "municipality", "gns_classification": "ADM2", "is_in:province": "Eastern Samar", "name": "Guiuan", "place": "town", "population": "52991", "population:date": "2015-08-01", "source:population": "Philippine Statistics Authority", "wikidata": "Q313984", "wikimedia_commons": "Category:Guiuan", "wikipedia": "en:Guiuan"}}, {"type": "node", "id": 6203978127, "lat": 11.045398, "lon": 125.7031977, "tags": {"name": "San Juan", "place": "village"}}, {"type": "node", "id": 6203978128, "lat": 11.0521066, "lon": 125.6909316, "tags": {"name": "San Antonio", "place": "village"}}, {"type": "node", "id": 6203978136, "lat": 11.0446716, "lon": 125.6846751, "tags": {"name": "San Pedro", "place": "village"}}, {"type": "node", "id": 6203978145, "lat": 11.046339, "lon": 125.6293771, "tags": {"admin_level": "10", "admin_type:PH": "barangay", "name": "Victory Island", "old_ref": "082609057", "place": "village", "population": "598", "population:date": "2020-05-01", "ref": "0802609057", "source:population": "Philippine Statistics Authority", "wikidata": "Q119797147"}}]}