{"version": 0.6, "generator": "Overpass API 0.7.62.5 1bd436f1", "osm3s": {"timestamp_osm_base": "2025-05-24T18:09:42Z", "copyright": "The data included in this document is from www.openstreetmap.org. The data is made available under ODbL."}, "elements": [{"type": "node", "id": 369493721, "lat": 6.4068083, "lon": 117.3972184, "tags": {"is_in": "Sabah, Malaysia", "name": "Paitan", "place": "hamlet", "wikidata": "Q14551706", "wikipedia": "de:Paitan"}}, {"type": "node", "id": 369496877, "lat": 6.2510893, "lon": 117.3697621, "tags": {"is_in": "Sabah, Malaysia", "name": "Sungai Sungai", "place": "village"}}, {"type": "node", "id": 5248867423, "lat": 6.433885, "lon": 117.4287888, "tags": {"name": "Kampung Tanjung Nipis", "place": "village"}}, {"type": "node", "id": 5248898234, "lat": 6.3928187, "lon": 117.3832823, "tags": {"name": "Kampung Kobambangan", "place": "village"}}, {"type": "node", "id": 5248898266, "lat": 6.3981983, "lon": 117.385528, "tags": {"name": "Kampung Kabuluh", "place": "village"}}, {"type": "node", "id": 5254209211, "lat": 6.3121771, "lon": 117.3687466, "tags": {"name": "Kampung Tiampus", "place": "village"}}]}