{"version": 0.6, "generator": "Overpass API 0.7.62.5 1bd436f1", "osm3s": {"timestamp_osm_base": "2025-05-24T18:10:44Z", "copyright": "The data included in this document is from www.openstreetmap.org. The data is made available under ODbL."}, "elements": [{"type": "node", "id": 369490909, "lat": 6.839631, "lon": 117.0723261, "tags": {"is_in": "Sabah, Malaysia", "name": "Telaga", "name:en": "Telaga", "name:ms": "Telaga", "place": "village"}}, {"type": "node", "id": 369490927, "lat": 6.9627193, "lon": 117.0579151, "tags": {"is_in": "Sabah, Malaysia", "name": "Turong Puteh", "name:en": "Turong Puteh", "name:ms": "Turong Puteh", "place": "hamlet"}}, {"type": "node", "id": 369490956, "lat": 6.976774, "lon": 117.1307734, "tags": {"is_in": "Sabah, Malaysia", "name": "Mangkubau Laut", "place": "village"}}, {"type": "node", "id": 369491185, "lat": 6.786092, "lon": 117.0156305, "tags": {"is_in": "Sabah, Malaysia", "name": "Kampung Pamanuhan", "name:en": "Pamanuhan Village", "name:ms": "Kampung Pamanuhan", "place": "village"}}, {"type": "node", "id": 369491211, "lat": 6.8606122, "lon": 117.2469219, "tags": {"is_in": "Sabah, Malaysia", "name": "Lokapas", "name:en": "Lokapas", "name:ms": "Lokapas", "place": "village"}}, {"type": "node", "id": 369491320, "lat": 6.7412585, "lon": 117.0437707, "tags": {"is_in": "Sabah, Malaysia", "name": "Senaija", "place": "village"}}, {"type": "node", "id": 369491332, "lat": 6.6590911, "lon": 117.0170646, "tags": {"is_in": "Sabah, Malaysia", "name": "Dandong", "place": "village"}}, {"type": "node", "id": 369491352, "lat": 6.665972, "lon": 116.936608, "tags": {"is_in": "Sabah, Malaysia", "name": "Pingan Pingan", "name:en": "Pingan Pingan", "name:ms": "Pingan Pingan", "place": "village"}}, {"type": "node", "id": 369497616, "lat": 6.661511, "lon": 117.2077305, "tags": {"is_in": "Sabah, Malaysia", "name": "Kanibongan", "place": "village"}}, {"type": "node", "id": 369497717, "lat": 6.6873606, "lon": 117.2420296, "tags": {"is_in": "Sabah, Malaysia", "name": "Kampung Delima", "place": "village"}}, {"type": "node", "id": 369498008, "lat": 6.7303182, "lon": 117.054365, "tags": {"is_in": "Sabah, Malaysia", "name": "Pitas", "name:ar": "\u0628\u064a\u062a\u0627\u0633", "name:zh": "\u5fc5\u8fbe\u58eb", "place": "town", "wikidata": "Q2097180", "wikipedia": "en:Pitas, Malaysia"}}, {"type": "node", "id": 4029530221, "lat": 6.5973275, "lon": 117.2216046, "tags": {"name": "Kampung Ranggal", "place": "village"}}, {"type": "node", "id": 4032462864, "lat": 6.9584961, "lon": 117.0601432, "tags": {"name": "Melubang", "place": "village"}}, {"type": "node", "id": 5245952426, "lat": 6.6178113, "lon": 117.2187561, "tags": {"name": "Kampung Kadayan", "place": "village"}}, {"type": "node", "id": 6762134300, "lat": 6.7223006, "lon": 117.0366875, "tags": {"name": "Kampung Taka", "place": "hamlet"}}, {"type": "node", "id": 6762134301, "lat": 6.7420564, "lon": 117.1000351, "tags": {"name": "Kampung Tampakahu", "place": "hamlet"}}, {"type": "node", "id": 6762134302, "lat": 6.6620093, "lon": 117.1108963, "tags": {"alt_name": "Kg. Tolutu", "name": "Kampung Tolutu", "place": "hamlet"}}, {"type": "node", "id": 6762134303, "lat": 6.6648177, "lon": 117.2073658, "tags": {"name": "Kampung Sulakalung", "place": "hamlet"}}, {"type": "node", "id": 6762134304, "lat": 6.6118072, "lon": 117.130745, "tags": {"name": "Kampung Tukar", "place": "hamlet"}}, {"type": "node", "id": 7901802671, "lat": 6.9546045, "lon": 117.1426333, "tags": {"name": "Mangkubau Darat", "place": "village"}}, {"type": "node", "id": 7901843840, "lat": 6.8976509, "lon": 117.1761723, "tags": {"name": "Serupil", "place": "village"}}, {"type": "node", "id": 7901900268, "lat": 6.9959767, "lon": 117.1327988, "tags": {"name": "Mangkubau Laut", "name:ms": "Mangkubau Laut", "place": "village"}}, {"type": "node", "id": 7901902199, "lat": 6.9722254, "lon": 117.1379384, "tags": {"name": "Tanggui", "place": "village"}}, {"type": "node", "id": 7901902200, "lat": 6.9742438, "lon": 117.1133348, "tags": {"name": "Dallas", "place": "village"}}, {"type": "node", "id": 7901988779, "lat": 6.8596406, "lon": 117.2052235, "tags": {"name": "Estet Kakarangan", "place": "village"}}, {"type": "node", "id": 7902003570, "lat": 6.9036909, "lon": 117.0956768, "tags": {"name": "Liu", "place": "village"}}, {"type": "node", "id": 7902012944, "lat": 6.7793551, "lon": 117.1804086, "tags": {"name": "Polod 1", "place": "village"}}, {"type": "node", "id": 7902012967, "lat": 6.9152911, "lon": 117.1101539, "tags": {"name": "Kapok", "place": "village"}}, {"type": "node", "id": 7902052121, "lat": 6.7857478, "lon": 117.1779827, "tags": {"name": "Polod 2", "place": "village"}}, {"type": "node", "id": 7902079217, "lat": 6.7780476, "lon": 117.2063034, "tags": {"name": "Pituru", "place": "village"}}, {"type": "node", "id": 7902079218, "lat": 6.8622992, "lon": 117.2464376, "tags": {"name": "Mapan-Mapan", "name:en": "Mapan-Mapan", "name:ms": "Mapan-Mapan", "place": "village"}}, {"type": "node", "id": 7902079773, "lat": 6.9042192, "lon": 117.0938266, "tags": {"name": "Liu Darat", "place": "village"}}, {"type": "node", "id": 7902079823, "lat": 6.8677008, "lon": 117.242507, "tags": {"name": "Lok Kapas", "name:en": "Lok Kapas", "name:ms": "Lok Kapas", "place": "village"}}, {"type": "node", "id": 7902092735, "lat": 6.9612125, "lon": 117.1409317, "tags": {"name": "Mantaya", "place": "village"}}, {"type": "node", "id": 7902101668, "lat": 6.8554142, "lon": 117.2403773, "tags": {"name": "Kandinga", "name:en": "Kandinga", "name:ms": "Kandinga", "place": "village"}}, {"type": "node", "id": 7902112775, "lat": 6.8333174, "lon": 117.1625517, "tags": {"name": "Bolouh", "place": "village"}}, {"type": "node", "id": 7902143973, "lat": 6.8362972, "lon": 117.1323231, "tags": {"name": "Ungkup", "place": "village"}}, {"type": "node", "id": 7902163002, "lat": 6.9481337, "lon": 117.0320892, "tags": {"name": "Tanjung Berungus", "name:en": "Berungus Cape", "name:ms": "Tanjung Berungus", "place": "village"}}, {"type": "node", "id": 7902164637, "lat": 6.9627435, "lon": 117.0584738, "tags": {"name": "Malubang", "name:en": "Malubang", "name:ms": "Malubang", "place": "village"}}, {"type": "node", "id": 7902164647, "lat": 6.763685, "lon": 117.1860354, "tags": {"name": "Mangkapon Radap", "place": "village"}}, {"type": "node", "id": 7902175253, "lat": 6.9803126, "lon": 117.0731101, "tags": {"name": "Tiga Tarok", "place": "village"}}, {"type": "node", "id": 7902175536, "lat": 6.9647854, "lon": 117.0578355, "tags": {"name": "Pancuran", "name:en": "Pancuran", "name:ms": "Pancuran", "place": "village"}}, {"type": "node", "id": 7902186214, "lat": 7.0024141, "lon": 117.1599113, "tags": {"alt_name": "Naruntung Village", "name": "Kampung Naruntung", "place": "hamlet", "short_name": "Kg. Naruntung"}}, {"type": "node", "id": 7902190263, "lat": 6.945283, "lon": 117.1951715, "tags": {"name": "Maringgan", "place": "village"}}, {"type": "node", "id": 7902190311, "lat": 6.920408, "lon": 117.1327134, "tags": {"name": "Kipahung", "place": "village"}}, {"type": "node", "id": 7902190442, "lat": 6.9811597, "lon": 117.1174777, "tags": {"name": "Suangbat", "place": "village"}}, {"type": "node", "id": 7902194192, "lat": 6.9306229, "lon": 117.0333464, "tags": {"name": "Sawangon", "name:en": "Sawangon", "name:ms": "Sawangon", "place": "village"}}, {"type": "node", "id": 7902194193, "lat": 6.7677394, "lon": 117.1809015, "tags": {"name": "Mangkapon Darat", "place": "village"}}, {"type": "node", "id": 7902194714, "lat": 6.9391582, "lon": 117.1150191, "tags": {"name": "Bawing", "place": "village"}}, {"type": "node", "id": 7902200515, "lat": 6.8921416, "lon": 117.0945086, "tags": {"name": "Kodong", "place": "village"}}, {"type": "node", "id": 7902200516, "lat": 6.8692151, "lon": 117.0976262, "tags": {"name": "Jambu", "place": "village"}}, {"type": "node", "id": 7902202601, "lat": 6.8584471, "lon": 117.108642, "tags": {"name": "Gumpa", "place": "village"}}, {"type": "node", "id": 7902202605, "lat": 6.7816121, "lon": 117.179138, "tags": {"name": "Pungitan Polod", "place": "village"}}, {"type": "node", "id": 7902204250, "lat": 6.7771882, "lon": 117.1725364, "tags": {"name": "Lukan", "place": "village"}}, {"type": "node", "id": 7902210685, "lat": 6.7660043, "lon": 117.1866501, "tags": {"name": "Mangkapon Laut", "place": "village"}}, {"type": "node", "id": 8330293249, "lat": 6.5922825, "lon": 117.2958457, "tags": {"name": "Kampung Mapat", "place": "hamlet", "short_name": "Kg. Mapat"}}, {"type": "node", "id": 11597592509, "lat": 6.6638091, "lon": 117.1052237, "tags": {"name": "Longgom", "place": "village"}}, {"type": "node", "id": 11597616900, "lat": 6.5885598, "lon": 117.0279207, "tags": {"name": "Bambangan Ulu", "place": "village"}}, {"type": "node", "id": 11597625750, "lat": 6.6435091, "lon": 117.014599, "tags": {"name": "Salungkapit", "place": "village"}}, {"type": "node", "id": 11597625751, "lat": 6.6776111, "lon": 117.0855448, "tags": {"name": "Singgah Mata", "place": "village"}}, {"type": "node", "id": 11597628555, "lat": 6.6688346, "lon": 117.0750177, "tags": {"name": "Rinasuk Bai", "place": "village"}}, {"type": "node", "id": 11597636465, "lat": 6.595605, "lon": 117.0030458, "tags": {"name": "Mandurian Ulu", "place": "village"}}, {"type": "node", "id": 11597643030, "lat": 6.6103905, "lon": 116.9869236, "tags": {"name": "Sinanggip", "place": "village"}}, {"type": "node", "id": 11597643643, "lat": 6.6662192, "lon": 116.9990688, "tags": {"name": "Bilangau Besar", "place": "village"}}, {"type": "node", "id": 11597647250, "lat": 6.6601369, "lon": 117.0287968, "tags": {"name": "Dandun Darat", "place": "village"}}, {"type": "node", "id": 11597648664, "lat": 6.6433712, "lon": 117.0744373, "tags": {"name": "Sosop Bai", "place": "village"}}, {"type": "node", "id": 11597648665, "lat": 6.6384114, "lon": 117.0724613, "tags": {"name": "Mandamai Bai", "place": "village"}}, {"type": "node", "id": 11597648905, "lat": 6.5857086, "lon": 117.0150969, "tags": {"name": "Pampang Minalad", "place": "village"}}, {"type": "node", "id": 11597648906, "lat": 6.6011253, "lon": 117.0399886, "tags": {"alt_name": "Towokou", "name": "Dowokon", "place": "village"}}, {"type": "node", "id": 11597650541, "lat": 6.5975969, "lon": 117.0263623, "tags": {"name": "Pinapak", "place": "village"}}, {"type": "node", "id": 11597651396, "lat": 6.6113481, "lon": 117.0328854, "tags": {"name": "Perupuk", "place": "village"}}, {"type": "node", "id": 11597652056, "lat": 6.6560888, "lon": 117.0464107, "tags": {"name": "Tutuwoon", "place": "village"}}, {"type": "node", "id": 11597653774, "lat": 6.6366443, "lon": 117.0340874, "tags": {"name": "Pandan", "place": "village"}}, {"type": "node", "id": 11597654016, "lat": 6.6611144, "lon": 117.004257, "tags": {"name": "Sapatalang", "place": "village"}}, {"type": "node", "id": 11597654593, "lat": 6.6266504, "lon": 117.0918455, "tags": {"name": "Tukar", "place": "village"}}, {"type": "node", "id": 11597654594, "lat": 6.659862, "lon": 117.0696958, "tags": {"name": "Sosop", "place": "village"}}, {"type": "node", "id": 11597655458, "lat": 6.6349887, "lon": 117.0450732, "tags": {"name": "Lugu", "place": "village"}}, {"type": "node", "id": 11597657462, "lat": 6.6388479, "lon": 117.0101601, "tags": {"name": "Bambangan Sook", "place": "village"}}, {"type": "node", "id": 11597657464, "lat": 6.6726134, "lon": 117.0904352, "tags": {"name": "Kibulu", "place": "village"}}, {"type": "node", "id": 11597661207, "lat": 6.629788, "lon": 117.0206976, "tags": {"name": "Mandurian Laut", "place": "village"}}, {"type": "node", "id": 11597662282, "lat": 6.6941191, "lon": 117.0920842, "tags": {"name": "Rukom Laut", "place": "village"}}, {"type": "node", "id": 11597668970, "lat": 6.6406578, "lon": 117.0477281, "tags": {"name": "Pandan Mandamai", "place": "village"}}, {"type": "node", "id": 11597669070, "lat": 6.6774993, "lon": 117.1039099, "tags": {"name": "Rukom Darat", "place": "village"}}, {"type": "node", "id": 11597669071, "lat": 6.651337, "lon": 117.1326059, "tags": {"name": "Layang", "place": "village"}}, {"type": "node", "id": 11597669665, "lat": 6.6856458, "lon": 117.1209852, "tags": {"name": "Layong", "place": "village"}}, {"type": "node", "id": 11597669666, "lat": 6.6343091, "lon": 117.1017769, "tags": {"name": "Kem Polai", "place": "village"}}, {"type": "node", "id": 11597670431, "lat": 6.6626223, "lon": 117.0157769, "tags": {"name": "Dandun Laut", "place": "village"}}, {"type": "node", "id": 11597671126, "lat": 6.6674992, "lon": 117.0158056, "tags": {"name": "Bitulung", "place": "village"}}, {"type": "node", "id": 11597671129, "lat": 6.6589988, "lon": 117.0194912, "tags": {"name": "Dandun Pusat", "place": "village"}}, {"type": "node", "id": 11597672301, "lat": 6.6751967, "lon": 117.0465576, "tags": {"name": "Bawang", "place": "village"}}, {"type": "node", "id": 11597676252, "lat": 6.7035443, "lon": 117.1479476, "tags": {"name": "Tumbalang Kimbalang", "place": "village"}}, {"type": "node", "id": 11597676996, "lat": 6.6949553, "lon": 117.0783703, "tags": {"name": "Kusilad", "place": "village"}}, {"type": "node", "id": 11597680611, "lat": 6.7303801, "lon": 117.1241957, "tags": {"name": "Kinangoh", "place": "village"}}, {"type": "node", "id": 11597687457, "lat": 6.7174121, "lon": 117.123128, "tags": {"name": "Gambir", "place": "village"}}, {"type": "node", "id": 11597687724, "lat": 6.7146886, "lon": 117.1212654, "tags": {"name": "Ladap", "place": "village"}}, {"type": "node", "id": 11597690376, "lat": 6.7137465, "lon": 117.1182113, "tags": {"name": "Andap", "place": "village"}}, {"type": "node", "id": 11953125288, "lat": 6.7081299, "lon": 117.0332519, "tags": {"name": "Pekan Baru Pitas", "place": "neighbourhood"}}]}