{"version": 0.6, "generator": "Overpass API 0.7.62.5 1bd436f1", "osm3s": {"timestamp_osm_base": "2025-05-24T18:09:42Z", "copyright": "The data included in this document is from www.openstreetmap.org. The data is made available under ODbL."}, "elements": [{"type": "node", "id": 369499271, "lat": 8.8361073, "lon": 117.4877578, "tags": {"admin_level": "10", "admin_type:PH": "barangay", "is_in:town": "Rizal", "name": "Culasian", "old_ref": "175323005", "place": "village", "population": "3059", "population:date": "2020-05-01", "ref": "1705323005", "source:population": "Philippine Statistics Authority", "wikidata": "Q19845368"}}, {"type": "node", "id": 2861327883, "lat": 9.034095, "lon": 117.6425658, "tags": {"admin_level": "6", "admin_type:PH": "municipality", "gns_classification": "ADM2", "name": "Rizal", "name:etymology": "Jos\u00e9 Rizal", "name:etymology:wikidata": "Q1500", "old_name": "Marcos", "old_ref": "175323000", "place": "town", "population": "56162", "population:date": "2020-05-01", "postal_code": "5304", "ref": "1705323000", "source:population": "Philippine Statistics Authority", "wikidata": "Q111677", "wikimedia_commons": "Category:Rizal, Palawan", "wikipedia": "en:Rizal, Palawan"}}, {"type": "node", "id": 6388801481, "lat": 8.9091438, "lon": 117.5508302, "tags": {"admin_level": "10", "admin_type:PH": "barangay", "is_in:town": "Rizal", "name": "Ransang", "old_ref": "175323010", "place": "village", "population": "5339", "population:date": "2020-05-01", "ref": "1705323010", "source:population": "Philippine Statistics Authority", "wikidata": "Q19848763"}}, {"type": "node", "id": 9107553752, "lat": 8.8755351, "lon": 117.5016564, "tags": {"admin_level": "10", "admin_type:PH": "barangay", "is_in:town": "Rizal", "name": "Candawaga", "old_ref": "175323003", "place": "village", "population": "6330", "population:date": "2020-05-01", "ref": "1705323003", "source:population": "Philippine Statistics Authority", "wikidata": "Q19845690"}}, {"type": "node", "id": 9107553837, "lat": 8.9602694, "lon": 117.6141431, "tags": {"admin_level": "10", "admin_type:PH": "barangay", "is_in:town": "Rizal", "name": "Campong Ulay", "old_ref": "175323002", "place": "village", "population": "2711", "population:date": "2020-05-01", "ref": "1705323002", "source:population": "Philippine Statistics Authority", "wikidata": "Q19868546"}}, {"type": "node", "id": 9107553892, "lat": 9.0618455, "lon": 117.6878302, "tags": {"admin_level": "10", "admin_type:PH": "barangay", "is_in:town": "Rizal", "name": "Iraan", "old_ref": "175323006", "place": "village", "population": "7232", "population:date": "2020-05-01", "ref": "1705323006", "source:population": "Philippine Statistics Authority", "wikidata": "Q19869108"}}, {"type": "node", "id": 12375650715, "lat": 9.0399776, "lon": 117.6352769, "tags": {"admin_level": "10", "admin_type:PH": "sitio", "is_in:municipality": "Rizal", "is_in:quarter": "Punta Baja", "name": "Tarumpitao", "place": "neighbourhood"}}]}