{"version": 0.6, "generator": "Overpass API 0.7.62.5 1bd436f1", "osm3s": {"timestamp_osm_base": "2025-05-24T17:53:13Z", "copyright": "The data included in this document is from www.openstreetmap.org. The data is made available under ODbL."}, "elements": [{"type": "node", "id": 198505607, "lat": 19.2612602, "lon": 121.4756285, "tags": {"admin_level": "6", "admin_type:PH": "municipality", "name": "Calayan", "official_name": "Municipality of Calayan", "old_ref": "021509000", "place": "town", "population": "17410", "population:date": "2020-05-01", "ref": "0201509000", "wikidata": "Q49062", "wikimedia_commons": "Category:Calayan, Cagayan", "wikipedia": "en:Calayan, Cagayan"}}, {"type": "node", "id": 6113026617, "lat": 19.3682862, "lon": 121.5028541, "tags": {"admin_level": "10", "admin_type:PH": "barangay", "name": "Dilam", "place": "village"}}, {"type": "node", "id": 6113026623, "lat": 19.3737545, "lon": 121.3940409, "tags": {"admin_level": "10", "admin_type:PH": "barangay", "name": "Dibay", "place": "village"}}, {"type": "node", "id": 6113026791, "lat": 19.2793172, "lon": 121.4373918, "tags": {"name": "Magsidel", "place": "village"}}, {"type": "node", "id": 6113026796, "lat": 19.2701615, "lon": 121.4624108, "tags": {"admin_level": "10", "admin_type:PH": "barangay", "name": "Centro II", "place": "village"}}, {"type": "node", "id": 6113026797, "lat": 19.2597994, "lon": 121.4774693, "tags": {"admin_level": "10", "admin_type:PH": "barangay", "name": "Centro I", "place": "village"}}, {"type": "node", "id": 6113026802, "lat": 19.2536459, "lon": 121.5039071, "tags": {"name": "Dadao", "place": "village"}}, {"type": "node", "id": 6113026811, "lat": 19.3225217, "lon": 121.4814146, "tags": {"name": "Cabudadan", "place": "village"}}]}