{"version": 0.6, "generator": "Overpass API 0.7.62.5 1bd436f1", "osm3s": {"timestamp_osm_base": "2025-05-24T17:55:15Z", "copyright": "The data included in this document is from www.openstreetmap.org. The data is made available under ODbL."}, "elements": [{"type": "node", "id": 198504959, "lat": 11.4257994, "lon": 122.0561023, "tags": {"admin_level": "6", "admin_type:PH": "municipality", "name": "Culasi", "name:ka": "\u10d9\u10e3\u10da\u10d0\u10e1\u10d8", "name:ur": "\u06a9\u0648\u0644\u0627\u0633\u06cc", "old_ref": "060606000", "place": "town", "population": "44494", "population:date": "2020-05-01", "postal_code": "5708", "ref": "0600606000", "wikidata": "Q492406", "wikimedia_commons": "Category:Culasi", "wikipedia": "en:Culasi"}}, {"type": "node", "id": 2528026918, "lat": 11.5105, "lon": 122.0874, "tags": {"name": "Aguila", "nga:ufi": "-2407395", "place": "village", "source": "Bing; USGS, 2013-10-11; NGA"}}, {"type": "node", "id": 2528026929, "lat": 11.5072, "lon": 122.1754, "tags": {"FIXME": "location", "name": "Kabilaoan", "nga:ufi": "-2417767", "place": "hamlet", "source": "Bing; USGS, 2013-10-11; NGA"}}, {"type": "node", "id": 2528026935, "lat": 11.4996, "lon": 122.1054, "tags": {"FIXME": "location", "name": "Salde", "nga:ufi": "-2453291", "place": "hamlet", "source": "Bing;USGS, 2013-10-11;NGA"}}, {"type": "node", "id": 2528951717, "lat": 11.366667, "lon": 122.1, "tags": {"FIXME": "location", "name": "Patag", "nga:ufi": "-2445161", "place": "hamlet", "source": "Bing; USGS, 2013-10-11; NGA"}}, {"type": "node", "id": 2537469705, "lat": 11.3103773, "lon": 122.0583259, "tags": {"name": "Baguioro", "nga:ufi": "10731560", "place": "village", "source": "Bing; USGS, 2013-10-11; NGA"}}, {"type": "node", "id": 2537469707, "lat": 11.2700845, "lon": 122.077248, "tags": {"FIXME": "Location inaccurate", "name": "Salazar", "nga:ufi": "-2428249", "place": "village", "source": "Bing; USGS, 2013-10-11; NGA"}}, {"type": "node", "id": 2537469708, "lat": 11.1597824, "lon": 122.1061256, "tags": {"admin_level": "10", "admin_type:PH": "barangay", "is_in:town": "Laua-an", "name": "Guiamon", "old_ref": "060609010", "place": "hamlet", "population": "231", "population:2015": "249", "ref": "0600609010", "source": "Bing; USGS, 2013-10-11; NGA", "source:population": "Philippine Statistics Authority"}}, {"type": "node", "id": 2537469709, "lat": 11.283333, "lon": 122.05, "tags": {"FIXME": "Location inaccurate", "name": "Malacad", "nga:ufi": "-2436254", "place": "hamlet", "source": "Bing; USGS, 2013-10-11; NGA"}}, {"type": "node", "id": 2537469711, "lat": 11.1834153, "lon": 122.0834449, "tags": {"FIXME": "Location inaccurate", "name": "Menganilla", "nga:ufi": "-2439720", "place": "hamlet", "source": "Bing; USGS, 2013-10-11; NGA"}}, {"type": "node", "id": 2537469712, "lat": 11.2832716, "lon": 122.0502318, "tags": {"FIXME": "Location inaccurate", "name": "Rancheria Igtonarum", "nga:ufi": "-2447748", "place": "hamlet", "source": "Bing; USGS, 2013-10-11; NGA"}}, {"type": "node", "id": 2537469714, "lat": 11.3203055, "lon": 122.0805823, "tags": {"name": "Tuno", "nga:ufi": "-2459095", "place": "village", "source": "Bing; USGS, 2013-10-11; NGA"}}, {"type": "node", "id": 2764647816, "lat": 11.4974249, "lon": 122.0848371, "tags": {"admin_level": "10", "admin_type:PH": "barangay", "name": "Bitadton Norte", "old_ref": "060606010", "place": "village", "population": "644", "population:2015": "788", "ref": "0600606010"}}, {"type": "node", "id": 2764647817, "lat": 11.4688776, "lon": 122.0996896, "tags": {"admin_level": "10", "name": "Paningayan", "place": "village", "place:PH": "barangay"}}, {"type": "node", "id": 2765085839, "lat": 11.3874419, "lon": 122.2800456, "tags": {"name": "Manika", "place": "village"}}, {"type": "node", "id": 2768028138, "lat": 11.403049, "lon": 122.0538832, "tags": {"admin_level": "10", "name": "Malaca\u00f1ang", "place": "village", "place:PH": "barangay"}}, {"type": "node", "id": 2768028142, "lat": 11.35796, "lon": 122.0964538, "tags": {"admin_level": "10", "name": "Pitac", "place": "village", "place:PH": "barangay"}}, {"type": "node", "id": 2769324834, "lat": 11.1359616, "lon": 122.0409396, "tags": {"name": "Cabariwan", "place": "village"}}, {"type": "node", "id": 2769324837, "lat": 11.0836832, "lon": 122.0710665, "tags": {"name": "Guinbanga-an", "place": "village"}}, {"type": "node", "id": 2769324841, "lat": 11.0903917, "lon": 122.0464762, "tags": {"name": "Guisijan", "place": "village"}}, {"type": "node", "id": 2769324844, "lat": 11.1429506, "lon": 122.0416027, "tags": {"admin_level": "6", "gns_classification": "ADM2", "is_in:province": "Antique", "name": "Laua-an", "place": "town", "place:PH": "municipality", "population": "26072", "population:date": "2015-08-01", "source:population": "Philippine Statistics Authority", "wikidata": "Q492479", "wikimedia_commons": "Category:Laua-an", "wikipedia": "en:Laua-an"}}, {"type": "node", "id": 2769324850, "lat": 11.1356366, "lon": 122.0726237, "tags": {"admin_level": "10", "admin_type:PH": "barangay", "is_in:town": "Laua-an", "name": "Lupa-an", "old_ref": "060609024", "place": "village", "population": "607", "population:2015": "559", "ref": "0600609024", "source:population": "Philippine Statistics Authority"}}, {"type": "node", "id": 2769324854, "lat": 11.1270448, "lon": 122.040377, "tags": {"name": "Oloc", "place": "village"}}, {"type": "node", "id": 2838442221, "lat": 11.1958667, "lon": 122.0389309, "tags": {"admin_level": "6", "gns_classification": "ADM2", "is_in:province": "Antique", "name": "Barbaza", "place": "town", "place:PH": "municipality", "population": "22704", "population:date": "2015-08-01", "source:population": "Philippine Statistics Authority", "wikidata": "Q492155", "wikimedia_commons": "Category:Barbaza", "wikipedia": "en:Barbaza"}}, {"type": "node", "id": 2838442222, "lat": 11.2980845, "lon": 122.0541497, "tags": {"admin_level": "10", "admin_type:PH": "barangay", "is_in:town": "Tibiao", "name": "Importante", "old_ref": "060617006", "place": "village", "population": "1540", "population:2015": "1322", "ref": "0600617006"}}, {"type": "node", "id": 2838442223, "lat": 11.2737428, "lon": 122.045538, "tags": {"admin_level": "10", "name": "Malabor", "place": "village", "place:PH": "barangay"}}, {"type": "node", "id": 2838442224, "lat": 11.3052097, "lon": 122.0297203, "tags": {"admin_level": "10", "admin_type:PH": "barangay", "is_in:town": "Tibiao", "name": "Martinez", "old_ref": "060617009", "place": "village", "population": "2064", "population:2015": "1896", "ref": "0600617009"}}, {"type": "node", "id": 2838442945, "lat": 11.3066719, "lon": 122.0452753, "tags": {"name": "Santa Justa", "old_ref": "060617018", "place": "village", "population": "1510", "population:2015": "1365", "ref": "0600617018", "source:population": "Philippine Statistics Authority"}}, {"type": "node", "id": 2838442946, "lat": 11.2886284, "lon": 122.0342615, "tags": {"admin_level": "6", "designation": "municipality", "gns_classification": "ADM2", "is_in:province": "Antique", "name": "Tibiao", "name:en": "Tibiao", "name:hil": "Tibiao", "name:krj": "Tibiao", "official_name:en": "Municipality of Tibiao", "official_name:hil": "Banwa sang Tibiao", "official_name:krj": "Banwa kang Tibiao", "place": "town", "population": "28703", "population:date": "2020-05-01", "postal_code": "5707", "source:population": "Philippine Statistics Authority", "wikidata": "Q492780", "wikimedia_commons": "Category:Tibiao", "wikipedia": "en:Tibiao"}}, {"type": "node", "id": 2951959062, "lat": 11.3548044, "lon": 122.2540153, "tags": {"name": "Dalagsaan", "place": "village"}}, {"type": "node", "id": 2951959063, "lat": 11.2919533, "lon": 122.2720594, "tags": {"is_in:town": "Jamindan", "name": "Da-an Banwa", "note": "The administrative jurisdiction of this settlement appears to be in dispute betwen Aklan , and Capiz", "place": "hamlet"}}, {"type": "node", "id": 2951977790, "lat": 11.3851993, "lon": 122.2577995, "tags": {"admin_level": "10", "admin_type:PH": "barangay", "name": "Oyang", "name:en": "Oyang", "name:es": "Oyang", "place": "village", "population": "903", "population:2015": "1068", "ref": "060409018", "source:population": "Philippine Statistics Authority"}}, {"type": "node", "id": 2951978645, "lat": 11.3573605, "lon": 122.2602366, "tags": {"admin_level": "11", "admin_type:PH": "sitio", "name": "Agbatuan", "name:es": "Sitio Agbatuan", "place": "hamlet"}}, {"type": "node", "id": 3041690028, "lat": 11.2371118, "lon": 122.0722113, "tags": {"name": "Capoyuan", "place": "village"}}, {"type": "node", "id": 3041690029, "lat": 11.2096597, "lon": 122.061125, "tags": {"name": "Esparar", "place": "village"}}, {"type": "node", "id": 3041690030, "lat": 11.2221652, "lon": 122.067265, "tags": {"name": "Igpalge", "place": "village"}}, {"type": "node", "id": 3041690031, "lat": 11.2320658, "lon": 122.0606538, "tags": {"name": "Ipil", "place": "village"}}, {"type": "node", "id": 3052176144, "lat": 11.2530725, "lon": 122.0729023, "tags": {"name": "Esperagoza", "place": "village"}}, {"type": "node", "id": 3057250669, "lat": 11.4471932, "lon": 122.0622359, "tags": {"admin_level": "10", "admin_type:PH": "barangay", "is_in:town": "Culasi", "name": "Caridad", "old_ref": "060606015", "place": "village", "place:PH": "barangay", "population": "895", "population:2015": "882", "ref": "0600606015"}}, {"type": "node", "id": 3057259752, "lat": 11.3816011, "lon": 122.0634057, "tags": {"admin_level": "10", "name": "Balac-balac", "place": "village", "place:PH": "barangay"}}, {"type": "node", "id": 3057259753, "lat": 11.3547607, "lon": 122.059871, "tags": {"admin_level": "10", "name": "Lapaz", "place": "village", "place:PH": "barangay"}}, {"type": "node", "id": 3057263803, "lat": 11.2924112, "lon": 122.0473106, "tags": {"admin_level": "10", "admin_type:PH": "barangay", "name": "Amar", "old_ref": "060617002", "place": "village", "place:PH": "barangay", "population": "1101", "population:2015": "1025", "ref": "0600617002", "source:population": "Philippine Statistics Authority"}}, {"type": "node", "id": 3057263804, "lat": 11.319355, "lon": 122.0503875, "tags": {"admin_level": "10", "admin_type:PH": "barangay", "is_in:town": "Tibiao", "name": "San Francisco Sur", "old_ref": "060617015", "place": "village", "population": "1859", "population:2015": "1776", "ref": "0600617015", "source:population": "Philippine Statistics Authority"}}, {"type": "node", "id": 3057264210, "lat": 11.2524415, "lon": 122.0646473, "tags": {"admin_level": "10", "name": "Sta. Ana", "place": "village", "place:PH": "barangay"}}, {"type": "node", "id": 3057280260, "lat": 11.1806272, "lon": 122.0361478, "tags": {"name": "Bahoyan", "place": "village"}}, {"type": "node", "id": 3057280262, "lat": 11.2007532, "lon": 122.0416868, "tags": {"admin_level": "10", "admin_type:PH": "barangay", "is_in:town": "Barbaza", "name": "Cubay", "old_ref": "060602012", "place": "village", "place:PH": "barangay", "population": "698", "population:2015": "792", "ref": "0600602012"}}, {"type": "node", "id": 3057280264, "lat": 11.2134603, "lon": 122.0474086, "tags": {"admin_level": "10", "is_in:town": "Barbaza", "name": "Gua", "place": "village", "place:PH": "barangay"}}, {"type": "node", "id": 3057280265, "lat": 11.2028169, "lon": 122.0429778, "tags": {"admin_level": "10", "admin_type:PH": "barangay", "is_in:town": "Barbaza", "name": "Lisub Norte", "old_ref": "060602024", "place": "village", "place:PH": "barangay", "population": "762", "population:2015": "764", "ref": "0600602024"}}, {"type": "node", "id": 3057280266, "lat": 11.2317883, "lon": 122.0567361, "tags": {"admin_level": "10", "name": "Palma", "place": "village", "place:PH": "barangay"}}, {"type": "node", "id": 3057287730, "lat": 11.158311, "lon": 122.0394175, "tags": {"name": "Intao", "place": "village"}}, {"type": "node", "id": 3059968486, "lat": 11.440176, "lon": 122.0758701, "tags": {"admin_level": "10", "admin_type:PH": "barangay", "name": "Buenavista", "old_ref": "060606012", "place": "village", "place:PH": "barangay", "population": "748", "population:2015": "726", "ref": "0600606012", "source:population": "Philippine Statistics Authority"}}, {"type": "node", "id": 3064910657, "lat": 11.1616694, "lon": 122.0755264, "tags": {"admin_level": "10", "admin_type:PH": "barangay", "is_in:town": "Laua-an", "name": "Jinaljnan", "old_ref": "060609015", "place": "hamlet", "population": "184", "population:2015": "202", "ref": "0600609015", "source:population": "Philippine Statistics Authority"}}, {"type": "node", "id": 3064910658, "lat": 11.1508551, "lon": 122.0723838, "tags": {"admin_level": "10", "admin_type:PH": "barangay", "alt_name": "Luctudan", "is_in:town": "Laua-an", "name": "Lactudan", "old_ref": "060609016", "place": "hamlet", "population": "247", "population:2015": "247", "ref": "0600609016", "source:population": "Philippine Statistics Authority"}}, {"type": "node", "id": 3064910659, "lat": 11.1674059, "lon": 122.0834758, "tags": {"name": "Magtaring", "place": "village"}}, {"type": "node", "id": 3064912083, "lat": 11.1703361, "lon": 122.1195125, "tags": {"admin_level": "10", "admin_type:PH": "barangay", "name": "San Ramon", "old_ref": "060609038", "place": "hamlet", "population": "170", "population:2015": "167", "ref": "0600609038", "source:population": "Philippine Statistics Authority"}}, {"type": "node", "id": 3064912084, "lat": 11.134413, "lon": 122.1002629, "tags": {"admin_level": "10", "admin_type:PH": "barangay", "alt_name": "Tibakan", "is_in:town": "Laua-an", "name": "Tibacan", "old_ref": "060609040", "place": "hamlet", "population": "161", "population:2015": "177", "ref": "0600609040", "source:population": "Philippine Statistics Authority"}}, {"type": "node", "id": 3064912085, "lat": 11.1462463, "lon": 122.0811108, "tags": {"admin_level": "10", "admin_type:PH": "barangay", "is_in:town": "Laua-an", "name": "Tigunhao", "old_ref": "060609047", "place": "hamlet", "population": "342", "population:2015": "343", "ref": "0600609047", "source:population": "Philippine Statistics Authority"}}, {"type": "node", "id": 3073928311, "lat": 11.0793679, "lon": 122.0869049, "tags": {"name": "Jaguiquican", "place": "village"}}, {"type": "node", "id": 3073928312, "lat": 11.0977221, "lon": 122.0858926, "tags": {"name": "Maria", "place": "village"}}, {"type": "node", "id": 3073928313, "lat": 11.1527004, "lon": 122.1253495, "tags": {"admin_level": "10", "admin_type:PH": "barangay", "is_in:town": "Laua-an", "name": "Maybunga", "old_ref": "060609028", "place": "village", "population": "520", "population:2015": "525", "ref": "0600609028", "source:population": "Philippine Statistics Authority"}}, {"type": "node", "id": 3073928935, "lat": 11.1232153, "lon": 122.1019331, "tags": {"admin_level": "10", "admin_type:PH": "barangay", "is_in:town": "Laua-an", "name": "Santiago", "old_ref": "060609039", "place": "village", "population": "626", "population:2015": "670", "ref": "0600609039", "source:population": "Philippine Statistics Authority"}}, {"type": "node", "id": 3073928936, "lat": 11.1357712, "lon": 122.1303543, "tags": {"admin_level": "10", "admin_type:PH": "barangay", "is_in:town": "Laua-an", "name": "Virginia", "old_ref": "060609042", "place": "hamlet", "population": "235", "population:2015": "235", "ref": "0600609042", "source:population": "Philippine Statistics Authority"}}, {"type": "node", "id": 3073928937, "lat": 11.0774554, "lon": 122.1170713, "tags": {"name": "Yapo", "place": "village"}}, {"type": "node", "id": 3091860814, "lat": 11.4641641, "lon": 121.9130189, "tags": {"admin_level": "10", "admin_type:PH": "barangay", "designation": "barangay", "is_in:town": "Culasi", "name": "Batbatan", "official_name": "Batbatan Island", "old_ref": "060606005", "place": "village", "population": "3221", "population:2015": "2851", "population:date": "2020-05-01", "ref": "0600606005", "source:population": "Philippine Statistics Authority", "wikidata": "Q115865843"}}, {"type": "node", "id": 3091860815, "lat": 11.3722672, "lon": 122.1093077, "tags": {"admin_level": "10", "is_in:town": "Culasi", "name": "Flores", "place": "village", "place:PH": "barangay"}}, {"type": "node", "id": 3091860817, "lat": 11.4156998, "lon": 122.0268076, "tags": {"admin_level": "10", "admin_type:PH": "barangay", "alt_name": "Malalison Island", "designation": "barangay", "is_in:town": "Culasi", "name": "Malalison", "old_ref": "060606026", "place": "village", "population": "789", "population:2015": "649", "population:date": "2020-05-01", "ref": "0600606026", "source:population": "Philippine Statistics Authority", "wikidata": "Q55330876"}}, {"type": "node", "id": 3165807031, "lat": 11.4163424, "lon": 122.1057543, "tags": {"admin_level": "10", "name": "Alojipan", "place": "village", "place:PH": "barangay"}}, {"type": "node", "id": 3165807032, "lat": 11.4327124, "lon": 122.0935165, "tags": {"admin_level": "10", "name": "Magsaysay", "place": "village", "place:PH": "barangay"}}, {"type": "node", "id": 3215090576, "lat": 11.2317212, "lon": 122.0890513, "tags": {"name": "Biga-a", "place": "village"}}, {"type": "node", "id": 3215090577, "lat": 11.1108777, "lon": 122.0688189, "tags": {"name": "Liberato", "place": "village"}}, {"type": "node", "id": 3215090578, "lat": 11.2438643, "lon": 122.1049413, "tags": {"name": "Lumbuyan", "place": "village"}}, {"type": "node", "id": 3215090579, "lat": 11.2244654, "lon": 122.0893078, "tags": {"admin_level": "10", "designation": "barangay", "name": "Mablad", "place": "village"}}, {"type": "node", "id": 3367652272, "lat": 11.3740914, "lon": 122.0641109, "tags": {"admin_level": "10", "is_in:town": "Culasi", "name": "Batonan Norte", "place": "village", "place:PH": "barangay"}}, {"type": "node", "id": 3367652273, "lat": 11.364375, "lon": 122.0627895, "tags": {"admin_level": "10", "is_in:town": "Culasi", "name": "Batonan Sur", "place": "village", "place:PH": "barangay"}}, {"type": "node", "id": 3367652274, "lat": 11.4902238, "lon": 122.0819002, "tags": {"admin_level": "10", "name": "Bitadton Sur", "place": "village", "place:PH": "barangay"}}, {"type": "node", "id": 3367652275, "lat": 11.4058023, "lon": 122.0675085, "tags": {"admin_level": "10", "name": "Buhi", "name:uk": "\u0411\u0443\u0433\u0456", "place": "village", "place:PH": "barangay"}}, {"type": "node", "id": 3367652276, "lat": 11.4323695, "lon": 122.0596004, "tags": {"admin_level": "10", "name": "Centro Norte", "place": "village", "place:PH": "barangay"}}, {"type": "node", "id": 3367652277, "lat": 11.4231408, "lon": 122.0545269, "tags": {"admin_level": "10", "name": "Centro Sur", "place": "village", "place:PH": "barangay"}}, {"type": "node", "id": 3367652278, "lat": 11.4409794, "lon": 122.0620189, "tags": {"admin_level": "10", "admin_type:PH": "barangay", "is_in:town": "Culasi", "name": "Fe", "old_ref": "0600606019", "place": "village", "place:PH": "barangay", "population": "789", "population:2015": "770", "ref": "060606019"}}, {"type": "node", "id": 3367652279, "lat": 11.41404, "lon": 122.0527131, "tags": {"admin_level": "10", "name": "Jalandoni", "place": "village", "place:PH": "barangay"}}, {"type": "node", "id": 3367652282, "lat": 11.3939856, "lon": 122.0579908, "tags": {"admin_level": "10", "name": "San Antonio", "place": "village", "place:PH": "barangay"}}, {"type": "node", "id": 3367652283, "lat": 11.369063, "lon": 122.070417, "tags": {"admin_level": "10", "name": "Tigbobolo", "place": "village", "place:PH": "barangay"}}, {"type": "node", "id": 3882157602, "lat": 11.3725031, "lon": 122.1218592, "tags": {"name": "Kamandiga Village", "place": "hamlet", "source": "Schadow1 Expeditions; X'treme Trekkers Mountaineering Society"}}, {"type": "node", "id": 4334904635, "lat": 11.4014962, "lon": 122.0718214, "tags": {"name": "Bita", "place": "village"}}, {"type": "node", "id": 4334905771, "lat": 11.4055887, "lon": 122.0835493, "tags": {"name": "Valderrama", "place": "village"}}, {"type": "node", "id": 4334909189, "lat": 11.4074699, "lon": 122.0806191, "tags": {"name": "San Gregorio", "place": "village"}}, {"type": "node", "id": 4334909313, "lat": 11.3988459, "lon": 122.0870564, "tags": {"name": "Tinabusan", "place": "village"}}, {"type": "node", "id": 4334910997, "lat": 11.3936714, "lon": 122.1023342, "tags": {"name": "Osorio", "place": "village"}}, {"type": "node", "id": 4334925024, "lat": 11.3811818, "lon": 122.0913881, "tags": {"name": "San Vicente", "place": "village"}}, {"type": "node", "id": 4334925059, "lat": 11.3966637, "lon": 122.0783847, "tags": {"name": "San Luis", "place": "village"}}, {"type": "node", "id": 4334925261, "lat": 11.4864251, "lon": 122.0800155, "tags": {"name": "Baringyao", "place": "village"}}, {"type": "node", "id": 4334925266, "lat": 11.480411, "lon": 122.0959371, "tags": {"name": "Tanque", "place": "village"}}, {"type": "node", "id": 4334928250, "lat": 11.3714342, "lon": 122.0839825, "tags": {"name": "San Pascual", "place": "village"}}, {"type": "node", "id": 4334931156, "lat": 11.3906056, "lon": 122.0756811, "tags": {"name": "Bacolod", "place": "village"}}, {"type": "node", "id": 4334931187, "lat": 11.4282033, "lon": 122.0752626, "tags": {"admin_level": "10", "admin_type:PH": "barangay", "is_in:town": "Culasi", "name": "San Juan", "old_ref": "060606038", "place": "village", "population": "815", "population:2015": "751", "ref": "0600606038", "source:name": "extrapolated from way:779006446", "source:population": "Philippine Statistics Authority"}}, {"type": "node", "id": 4334931234, "lat": 11.3931298, "lon": 122.0708746, "tags": {"name": "Condes", "place": "village"}}, {"type": "node", "id": 4334932428, "lat": 11.4318313, "lon": 122.0807451, "tags": {"name": "Belen", "place": "hamlet"}}, {"type": "node", "id": 4334933189, "lat": 11.4358274, "lon": 122.0849508, "tags": {"name": "Bugo", "place": "village"}}, {"type": "node", "id": 4334933993, "lat": 11.4219882, "lon": 122.0737499, "tags": {"name": "Tomao", "place": "village"}}, {"type": "node", "id": 4334934008, "lat": 11.4140377, "lon": 122.0727199, "tags": {"name": "Camancijan", "place": "village"}}, {"type": "node", "id": 4334934338, "lat": 11.4209365, "lon": 122.0988124, "tags": {"name": "Guintongaban", "place": "village"}}, {"type": "node", "id": 4334934348, "lat": 11.4117661, "lon": 122.0602745, "tags": {"name": "Bacong Ilawod", "place": "village"}}, {"type": "node", "id": 4334934417, "lat": 11.4274566, "lon": 122.0640081, "tags": {"name": "Bulho", "place": "village"}}, {"type": "node", "id": 4334934425, "lat": 11.4170244, "lon": 122.0789426, "tags": {"name": "Baywan", "place": "village"}}, {"type": "node", "id": 4334934580, "lat": 11.4121026, "lon": 122.0659393, "tags": {"name": "Bacong Ilaya", "place": "village"}}, {"type": "node", "id": 4334934582, "lat": 11.4370893, "lon": 122.0636648, "tags": {"name": "Bongol", "place": "village"}}, {"type": "node", "id": 4334934597, "lat": 11.4342658, "lon": 122.060316, "tags": {"admin_level": "10", "admin_type:PH": "barangay", "is_in:town": "Culasi", "name": "Hubag", "old_ref": "060606032", "place": "village", "population": "2125", "population:2015": "2114", "ref": "0600606032"}}, {"type": "node", "id": 4334934735, "lat": 11.3973788, "lon": 122.0580429, "tags": {"name": "Kabayhan", "place": "village"}}, {"type": "node", "id": 4334935034, "lat": 11.4000292, "lon": 122.05697, "tags": {"name": "Balabago", "place": "village"}}, {"type": "node", "id": 4334935573, "lat": 11.3979257, "lon": 122.0685142, "tags": {"name": "Janlagasi", "place": "village"}}, {"type": "node", "id": 4334935707, "lat": 11.4570686, "lon": 122.0719045, "tags": {"name": "Labangan", "place": "neighbourhood"}}, {"type": "node", "id": 4334935767, "lat": 11.473093, "lon": 122.0688575, "tags": {"name": "Tapican", "place": "village"}}, {"type": "node", "id": 4334935798, "lat": 11.4609801, "lon": 122.0728058, "tags": {"name": "Nalipao", "place": "neighbourhood"}}, {"type": "node", "id": 4334935807, "lat": 11.4812521, "lon": 122.0819038, "tags": {"name": "Bobog", "place": "village"}}, {"type": "node", "id": 4334935808, "lat": 11.4788549, "lon": 122.0800155, "tags": {"name": "Moro-boro", "place": "village"}}, {"type": "node", "id": 4334937424, "lat": 11.4780138, "lon": 122.0996708, "tags": {"name": "Ambolongon", "place": "village"}}, {"type": "node", "id": 4334938272, "lat": 11.4979481, "lon": 122.0955509, "tags": {"name": "Padi-padi", "place": "village"}}, {"type": "node", "id": 4334938548, "lat": 11.4874764, "lon": 122.0869678, "tags": {"name": "Libo-o", "place": "village"}}, {"type": "node", "id": 4334938549, "lat": 11.5011022, "lon": 122.0898861, "tags": {"name": "La-ao", "place": "village"}}, {"type": "node", "id": 4334938551, "lat": 11.4920605, "lon": 122.0872253, "tags": {"name": "Garot", "place": "village"}}, {"type": "node", "id": 4334938736, "lat": 11.4935324, "lon": 122.0894998, "tags": {"name": "Roadland", "place": "village"}}, {"type": "node", "id": 4334938887, "lat": 11.4796119, "lon": 122.1120304, "tags": {"name": "Simbola", "place": "village"}}, {"type": "node", "id": 4335007058, "lat": 11.5215065, "lon": 122.0853648, "tags": {"name": "Banoyo", "place": "village"}}, {"type": "node", "id": 4335010298, "lat": 11.5155774, "lon": 122.0865235, "tags": {"name": "Nabluan", "place": "village"}}, {"type": "node", "id": 4335022060, "lat": 11.4488264, "lon": 122.0803541, "tags": {"name": "San Gabriel", "place": "village"}}, {"type": "node", "id": 4335022225, "lat": 11.4484478, "lon": 122.072801, "tags": {"name": "Canapay", "place": "village"}}, {"type": "node", "id": 4335022749, "lat": 11.4447674, "lon": 122.0687455, "tags": {"name": "Dapdap", "place": "village"}}, {"type": "node", "id": 4335023235, "lat": 11.4420754, "lon": 122.0769637, "tags": {"name": "Ambolong", "place": "neighbourhood"}}, {"type": "node", "id": 4335023912, "lat": 11.4654401, "lon": 122.0596045, "tags": {"name": "Canayo", "place": "neighbourhood"}}, {"type": "node", "id": 4335023915, "lat": 11.4685946, "lon": 122.0590895, "tags": {"name": "Baybay", "place": "neighbourhood"}}, {"type": "node", "id": 4335023917, "lat": 11.4664496, "lon": 122.0571154, "tags": {"name": "Kanyogan", "place": "village"}}, {"type": "node", "id": 4335025911, "lat": 11.451308, "lon": 122.0655697, "tags": {"name": "Tuboran", "place": "village"}}, {"type": "node", "id": 4335026676, "lat": 11.4558505, "lon": 122.0842379, "tags": {"name": "Naria-an", "place": "village"}}, {"type": "node", "id": 4335026977, "lat": 11.4116837, "lon": 122.0174831, "tags": {"name": "Luyo", "place": "neighbourhood"}}, {"type": "node", "id": 4335027329, "lat": 11.4150701, "lon": 122.0194357, "tags": {"name": "Gitusan", "place": "neighbourhood"}}, {"type": "node", "id": 4335028789, "lat": 11.4744512, "lon": 121.9272, "tags": {"admin_level": "11", "designation": "sitio", "is_in:town": "Culasi", "is_in:village": "Batbatan", "name": "Kawit", "place": "hamlet"}}, {"type": "node", "id": 4335029124, "lat": 11.4709919, "lon": 121.8934577, "tags": {"admin_level": "11", "designation": "sitio", "is_in:town": "Culasi", "is_in:village": "Batbatan", "name": "Mag-ayad", "place": "hamlet"}}, {"type": "node", "id": 4335029138, "lat": 11.4726006, "lon": 121.8994658, "tags": {"admin_level": "11", "designation": "sitio", "is_in:town": "Culasi", "is_in:village": "Batbatan", "name": "Rikudo", "place": "hamlet"}}, {"type": "node", "id": 4335035303, "lat": 11.4652193, "lon": 121.9065147, "tags": {"admin_level": "11", "designation": "sitio", "is_in:town": "Culasi", "is_in:village": "Batbatan", "name": "Camanga", "place": "hamlet"}}, {"type": "node", "id": 4335035716, "lat": 11.468195, "lon": 121.8962472, "tags": {"admin_level": "11", "designation": "sitio", "is_in:town": "Culasi", "is_in:village": "Batbatan", "name": "Batbat", "place": "hamlet"}}, {"type": "node", "id": 4335035819, "lat": 11.4727057, "lon": 121.9255691, "tags": {"designation": "sitio", "is_in:town": "Culasi", "is_in:village": "Batbatan", "name": "Bangkal", "place": "hamlet"}}, {"type": "node", "id": 4335036028, "lat": 11.473079, "lon": 121.9208753, "tags": {"is_in:town": "Culasi", "is_in:village": "Batbatan", "name": "Banwang Lagi", "place": "hamlet"}}, {"type": "node", "id": 4335036117, "lat": 11.4692149, "lon": 121.9222754, "tags": {"admin_level": "11", "designation": "sitio", "is_in:town": "Culasi", "is_in:village": "Batbatan", "name": "Bunlao", "place": "hamlet"}}, {"type": "node", "id": 4340625397, "lat": 11.2610784, "lon": 122.0725235, "tags": {"name": "Castillo", "place": "village"}}, {"type": "node", "id": 4902204891, "lat": 11.4766929, "lon": 122.075053, "tags": {"admin_level": "10", "is_in:town": "Culasi", "name": "Naba", "place": "village", "place:PH": "barangay"}}, {"type": "node", "id": 6014830784, "lat": 11.1217567, "lon": 122.0539084}, {"type": "node", "id": 6014841385, "lat": 11.1219018, "lon": 122.0542103}, {"type": "node", "id": 6014841386, "lat": 11.122186, "lon": 122.0546725}, {"type": "node", "id": 6014841387, "lat": 11.122186, "lon": 122.055036}, {"type": "node", "id": 6014841388, "lat": 11.122059, "lon": 122.0551038}, {"type": "node", "id": 6014841389, "lat": 11.1219744, "lon": 122.0554612}, {"type": "node", "id": 6014841390, "lat": 11.1215572, "lon": 122.055375}, {"type": "node", "id": 6014841391, "lat": 11.1213143, "lon": 122.0548969}, {"type": "node", "id": 6014841392, "lat": 11.1214353, "lon": 122.0538096}, {"type": "node", "id": 6014841393, "lat": 11.123099, "lon": 122.0567799}, {"type": "node", "id": 6014841394, "lat": 11.123105, "lon": 122.0575194}, {"type": "node", "id": 6014841395, "lat": 11.123226, "lon": 122.0578213}, {"type": "node", "id": 6014841396, "lat": 11.1234618, "lon": 122.0579569}, {"type": "node", "id": 6014841397, "lat": 11.1235162, "lon": 122.0578398}, {"type": "node", "id": 6014841398, "lat": 11.1239878, "lon": 122.0577042}, {"type": "node", "id": 6014841399, "lat": 11.123885, "lon": 122.057088}, {"type": "node", "id": 6014841400, "lat": 11.1236976, "lon": 122.0570326}, {"type": "node", "id": 6014841401, "lat": 11.1235101, "lon": 122.0569401}, {"type": "node", "id": 6014841402, "lat": 11.1234195, "lon": 122.0567922}, {"type": "node", "id": 6062261606, "lat": 11.0801974, "lon": 122.251863, "tags": {"name": "Busog", "place": "village"}}, {"type": "node", "id": 6062323487, "lat": 11.2329654, "lon": 122.2766169, "tags": {"name": "Hilwan", "place": "village"}}, {"type": "node", "id": 6220490742, "lat": 11.0875591, "lon": 122.0796498}, {"type": "node", "id": 6220490743, "lat": 11.0876841, "lon": 122.0799329}, {"type": "node", "id": 6220490744, "lat": 11.0874132, "lon": 122.0801028}, {"type": "node", "id": 6220490745, "lat": 11.0871632, "lon": 122.0802302}, {"type": "node", "id": 6220490746, "lat": 11.0870631, "lon": 122.0802325}, {"type": "node", "id": 6220490747, "lat": 11.0869645, "lon": 122.0801975}, {"type": "node", "id": 6220490748, "lat": 11.0869599, "lon": 122.0804216}, {"type": "node", "id": 6220490749, "lat": 11.0874072, "lon": 122.0804284}, {"type": "node", "id": 6220490750, "lat": 11.0876733, "lon": 122.0803298}, {"type": "node", "id": 6220490751, "lat": 11.0877216, "lon": 122.0805948}, {"type": "node", "id": 6220490752, "lat": 11.0875221, "lon": 122.080718}, {"type": "node", "id": 6220490753, "lat": 11.0871472, "lon": 122.0806934}, {"type": "node", "id": 6220490754, "lat": 11.0870202, "lon": 122.080681}, {"type": "node", "id": 6220490755, "lat": 11.0870202, "lon": 122.0808597}, {"type": "node", "id": 6220490756, "lat": 11.0870746, "lon": 122.0812048}, {"type": "node", "id": 6220490757, "lat": 11.0869476, "lon": 122.0815252}, {"type": "node", "id": 6220490758, "lat": 11.0867662, "lon": 122.0816855}, {"type": "node", "id": 6220490759, "lat": 11.0866271, "lon": 122.081821}, {"type": "node", "id": 6220490760, "lat": 11.0866211, "lon": 122.0819812}, {"type": "node", "id": 6220490761, "lat": 11.0865969, "lon": 122.0821106}, {"type": "node", "id": 6220490762, "lat": 11.086361, "lon": 122.0820798}, {"type": "node", "id": 6220490763, "lat": 11.0860466, "lon": 122.0824496}, {"type": "node", "id": 6220490764, "lat": 11.0849883, "lon": 122.0827084}, {"type": "node", "id": 6220490765, "lat": 11.0846437, "lon": 122.0815869}, {"type": "node", "id": 6220490766, "lat": 11.085841, "lon": 122.0811925}, {"type": "node", "id": 6220490767, "lat": 11.0858894, "lon": 122.0808597}, {"type": "node", "id": 6220490768, "lat": 11.0858228, "lon": 122.0804345}, {"type": "node", "id": 6220490769, "lat": 11.0861857, "lon": 122.080299}, {"type": "node", "id": 6220490770, "lat": 11.086355, "lon": 122.080299}, {"type": "node", "id": 6220490771, "lat": 11.0864759, "lon": 122.0804161}, {"type": "node", "id": 6220490772, "lat": 11.0865908, "lon": 122.0805824}, {"type": "node", "id": 6220490773, "lat": 11.0867178, "lon": 122.0807673}, {"type": "node", "id": 6220490774, "lat": 11.0868025, "lon": 122.080225}, {"type": "node", "id": 6220490775, "lat": 11.0869355, "lon": 122.0798984}, {"type": "node", "id": 6220490776, "lat": 11.0869113, "lon": 122.0797321}, {"type": "node", "id": 6220490777, "lat": 11.0871895, "lon": 122.0796458}, {"type": "node", "id": 6220490778, "lat": 11.0873407, "lon": 122.0796088}, {"type": "node", "id": 6220495239, "lat": 11.0814589, "lon": 122.0843198}, {"type": "node", "id": 6220495240, "lat": 11.0813115, "lon": 122.0847114}, {"type": "node", "id": 6220495241, "lat": 11.0813589, "lon": 122.0847972}, {"type": "node", "id": 6220495242, "lat": 11.0810535, "lon": 122.0850118}, {"type": "node", "id": 6220495243, "lat": 11.0809956, "lon": 122.0849582}, {"type": "node", "id": 6220495244, "lat": 11.0807851, "lon": 122.0851405}, {"type": "node", "id": 6220495245, "lat": 11.0799059, "lon": 122.0840998}, {"type": "node", "id": 6220495246, "lat": 11.0802586, "lon": 122.0838745}, {"type": "node", "id": 6220495247, "lat": 11.0801639, "lon": 122.0836385}, {"type": "node", "id": 6220495248, "lat": 11.0807008, "lon": 122.0835205}, {"type": "node", "id": 6220495249, "lat": 11.0807798, "lon": 122.0837673}, {"type": "node", "id": 6220495250, "lat": 11.0807851, "lon": 122.0842125}, {"type": "node", "id": 6220495251, "lat": 11.0813483, "lon": 122.0842447}, {"type": "node", "id": 6760834164, "lat": 11.0794628, "lon": 122.1750915, "tags": {"name": "Bakiang", "place": "village"}}, {"type": "node", "id": 6765974648, "lat": 11.2885891, "lon": 122.1620186, "tags": {"name": "Mayabay", "place": "village"}}, {"type": "node", "id": 6765974649, "lat": 11.3209098, "lon": 122.1592896, "tags": {"name": "Nalusdan", "place": "village"}}, {"type": "node", "id": 6765974650, "lat": 11.2844889, "lon": 122.1165782, "tags": {"name": "Idao", "place": "village"}}, {"type": "node", "id": 6765974651, "lat": 11.2589372, "lon": 122.0958805, "tags": {"name": "Igtunarum", "place": "village"}}, {"type": "node", "id": 7234431062, "lat": 11.2811854, "lon": 122.2723844, "tags": {"admin_level": "10", "admin_type:PH": "barangay", "alt_name": "Dalagsaan", "name": "Dalagsa-an", "note": "The administrative jurisdiction of this settlement appears to be in dispute betwen Aklan , and Capiz", "old_ref": "060409009", "place": "village", "population": "2086", "population:2015": "1908", "ref": "0600409009", "source:population": "Philippine Statistics Authority"}}, {"type": "node", "id": 8166627116, "lat": 11.0845073, "lon": 122.0512379}, {"type": "node", "id": 8166627117, "lat": 11.0845393, "lon": 122.0519697}, {"type": "node", "id": 8166627118, "lat": 11.0841563, "lon": 122.0522136}, {"type": "node", "id": 8166627119, "lat": 11.0837413, "lon": 122.0521404}, {"type": "node", "id": 8166627120, "lat": 11.0839807, "lon": 122.0511972}, {"type": "node", "id": 8166627121, "lat": 11.0832307, "lon": 122.0514005}, {"type": "node", "id": 8166627122, "lat": 11.0829298, "lon": 122.0515591}, {"type": "node", "id": 8166627123, "lat": 11.0830794, "lon": 122.05211}, {"type": "node", "id": 8166627124, "lat": 11.0819891, "lon": 122.0519408}, {"type": "node", "id": 8166627125, "lat": 11.0814712, "lon": 122.0520715}, {"type": "node", "id": 8166627126, "lat": 11.0811459, "lon": 122.0512496}, {"type": "node", "id": 8166627127, "lat": 11.0823649, "lon": 122.0499607}, {"type": "node", "id": 8166627128, "lat": 11.0828003, "lon": 122.050409}, {"type": "node", "id": 8166627129, "lat": 11.0834648, "lon": 122.0499093}, {"type": "node", "id": 8166627130, "lat": 11.0839185, "lon": 122.050451}, {"type": "node", "id": 8166627131, "lat": 11.0841935, "lon": 122.0510068}, {"type": "node", "id": 8166627132, "lat": 11.0841889, "lon": 122.0511982}, {"type": "node", "id": 8166660573, "lat": 11.1142545, "lon": 122.0519843}, {"type": "node", "id": 8166660574, "lat": 11.1140066, "lon": 122.0514667}, {"type": "node", "id": 8166660575, "lat": 11.1137769, "lon": 122.0512941}, {"type": "node", "id": 8166660576, "lat": 11.1129727, "lon": 122.0512633}, {"type": "node", "id": 8166660577, "lat": 11.1125917, "lon": 122.0511955}, {"type": "node", "id": 8166660578, "lat": 11.1121262, "lon": 122.051707}, {"type": "node", "id": 8166660579, "lat": 11.1124103, "lon": 122.0519904}, {"type": "node", "id": 8166660580, "lat": 11.1127694, "lon": 122.0521955}, {"type": "node", "id": 8166660581, "lat": 11.1132298, "lon": 122.0526629}, {"type": "node", "id": 8166660582, "lat": 11.1135592, "lon": 122.0523725}, {"type": "node", "id": 8166660583, "lat": 11.1137164, "lon": 122.0525389}, {"type": "node", "id": 8166660598, "lat": 11.1873443, "lon": 122.0346108}, {"type": "node", "id": 8166660599, "lat": 11.1873653, "lon": 122.0351955}, {"type": "node", "id": 8166660600, "lat": 11.1865707, "lon": 122.0358875}, {"type": "node", "id": 8166660601, "lat": 11.1866864, "lon": 122.0360646}, {"type": "node", "id": 8166660602, "lat": 11.1858076, "lon": 122.0366117}, {"type": "node", "id": 8166660603, "lat": 11.1855287, "lon": 122.0362523}, {"type": "node", "id": 8166660604, "lat": 11.1869285, "lon": 122.0349648}, {"type": "node", "id": 8166660605, "lat": 11.1869285, "lon": 122.0347074}, {"type": "node", "id": 8166660610, "lat": 11.197727, "lon": 122.0414965}, {"type": "node", "id": 8166660611, "lat": 11.1968174, "lon": 122.0439349}, {"type": "node", "id": 8166660612, "lat": 11.1954425, "lon": 122.0427989}, {"type": "node", "id": 8166660613, "lat": 11.1959703, "lon": 122.0421406}, {"type": "node", "id": 8166660614, "lat": 11.1962133, "lon": 122.042176}, {"type": "node", "id": 8166660615, "lat": 11.1972062, "lon": 122.0410647}, {"type": "node", "id": 8166661754, "lat": 11.2385329, "lon": 122.0737142}, {"type": "node", "id": 8166661755, "lat": 11.2385329, "lon": 122.0739175}, {"type": "node", "id": 8166661756, "lat": 11.2381661, "lon": 122.0739663}, {"type": "node", "id": 8166661757, "lat": 11.2379587, "lon": 122.0744297}, {"type": "node", "id": 8166661758, "lat": 11.2381262, "lon": 122.0751534}, {"type": "node", "id": 8166661759, "lat": 11.2384611, "lon": 122.0756087}, {"type": "node", "id": 8166661760, "lat": 11.2386127, "lon": 122.0752022}, {"type": "node", "id": 8166661761, "lat": 11.2389795, "lon": 122.0753079}, {"type": "node", "id": 8166661762, "lat": 11.2391231, "lon": 122.0758282}, {"type": "node", "id": 8166661763, "lat": 11.2389636, "lon": 122.0765519}, {"type": "node", "id": 8166661764, "lat": 11.2394022, "lon": 122.0767308}, {"type": "node", "id": 8166661765, "lat": 11.2400083, "lon": 122.0764706}, {"type": "node", "id": 8166661766, "lat": 11.2406463, "lon": 122.0766983}, {"type": "node", "id": 8166661767, "lat": 11.2410849, "lon": 122.076186}, {"type": "node", "id": 8166661768, "lat": 11.2406224, "lon": 122.0758445}, {"type": "node", "id": 8166661769, "lat": 11.2406303, "lon": 122.0756412}, {"type": "node", "id": 8166661770, "lat": 11.2398807, "lon": 122.0750152}, {"type": "node", "id": 8166661771, "lat": 11.2400641, "lon": 122.0744379}, {"type": "node", "id": 8166661772, "lat": 11.2395537, "lon": 122.0741045}, {"type": "node", "id": 8166661773, "lat": 11.2393065, "lon": 122.0742346}, {"type": "node", "id": 8166661774, "lat": 11.238836, "lon": 122.0737467}, {"type": "node", "id": 8189057512, "lat": 11.2883203, "lon": 122.050665, "tags": {"admin_level": "10", "is_in:town": "Tibiao", "name": "Amar", "place": "village", "place:PH": "barangay", "source:name": "extrapolated from OSMaPaaralan, way/880431306"}}, {"type": "node", "id": 8565413269, "lat": 11.0950756, "lon": 122.1056714, "tags": {"is_in:town": "Laua-an", "name": "Capnayan", "place": "hamlet", "source:name": "deped"}}, {"type": "node", "id": 8787754724, "lat": 11.1984506, "lon": 122.0618774, "tags": {"name": "Binangbang", "place": "village"}}, {"type": "node", "id": 8787760063, "lat": 11.1819913, "lon": 122.0581219, "tags": {"name": "Narirong", "place": "village"}}, {"type": "node", "id": 8787761238, "lat": 11.1312568, "lon": 122.1208038, "tags": {"admin_level": "10", "admin_type:PH": "barangay", "is_in:town": "Laua-an", "name": "Pandanan", "old_ref": "060609032", "place": "hamlet", "population": "363", "population:2015": "359", "ref": "0600609032", "source:population": "Philippine Statistics Authority"}}, {"type": "node", "id": 8787786717, "lat": 11.119412, "lon": 122.0622325, "tags": {"name": "Casit-an", "place": "village"}}, {"type": "node", "id": 8790808829, "lat": 11.077027, "lon": 122.193934, "tags": {"name": "San Agustin", "place": "village"}}, {"type": "node", "id": 8810387681, "lat": 11.4881523, "lon": 122.2696848, "tags": {"admin_level": "10", "admin_type:PH": "barangay", "is_in:town": "Madalag", "name": "Mamba", "old_ref": "060410012", "place": "village", "population": "851", "population:2015": "830", "ref": "0600410012", "source:population": "Philippine Statistics Authority"}}, {"type": "node", "id": 8810472711, "lat": 11.4223635, "lon": 122.2797466, "tags": {"admin_level": "10", "admin_type:PH": "barangay", "is_in:town": "Libacao", "name": "Batobato", "place": "village", "population": "460", "population:2015": "501", "ref": "060409003", "source:population": "Philippine Statistics Authority"}}, {"type": "node", "id": 8813248350, "lat": 11.5187112, "lon": 122.2682336, "tags": {"name": "San Jose", "place": "village"}}, {"type": "node", "id": 8813411063, "lat": 11.4098455, "lon": 122.2499574, "tags": {"admin_level": "10", "admin_type:PH": "barangay", "name": "Panipiason", "place": "village", "population": "1821", "population:2015": "1484", "ref": "060410019"}}, {"type": "node", "id": 9274260854, "lat": 11.1064641, "lon": 122.1695619, "tags": {"name": "Nawili", "place": "hamlet"}}, {"type": "node", "id": 9313468249, "lat": 11.4786, "lon": 122.2617602, "tags": {"admin_level": "10", "admin_type:PH": "barangay", "is_in:town": "Madalag", "name": "Dit-ana", "place": "village", "population": "476", "population:2015": "441", "ref": "060410008", "source:name": "extrapolated from OSMaPaaralan, way/1009416000", "source:population": "Philippine Statistics Authority"}}, {"type": "node", "id": 9313510064, "lat": 11.4665482, "lon": 122.2568612, "tags": {"admin_level": "10", "admin_type:PH": "barangay", "is_in:town": "Madalag", "name": "Medina", "old_ref": "060410014", "place": "village", "population": "906", "population:2015": "1105", "ref": "0600410014", "source:population": "Philippine Statistics Authority"}}, {"type": "node", "id": 9314359711, "lat": 11.4133009, "lon": 122.2475915, "tags": {"admin_level": "11", "admin_type:PH": "sitio", "is_in:town": "Madalag", "is_in:village": "Panipiason", "name": "Clucisia", "place": "neighbourhood"}}, {"type": "node", "id": 9712864323, "lat": 11.1955181, "lon": 122.0385951, "tags": {"admin_level": "10", "admin_type:PH": "barangay", "is_in:town": "Barbaza", "is_in:village": "Poblacion", "name": "Poblacion", "place": "neighbourhood", "source:name": "extrapolated from way:683296791"}}, {"type": "node", "id": 9712874754, "lat": 11.3284811, "lon": 122.0505269, "tags": {"admin_level": "10", "admin_type:PH": "barangay", "is_in:town": "Tibiao", "name": "San Francisco Norte", "old_ref": "060617014", "place": "village", "population": "1783", "population:2015": "1690", "ref": "0600617014", "source:name": "extrapolated from way:779005266"}}, {"type": "node", "id": 9719479012, "lat": 11.4545318, "lon": 122.0722286, "tags": {"admin_level": "10", "admin_type:PH": "barangay", "is_in:town": "Culasi", "name": "Bagacay", "old_ref": "060606002", "place": "village", "population": "1558", "population:2015": "1480", "ref": "0600606002", "source:name": "extrapolated from way:779796864", "source:population": "Philippine Statistics Authority"}}, {"type": "node", "id": 9719529643, "lat": 11.4687151, "lon": 122.0621864}, {"type": "node", "id": 9719529644, "lat": 11.4686927, "lon": 122.0620859}, {"type": "node", "id": 9719529645, "lat": 11.4680198, "lon": 122.0621395}, {"type": "node", "id": 9719529646, "lat": 11.4676636, "lon": 122.0619571}, {"type": "node", "id": 9719529647, "lat": 11.4673837, "lon": 122.0622736}, {"type": "node", "id": 9719529648, "lat": 11.4673035, "lon": 122.0629844}, {"type": "node", "id": 9719529649, "lat": 11.4652479, "lon": 122.0629697}, {"type": "node", "id": 9719529650, "lat": 11.4638468, "lon": 122.0627832}, {"type": "node", "id": 9719529651, "lat": 11.4638363, "lon": 122.0626692}, {"type": "node", "id": 9719529652, "lat": 11.462075, "lon": 122.0629898}, {"type": "node", "id": 9719529653, "lat": 11.4621184, "lon": 122.062047}, {"type": "node", "id": 9719529654, "lat": 11.4638455, "lon": 122.061768}, {"type": "node", "id": 9719529655, "lat": 11.4637968, "lon": 122.0609151}, {"type": "node", "id": 9719529656, "lat": 11.4653202, "lon": 122.0608199}, {"type": "node", "id": 9719529657, "lat": 11.4653044, "lon": 122.060549}, {"type": "node", "id": 9719529658, "lat": 11.466854, "lon": 122.0604712}, {"type": "node", "id": 9719529659, "lat": 11.4668422, "lon": 122.0602003}, {"type": "node", "id": 9719529660, "lat": 11.4674967, "lon": 122.0602539}, {"type": "node", "id": 9719529661, "lat": 11.4675782, "lon": 122.0607904}, {"type": "node", "id": 9719529662, "lat": 11.4681236, "lon": 122.0608118}, {"type": "node", "id": 9719529663, "lat": 11.468468, "lon": 122.0606536}, {"type": "node", "id": 9719529664, "lat": 11.4687309, "lon": 122.061363}, {"type": "node", "id": 9719529665, "lat": 11.4689175, "lon": 122.0613027}, {"type": "node", "id": 9719529666, "lat": 11.4690805, "lon": 122.0614582}, {"type": "node", "id": 9719529667, "lat": 11.4690752, "lon": 122.0621328}, {"type": "node", "id": 10092021524, "lat": 11.2150486, "lon": 122.0855927, "tags": {"admin_level": "10", "designation": "barangay", "name": "Mayos", "place": "village"}}, {"type": "node", "id": 10863481757, "lat": 11.3267469, "lon": 122.0562097}, {"type": "node", "id": 10863481758, "lat": 11.3268201, "lon": 122.0565739}, {"type": "node", "id": 10863481759, "lat": 11.3264721, "lon": 122.0568728}, {"type": "node", "id": 10863481760, "lat": 11.3257853, "lon": 122.0570783}, {"type": "node", "id": 10863481761, "lat": 11.3245489, "lon": 122.0569755}, {"type": "node", "id": 10863481762, "lat": 11.3242925, "lon": 122.0566486}, {"type": "node", "id": 10863481763, "lat": 11.3243383, "lon": 122.0558174}, {"type": "node", "id": 10863481764, "lat": 11.3242009, "lon": 122.0555465}, {"type": "node", "id": 10863481765, "lat": 11.3245123, "lon": 122.0549768}, {"type": "node", "id": 10863481766, "lat": 11.3247229, "lon": 122.0547993}, {"type": "node", "id": 10863481767, "lat": 11.3248969, "lon": 122.0550702}, {"type": "node", "id": 10863481768, "lat": 11.3254647, "lon": 122.0553037}, {"type": "node", "id": 10863481769, "lat": 11.3257395, "lon": 122.0551169}, {"type": "node", "id": 10863481770, "lat": 11.3256662, "lon": 122.0554064}, {"type": "node", "id": 10863481771, "lat": 11.3266095, "lon": 122.0560883}, {"type": "node", "id": 10863500562, "lat": 11.3004283, "lon": 122.0606908}, {"type": "node", "id": 10863500563, "lat": 11.3001705, "lon": 122.0612004}, {"type": "node", "id": 10863500564, "lat": 11.3002284, "lon": 122.0614525}, {"type": "node", "id": 10863500565, "lat": 11.2998812, "lon": 122.0618978}, {"type": "node", "id": 10863500566, "lat": 11.299313, "lon": 122.0614525}, {"type": "node", "id": 10863500567, "lat": 11.2989448, "lon": 122.0616832}, {"type": "node", "id": 10863500568, "lat": 11.2988291, "lon": 122.0616618}, {"type": "node", "id": 10863500569, "lat": 11.297898, "lon": 122.0606479}, {"type": "node", "id": 10863500570, "lat": 11.2976613, "lon": 122.0593711}, {"type": "node", "id": 10863500571, "lat": 11.2983504, "lon": 122.0593497}, {"type": "node", "id": 10863500572, "lat": 11.2986081, "lon": 122.0601597}, {"type": "node", "id": 10863500573, "lat": 11.2988659, "lon": 122.0604172}, {"type": "node", "id": 10863500574, "lat": 11.2993762, "lon": 122.0605513}, {"type": "node", "id": 10863500575, "lat": 11.299797, "lon": 122.060841}, {"type": "node", "id": 10863500576, "lat": 11.300039, "lon": 122.0604494}, {"type": "node", "id": 10863500577, "lat": 11.2073124, "lon": 122.0601882}, {"type": "node", "id": 10863500578, "lat": 11.2063962, "lon": 122.0613744}, {"type": "node", "id": 10863500579, "lat": 11.2057732, "lon": 122.0616312}, {"type": "node", "id": 10863500580, "lat": 11.2054159, "lon": 122.0613417}, {"type": "node", "id": 10863500581, "lat": 11.2052235, "lon": 122.0616405}, {"type": "node", "id": 10863500582, "lat": 11.2045501, "lon": 122.0611549}, {"type": "node", "id": 10863500583, "lat": 11.2050357, "lon": 122.0604637}, {"type": "node", "id": 10863500584, "lat": 11.2054159, "lon": 122.0607579}, {"type": "node", "id": 10863500585, "lat": 11.2062496, "lon": 122.0596231}, {"type": "node", "id": 10863500586, "lat": 11.2069139, "lon": 122.0596465}, {"type": "node", "id": 10863500653, "lat": 11.2002545, "lon": 122.054025}, {"type": "node", "id": 10863500654, "lat": 11.2005975, "lon": 122.0547974}, {"type": "node", "id": 10863500655, "lat": 11.1999837, "lon": 122.0550281}, {"type": "node", "id": 10863500656, "lat": 11.199574, "lon": 122.0554528}, {"type": "node", "id": 10863500657, "lat": 11.1993761, "lon": 122.0551272}, {"type": "node", "id": 10863500658, "lat": 11.1991678, "lon": 122.0549538}, {"type": "node", "id": 10863500659, "lat": 11.1987755, "lon": 122.054922}, {"type": "node", "id": 10863500660, "lat": 11.1983624, "lon": 122.0549857}, {"type": "node", "id": 10863500661, "lat": 11.1980013, "lon": 122.0545574}, {"type": "node", "id": 10863500662, "lat": 11.1979284, "lon": 122.0538354}, {"type": "node", "id": 10863500663, "lat": 11.1984353, "lon": 122.0531063}, {"type": "node", "id": 10863500664, "lat": 11.1990984, "lon": 122.0530922}, {"type": "node", "id": 10863500665, "lat": 11.2001364, "lon": 122.0541009}, {"type": "node", "id": 10863500670, "lat": 11.1115104, "lon": 122.0519065}, {"type": "node", "id": 10863500671, "lat": 11.1119781, "lon": 122.0514342}, {"type": "node", "id": 10863500672, "lat": 11.1123214, "lon": 122.0513732}, {"type": "node", "id": 10863500673, "lat": 11.1115793, "lon": 122.0515341}, {"type": "node", "id": 10863500674, "lat": 11.1117006, "lon": 122.0518492}, {"type": "node", "id": 10863500675, "lat": 11.1110475, "lon": 122.0532274}, {"type": "node", "id": 10863500676, "lat": 11.1106848, "lon": 122.0522958}, {"type": "node", "id": 10863500677, "lat": 11.1113655, "lon": 122.0532479}, {"type": "node", "id": 10863542756, "lat": 11.1972582, "lon": 122.0421244}, {"type": "node", "id": 10863542757, "lat": 11.1975533, "lon": 122.0429518}, {"type": "node", "id": 10930765149, "lat": 11.152983, "lon": 122.091392, "tags": {"admin_level": "10", "admin_type:PH": "barangay", "is_in:town": "Laua-an", "name": "Latazon", "old_ref": "060609017", "place": "village", "population": "429", "population:2015": "476", "ref": "0600609017", "source:population": "Philippine Statistics Authority"}}, {"type": "way", "id": 638150147, "nodes": [6014830784, 6014841385, 6014841386, 6014841387, 6014841388, 6014841389, 6014841390, 6014841391, 6014841392, 6014830784], "tags": {"name": "NHA Housing Project", "place": "hamlet"}}, {"type": "way", "id": 638150148, "nodes": [6014841393, 6014841394, 6014841395, 6014841396, 6014841397, 6014841398, 6014841399, 6014841400, 6014841401, 6014841402, 6014841393], "tags": {"name": "NHA Housing Project", "place": "hamlet"}}, {"type": "way", "id": 664582553, "nodes": [6220490742, 6220490743, 6220490744, 6220490745, 6220490746, 6220490747, 6220490748, 6220490749, 6220490750, 6220490751, 6220490752, 6220490753, 6220490754, 6220490755, 6220490756, 6220490757, 6220490758, 6220490759, 6220490760, 6220490761, 6220490762, 6220490763, 6220490764, 6220490765, 6220490766, 6220490767, 6220490768, 6220490769, 6220490770, 6220490771, 6220490772, 6220490773, 6220490774, 6220490775, 6220490776, 6220490777, 6220490778, 6220490742], "tags": {"name": "NHA Housing Project", "place": "hamlet"}}, {"type": "way", "id": 664582571, "nodes": [6220495239, 6220495240, 6220495241, 6220495242, 6220495243, 6220495244, 6220495245, 6220495246, 6220495247, 6220495248, 6220495249, 6220495250, 6220495251, 6220495239], "tags": {"name": "NHA Relocation Site", "place": "hamlet"}}, {"type": "way", "id": 877743096, "nodes": [8166627116, 8166627117, 8166627118, 8166627119, 8166627120, 8166627121, 8166627122, 8166627123, 8166627124, 8166627125, 8166627126, 8166627127, 8166627128, 8166627129, 8166627130, 8166627131, 8166627132, 8166627116], "tags": {"name": "NHA Housing Relocation Project", "place": "hamlet"}}, {"type": "way", "id": 877746340, "nodes": [8166660573, 8166660574, 8166660575, 8166660576, 8166660577, 10863500672, 10863500671, 10863500673, 10863500676, 10863500675, 10863500677, 10863500670, 10863500674, 8166660578, 8166660579, 8166660580, 8166660581, 8166660582, 8166660583, 8166660573], "tags": {"name": "NHA Housing Relocation Project", "place": "hamlet"}}, {"type": "way", "id": 877746345, "nodes": [8166660598, 8166660599, 8166660600, 8166660601, 8166660602, 8166660603, 8166660604, 8166660605, 8166660598], "tags": {"name": "NHA Housing Relocation Project", "place": "hamlet"}}, {"type": "way", "id": 877746347, "nodes": [8166660610, 10863542756, 10863542757, 8166660611, 8166660612, 8166660613, 8166660614, 8166660615, 8166660610], "tags": {"name": "NHA Housing Relocation Project", "place": "hamlet"}}, {"type": "way", "id": 877746355, "nodes": [8166661754, 8166661755, 8166661756, 8166661757, 8166661758, 8166661759, 8166661760, 8166661761, 8166661762, 8166661763, 8166661764, 8166661765, 8166661766, 8166661767, 8166661768, 8166661769, 8166661770, 8166661771, 8166661772, 8166661773, 8166661774, 8166661754], "tags": {"name": "NHA Housing Relocation Project", "place": "hamlet"}}, {"type": "way", "id": 1057775475, "nodes": [9719529667, 9719529666, 9719529665, 9719529664, 9719529663, 9719529662, 9719529661, 9719529660, 9719529659, 9719529658, 9719529657, 9719529656, 9719529655, 9719529654, 9719529653, 9719529652, 9719529651, 9719529650, 9719529649, 9719529648, 9719529647, 9719529646, 9719529645, 9719529644, 9719529643, 9719529667], "tags": {"name": "NHA Housing Project", "place": "hamlet"}}, {"type": "way", "id": 1168115266, "nodes": [10863481757, 10863481758, 10863481759, 10863481760, 10863481761, 10863481762, 10863481763, 10863481764, 10863481765, 10863481766, 10863481767, 10863481768, 10863481769, 10863481770, 10863481771, 10863481757], "tags": {"landuse": "residential", "name": "NHA Housing Project", "place": "hamlet"}}, {"type": "way", "id": 1168115286, "nodes": [10863500562, 10863500563, 10863500564, 10863500565, 10863500566, 10863500567, 10863500568, 10863500569, 10863500570, 10863500571, 10863500572, 10863500573, 10863500574, 10863500575, 10863500576, 10863500562], "tags": {"name": "NHA Housing Project", "place": "hamlet"}}, {"type": "way", "id": 1168115287, "nodes": [10863500577, 10863500578, 10863500579, 10863500580, 10863500581, 10863500582, 10863500583, 10863500584, 10863500585, 10863500586, 10863500577], "tags": {"name": "NHA Housing Project", "place": "hamlet"}}, {"type": "way", "id": 1168115313, "nodes": [10863500653, 10863500654, 10863500655, 10863500656, 10863500657, 10863500658, 10863500659, 10863500660, 10863500661, 10863500662, 10863500663, 10863500664, 10863500665, 10863500653], "tags": {"name": "NHA Housing Project", "place": "hamlet"}}]}