{"version": 0.6, "generator": "Overpass API 0.7.62.5 1bd436f1", "osm3s": {"timestamp_osm_base": "2025-05-24T18:03:28Z", "copyright": "The data included in this document is from www.openstreetmap.org. The data is made available under ODbL."}, "elements": [{"type": "node", "id": 198498291, "lat": 8.0773336, "lon": 125.2987545, "tags": {"admin_level": "6", "admin_subdivisions": "15 barangays", "admin_type:PH": "municipality", "ele": "460", "is_in:province": "Bukidnon", "name": "Cabanglasan", "official_name": "Municipality of Cabanglasan", "place": "town", "population": "33997", "population:date": "2015-08-01", "postal_code": "8723", "ref": "101322000", "related_law": "Republic Act No. 6489", "start_date": "1979-08-13", "wikidata": "Q356971", "wikimedia_commons": "Category:Cabanglasan", "wikipedia": "en:Cabanglasan"}}, {"type": "node", "id": 198503889, "lat": 8.1550421, "lon": 125.1305726, "tags": {"admin_level": "6", "admin_subdivisions": "46 barangays", "admin_type:PH": "component_city", "alt_name": "Malaybalay City", "capital": "4", "ele": "620", "is_in:province": "Bukidnon", "name": "Malaybalay", "name:en": "Malaybalay", "name:ja": "\u30de\u30e9\u30a4\u30d0\u30e9\u30a4", "name:ru": "\u041c\u0430\u043b\u0430\u0439\u0431\u0430\u043b\u0430\u0439", "name:uk": "\u041c\u0430\u043b\u0430\u0439\u0431\u0430\u043b\u0430\u0439", "name:zh": "\u9a6c\u6765\u5df4\u6765", "official_name": "City of Malaybalay", "place": "city", "population": "190712", "population:date": "2020-05-01", "postal_code": "8700", "wikidata": "Q1856", "wikimedia_commons": "Category:Malaybalay", "wikipedia": "en:Malaybalay"}}, {"type": "node", "id": 198504349, "lat": 7.9983082, "lon": 125.0228905, "tags": {"admin_level": "6", "admin_subdivisions": "14 barangays", "admin_type:PH": "municipality", "ele": "610", "is_in:province": "Bukidnon", "name": "Lantapan", "official_name": "Municipality of Lantapan", "place": "town", "population": "61776", "population:date": "2015-08-01", "postal_code": "8722", "wikidata": "Q357198", "wikimedia_commons": "Category:Lantapan", "wikipedia": "en:Lantapan"}}, {"type": "node", "id": 1029050335, "lat": 8.1393833, "lon": 125.1202818, "tags": {"name": "Kubayan 1", "place": "neighbourhood"}}, {"type": "node", "id": 1029050348, "lat": 8.1393665, "lon": 125.1151211, "tags": {"name": "NHA Phase 3", "place": "neighbourhood"}}, {"type": "node", "id": 1029050358, "lat": 8.140374, "lon": 125.1217856, "tags": {"name": "NHA Phase 1", "place": "neighbourhood"}}, {"type": "node", "id": 1029050378, "lat": 8.1385109, "lon": 125.1179048, "tags": {"name": "NHA Phase 2", "place": "neighbourhood"}}, {"type": "node", "id": 1029050396, "lat": 8.1376491, "lon": 125.1183165, "tags": {"name": "Pag-ibig", "place": "neighbourhood"}}, {"type": "node", "id": 1029050415, "lat": 8.1409084, "lon": 125.1196872, "tags": {"name": "PGP", "place": "neighbourhood"}}, {"type": "node", "id": 1029050426, "lat": 8.1428868, "lon": 125.123275, "tags": {"name": "Grema", "place": "neighbourhood"}}, {"type": "node", "id": 1242038523, "lat": 8.2017451, "lon": 125.2979406, "tags": {"admin_level": "10", "admin_type:PH": "barangay", "is_in:city": "Malaybalay", "name": "Zamboanguita", "place": "village", "postal_code": "8700"}}, {"type": "node", "id": 1242044207, "lat": 8.1585025, "lon": 125.2840176, "tags": {"admin_level": "10", "admin_type:PH": "barangay", "is_in:city": "Malaybalay", "name": "Silae", "place": "village", "postal_code": "8700"}}, {"type": "node", "id": 1327570896, "lat": 7.9942588, "lon": 125.1321876, "tags": {"admin_level": "10", "admin_type:PH": "barangay", "name": "Bangcud", "place": "village"}}, {"type": "node", "id": 1353252699, "lat": 8.1375954, "lon": 125.11634, "tags": {"name": "Kubayan 2", "place": "neighbourhood"}}, {"type": "node", "id": 1353281769, "lat": 8.141713, "lon": 125.1182484, "tags": {"name": "BLISS", "place": "neighbourhood"}}, {"type": "node", "id": 1353288470, "lat": 8.1616096, "lon": 125.1298061, "tags": {"alt_name": "Melendez Subdivision", "is_in:barangay": "Barangay 1", "is_in:city": "Malaybalay", "name": "Melendez", "place": "neighbourhood", "postal_code": "8700"}}, {"type": "node", "id": 1747316285, "lat": 8.1522795, "lon": 125.1346576}, {"type": "node", "id": 1747426639, "lat": 8.1272032, "lon": 125.1294952}, {"type": "node", "id": 1865195304, "lat": 8.134659, "lon": 125.1215934, "tags": {"name": "Green Fields", "place": "neighbourhood"}}, {"type": "node", "id": 1865199298, "lat": 8.1417987, "lon": 125.1243802, "tags": {"name": "Ofelia", "official_name": "Ofelia Subdivision", "place": "neighbourhood"}}, {"type": "node", "id": 1865199303, "lat": 8.1444221, "lon": 125.1190641, "tags": {"name": "Avinca", "official_name": "Avinca Subdivision", "place": "neighbourhood"}}, {"type": "node", "id": 1865201248, "lat": 8.140657, "lon": 125.1134636, "tags": {"name": "NHA Phase 4", "place": "neighbourhood"}}, {"type": "node", "id": 1865203709, "lat": 8.1540396, "lon": 125.1165972}, {"type": "node", "id": 1865209204, "lat": 8.1349516, "lon": 125.1327581, "tags": {"is_in:city": "Malaybalay", "name": "Salang Homes", "place": "neighbourhood", "postal_code": "8700"}}, {"type": "node", "id": 1865209208, "lat": 8.1338954, "lon": 125.1354335, "tags": {"is_in:barangay": "Casisang", "is_in:city": "Malaybalay", "name": "Gawad Kalinga", "place": "neighbourhood", "postal_code": "8700"}}, {"type": "node", "id": 1889856667, "lat": 8.1191489, "lon": 125.124353}, {"type": "node", "id": 1889856672, "lat": 8.1189471, "lon": 125.1243744}, {"type": "node", "id": 1889856678, "lat": 8.1206093, "lon": 125.1242832}, {"type": "node", "id": 1889856685, "lat": 8.1209439, "lon": 125.1254258}, {"type": "node", "id": 1889856688, "lat": 8.1208058, "lon": 125.1251952}, {"type": "node", "id": 1889856691, "lat": 8.1191755, "lon": 125.125222}, {"type": "node", "id": 1889856694, "lat": 8.1208855, "lon": 125.1252113}, {"type": "node", "id": 1889856697, "lat": 8.1190958, "lon": 125.1241438}, {"type": "node", "id": 1910937657, "lat": 8.1524554, "lon": 125.1346119}, {"type": "node", "id": 1911312729, "lat": 8.1240877, "lon": 125.1248627}, {"type": "node", "id": 1911312730, "lat": 8.1254091, "lon": 125.1245191}, {"type": "node", "id": 1911312731, "lat": 8.1258385, "lon": 125.1280476}, {"type": "node", "id": 1911312732, "lat": 8.1244854, "lon": 125.1279121}, {"type": "node", "id": 1911313508, "lat": 8.1256864, "lon": 125.1300871}, {"type": "node", "id": 1911313509, "lat": 8.1241408, "lon": 125.1312678}, {"type": "node", "id": 1911313515, "lat": 8.1256174, "lon": 125.1294105}, {"type": "node", "id": 1911313518, "lat": 8.1270775, "lon": 125.1285695}, {"type": "node", "id": 1911313519, "lat": 8.1243266, "lon": 125.1284622}, {"type": "node", "id": 1924417600, "lat": 8.154803, "lon": 125.1166069}, {"type": "node", "id": 1924417615, "lat": 8.155344, "lon": 125.1145107}, {"type": "node", "id": 1924417617, "lat": 8.1559651, "lon": 125.1151194}, {"type": "node", "id": 1924417619, "lat": 8.1537361, "lon": 125.1157361}, {"type": "node", "id": 1924417621, "lat": 8.152638, "lon": 125.1161309}, {"type": "node", "id": 1924417626, "lat": 8.1531207, "lon": 125.1157966}, {"type": "node", "id": 1924417632, "lat": 8.1527792, "lon": 125.1159161}, {"type": "node", "id": 1924417635, "lat": 8.1551793, "lon": 125.1169614}, {"type": "node", "id": 1924417638, "lat": 8.1543085, "lon": 125.115586}, {"type": "node", "id": 1931524347, "lat": 8.152674, "lon": 125.1354359}, {"type": "node", "id": 1931524353, "lat": 8.1539716, "lon": 125.1359802}, {"type": "node", "id": 1934923106, "lat": 8.2242121, "lon": 125.2836145, "tags": {"admin_level": "10", "admin_type:PH": "barangay", "is_in:city": "Malaybalay", "name": "Saint Peter", "place": "village", "postal_code": "8700"}}, {"type": "node", "id": 1942190065, "lat": 8.2706645, "lon": 125.01652, "tags": {"admin_level": "10", "admin_type:PH": "barangay", "alt_name": "Kapitan Bayong", "is_in:municipality": "Impasugong", "name": "Capitan Bayong", "place": "village", "postal_code": "8702"}}, {"type": "node", "id": 1942193932, "lat": 8.2566088, "lon": 125.0284347, "tags": {"admin_level": "10", "admin_type:PH": "barangay", "is_in:municipality": "Impasugong", "name": "Impalutao", "place": "village", "postal_code": "8702"}}, {"type": "node", "id": 1942194186, "lat": 8.2003489, "lon": 125.0432598, "tags": {"admin_level": "10", "admin_type:PH": "barangay", "name": "Dalwangan", "place": "village", "postal_code": "8700"}}, {"type": "node", "id": 1942194526, "lat": 8.1961873, "lon": 125.0637508, "tags": {"admin_level": "10", "admin_type:PH": "barangay", "name": "Patpat", "place": "village"}}, {"type": "node", "id": 1942194565, "lat": 8.1730579, "lon": 125.1011408, "tags": {"admin_level": "10", "admin_type:PH": "barangay", "name": "Kalasungay", "place": "village"}}, {"type": "node", "id": 1942194793, "lat": 8.1036483, "lon": 125.1285611, "tags": {"admin_level": "10", "admin_type:PH": "barangay", "is_in:city": "Malaybalay", "name": "San Jose", "old_ref": "101312059", "place": "village", "population": "9213", "population:date": "2020-05-01", "postal_code": "8700", "ref": "1001312059"}}, {"type": "node", "id": 1942194812, "lat": 8.0868365, "lon": 125.1322437, "tags": {"admin_level": "10", "admin_type:PH": "barangay", "is_in:city": "Malaybalay", "name": "Laguitas", "place": "village", "postal_code": "8700"}}, {"type": "node", "id": 1942195081, "lat": 8.0531919, "lon": 125.1353945, "tags": {"admin_level": "10", "admin_type:PH": "barangay", "is_in:city": "Malaybalay", "name": "Aglayan", "official_name": "Barangay Aglayan", "place": "village", "postal_code": "8700"}}, {"type": "node", "id": 1943726406, "lat": 8.0553301, "lon": 125.1543692, "tags": {"admin_level": "10", "admin_type:PH": "barangay", "is_in:city": "Malaybalay", "name": "Linabo", "place": "village", "postal_code": "8700"}}, {"type": "node", "id": 1943726860, "lat": 8.0221635, "lon": 125.1394924, "tags": {"admin_level": "10", "admin_type:PH": "barangay", "gns_classification": "ADM3", "is_in:city": "Malaybalay", "name": "Cabangahan", "old_ref": "101312004", "place": "village", "population": "3162", "population:2015": "3015", "ref": "1001312004", "source:population": "Philippine Statistics Authority"}}, {"type": "node", "id": 1973559656, "lat": 8.1790895, "lon": 125.0941416}, {"type": "node", "id": 1973559658, "lat": 8.1805297, "lon": 125.0924993}, {"type": "node", "id": 1973559660, "lat": 8.1817669, "lon": 125.0927729}, {"type": "node", "id": 1973559663, "lat": 8.1811882, "lon": 125.0928266}, {"type": "node", "id": 1973559664, "lat": 8.1807408, "lon": 125.0945011}, {"type": "node", "id": 1973559665, "lat": 8.1825037, "lon": 125.092527}, {"type": "node", "id": 1973559666, "lat": 8.1832895, "lon": 125.0935516}, {"type": "node", "id": 1973559667, "lat": 8.1795036, "lon": 125.0942543}, {"type": "node", "id": 1973559668, "lat": 8.1796696, "lon": 125.0929231}, {"type": "node", "id": 1973559669, "lat": 8.1774009, "lon": 125.0938037}, {"type": "node", "id": 1973559670, "lat": 8.1790032, "lon": 125.0931699}, {"type": "node", "id": 1973559682, "lat": 8.1774009, "lon": 125.0937688}, {"type": "node", "id": 1973559686, "lat": 8.1816289, "lon": 125.0946934}, {"type": "node", "id": 1973559688, "lat": 8.1783766, "lon": 125.0933925}, {"type": "node", "id": 2414177311, "lat": 8.1265625, "lon": 125.1312176, "tags": {"alt_name": "Big Apple Subdivision", "is_in:barangay": "Casisang", "is_in:city": "Malaybalay", "name": "Big Apple", "place": "neighbourhood", "postal_code": "8700"}}, {"type": "node", "id": 2630733617, "lat": 8.1540192, "lon": 125.1356787}, {"type": "node", "id": 2630733619, "lat": 8.1536343, "lon": 125.1342909}, {"type": "node", "id": 2630733621, "lat": 8.1520353, "lon": 125.1342388}, {"type": "node", "id": 2630733623, "lat": 8.1513808, "lon": 125.1344733}, {"type": "node", "id": 2630733625, "lat": 8.1512132, "lon": 125.1348771}, {"type": "node", "id": 2630733627, "lat": 8.1514195, "lon": 125.1349976}, {"type": "node", "id": 2630733629, "lat": 8.1514389, "lon": 125.1351702}, {"type": "node", "id": 2630733631, "lat": 8.1516033, "lon": 125.1354243}, {"type": "node", "id": 2630733633, "lat": 8.1518644, "lon": 125.1356164}, {"type": "node", "id": 2630733635, "lat": 8.1523738, "lon": 125.1352484}, {"type": "node", "id": 2630733637, "lat": 8.1526349, "lon": 125.1352973}, {"type": "node", "id": 2630733639, "lat": 8.1525994, "lon": 125.1354145}, {"type": "node", "id": 2630736337, "lat": 8.1530991, "lon": 125.1355578}, {"type": "node", "id": 2630736338, "lat": 8.1532184, "lon": 125.1356718}, {"type": "node", "id": 2630736339, "lat": 8.1532571, "lon": 125.1358216}, {"type": "node", "id": 2630736340, "lat": 8.1532861, "lon": 125.136118}, {"type": "node", "id": 2870351948, "lat": 7.9598515, "lon": 125.1136599}, {"type": "node", "id": 2870351949, "lat": 7.9600438, "lon": 125.1132747}, {"type": "node", "id": 2870351952, "lat": 7.9603612, "lon": 125.1125961}, {"type": "node", "id": 2870351953, "lat": 7.9610568, "lon": 125.1141972}, {"type": "node", "id": 2870351955, "lat": 7.961185, "lon": 125.1140742}, {"type": "node", "id": 2870351957, "lat": 7.9613614, "lon": 125.1138217}, {"type": "node", "id": 2870351961, "lat": 7.9616607, "lon": 125.1132054}, {"type": "node", "id": 2870351962, "lat": 7.9617268, "lon": 125.1136113}, {"type": "node", "id": 3798887260, "lat": 7.9557243, "lon": 125.3385034, "tags": {"name": "Nacabuklad", "place": "village"}}, {"type": "node", "id": 3798892119, "lat": 7.9666263, "lon": 125.3228119, "tags": {"admin_level": "11", "admin_type:PH": "sitio", "is_in:barangay": "Tugop", "is_in:municipality": "San Fernando", "name": "Alimpulos", "place": "hamlet", "postal_code": "8711"}}, {"type": "node", "id": 3798892272, "lat": 7.9718179, "lon": 125.32392, "tags": {"admin_level": "10", "admin_type:PH": "barangay", "is_in:municipality": "San Fernando", "name": "Tugop", "old_name": "San Alfonso", "place": "village", "postal_code": "8711"}}, {"type": "node", "id": 3799000579, "lat": 7.9959797, "lon": 125.3296897, "tags": {"admin_level": "11", "admin_type:PH": "sitio", "alt_name": "Luan-luan", "is_in:barangay": "Paradise", "is_in:municipality": "Cabanglasan", "name": "Luanluan", "place": "hamlet", "postal_code": "8723"}}, {"type": "node", "id": 3799001211, "lat": 7.9720399, "lon": 125.3382806, "tags": {"admin_level": "11", "admin_type:PH": "sitio", "is_in:municipality": "San Fernando", "name": "Palayang Bayan", "place": "hamlet", "postal_code": "8711"}}, {"type": "node", "id": 3799001212, "lat": 7.9795942, "lon": 125.3419349, "tags": {"admin_level": "11", "admin_type:PH": "sitio", "name": "Supon", "place": "hamlet"}}, {"type": "node", "id": 3806244657, "lat": 7.9862756, "lon": 125.3269233, "tags": {"admin_level": "11", "admin_type:PH": "sitio", "name": "Bugka", "place": "hamlet"}}, {"type": "node", "id": 4001998405, "lat": 7.9582066, "lon": 125.2791189, "tags": {"admin_level": "10", "admin_type:PH": "barangay", "is_in:municipality": "San Fernando", "name": "Malayanan", "old_ref": "101318031", "place": "village", "population": "1126", "population:date": "2020-05-01", "postal_code": "8711"}}, {"type": "node", "id": 4356855201, "lat": 7.9652922, "lon": 125.3218699, "tags": {"admin_level": "11", "admin_type:PH": "purok", "name": "Purok 3", "place": "neighbourhood"}}, {"type": "node", "id": 4393093224, "lat": 7.9927229, "lon": 125.1984871, "tags": {"admin_level": "10", "admin_type:PH": "barangay", "is_in:city": "Malaybalay", "name": "Sinanglanan", "place": "village", "postal_code": "8700"}}, {"type": "node", "id": 4393095605, "lat": 7.9766444, "lon": 125.2077301, "tags": {"admin_level": "10", "admin_type:PH": "barangay", "is_in:city": "Malaybalay", "name": "Apo Macote", "place": "village", "postal_code": "8700"}}, {"type": "node", "id": 4393096465, "lat": 8.0005059, "lon": 125.1944912, "tags": {"admin_level": "10", "admin_type:PH": "barangay", "is_in:city": "Malaybalay", "name": "San Martin", "place": "village", "postal_code": "8700"}}, {"type": "node", "id": 5162905922, "lat": 8.0958547, "lon": 125.0980972, "tags": {"admin_level": "10", "admin_type:PH": "barangay", "is_in:city": "Malaybalay", "name": "Magsaysay", "place": "village", "postal_code": "8700"}}, {"type": "node", "id": 5269583031, "lat": 7.9813807, "lon": 125.310337, "tags": {"admin_level": "11", "admin_type:PH": "purok", "name": "Purok 9", "place": "neighbourhood"}}, {"type": "node", "id": 5269583617, "lat": 7.965775, "lon": 125.3075131, "tags": {"admin_level": "11", "admin_type:PH": "purok", "is_in:barangay": "Lower Jaasan", "name": "Purok 4", "place": "neighbourhood"}}, {"type": "node", "id": 5315992847, "lat": 7.9545926, "lon": 125.2804946, "tags": {"admin_level": "11", "admin_type:PH": "purok", "name": "Purok 2B", "place": "neighbourhood"}}, {"type": "node", "id": 5444929429, "lat": 8.136386, "lon": 125.1164591, "tags": {"name": "Dumalahay", "place": "neighbourhood"}}, {"type": "node", "id": 5471297980, "lat": 7.9961668, "lon": 125.2981372, "tags": {"admin_level": "11", "admin_type:PH": "sitio", "is_in:barangay": "Paradise", "name": "Bawa", "place": "hamlet"}}, {"type": "node", "id": 5471413898, "lat": 8.2395023, "lon": 125.2648432, "tags": {"admin_level": "10", "admin_type:PH": "barangay", "is_in:city": "Malaybalay", "name": "Kulaman", "place": "village", "postal_code": "8700"}}, {"type": "node", "id": 5471470654, "lat": 8.285136, "lon": 125.2771373, "tags": {"admin_level": "11", "admin_type:PH": "sitio", "alt_name": "Sitio Bendum", "ele": "740", "is_in:barangay": "Busdi", "is_in:city": "Malaybalay", "name": "Bendum", "place": "hamlet", "postal_code": "8700"}}, {"type": "node", "id": 5471483621, "lat": 8.330961, "lon": 125.2324569, "tags": {"admin_level": "10", "admin_type:PH": "barangay", "alt_name": "Bolonay", "is_in:municipality": "Impasugong", "name": "Bulonay", "place": "village", "postal_code": "8702"}}, {"type": "node", "id": 5471518387, "lat": 8.1866796, "lon": 125.3177214, "tags": {"admin_level": "11", "admin_type:PH": "sitio", "is_in:city": "Malaybalay", "name": "Lupoklupok", "place": "hamlet", "postal_code": "8700"}}, {"type": "node", "id": 5472507276, "lat": 8.1882095, "lon": 125.2975014, "tags": {"admin_level": "10", "admin_type:PH": "barangay", "is_in:city": "Malaybalay", "name": "Mapulo", "place": "village", "postal_code": "8700"}}, {"type": "node", "id": 5472595814, "lat": 7.9825802, "lon": 125.2880424, "tags": {"admin_level": "10", "admin_type:PH": "barangay", "is_in:municipality": "Cabanglasan", "name": "Jasaan", "place": "village", "postal_code": "8723"}}, {"type": "node", "id": 5472645942, "lat": 8.0978384, "lon": 125.3425278, "tags": {"admin_level": "11", "admin_type:PH": "sitio", "is_in:barangay": "Canangaan", "is_in:municipality": "Cabanglasan", "name": "San Vicente", "place": "hamlet", "postal_code": "8723"}}, {"type": "node", "id": 5602134974, "lat": 7.9643404, "lon": 125.1567818, "tags": {"admin_level": "10", "admin_type:PH": "barangay", "alt_name": "Nabag-o", "is_in:city": "Valencia", "name": "Nabago", "place": "village", "postal_code": "8709"}}, {"type": "node", "id": 5924600728, "lat": 8.1037477, "lon": 125.0387156, "tags": {"admin_level": "11", "admin_type:PH": "sitio", "is_in:barangay": "Imbayao", "name": "Sinaburan", "place": "hamlet"}}, {"type": "node", "id": 6013958587, "lat": 7.9971115, "lon": 125.2562219, "tags": {"admin_level": "11", "admin_type:PH": "sitio", "is_in:barangay": "Sinanglanan", "name": "Santa Rita", "place": "hamlet"}}, {"type": "node", "id": 6013970586, "lat": 8.2251115, "lon": 125.1835838, "tags": {"admin_level": "11", "admin_type:PH": "sitio", "is_in:barangay": "Kibalabag", "name": "Baganao", "place": "hamlet"}}, {"type": "node", "id": 6013970590, "lat": 8.3746434, "lon": 125.2179345, "tags": {"admin_level": "11", "admin_type:PH": "sitio", "is_in:barangay": "Bolonay", "is_in:municipality": "Impasugong", "name": "Magawa", "place": "hamlet", "postal_code": "8702"}}, {"type": "node", "id": 6018604986, "lat": 8.0409946, "lon": 125.2053995, "tags": {"admin_level": "10", "admin_type:PH": "barangay", "is_in:city": "Malaybalay", "name": "Maligaya", "place": "village", "postal_code": "8700"}}, {"type": "node", "id": 6018604987, "lat": 8.0268166, "lon": 125.1903237, "tags": {"admin_level": "10", "admin_type:PH": "barangay", "is_in:city": "Malaybalay", "name": "Managok", "place": "village", "postal_code": "8700"}}, {"type": "node", "id": 6018604988, "lat": 8.0746267, "lon": 125.0468953, "tags": {"is_in:municipality": "Lantapan", "name": "Capitan Juan", "place": "village", "postal_code": "8722"}}, {"type": "node", "id": 6036137599, "lat": 8.2972432, "lon": 125.1099896, "tags": {"admin_level": "10", "admin_type:PH": "barangay", "is_in:municipality": "Impasugong", "name": "Bontongon", "place": "village", "postal_code": "8702"}}, {"type": "node", "id": 6089939546, "lat": 8.1873107, "lon": 125.3061686, "tags": {"admin_level": "10", "admin_type:PH": "barangay", "is_in:city": "Malaybalay", "name": "Indalasa", "place": "village", "postal_code": "8700"}}, {"type": "node", "id": 6142101385, "lat": 7.9664965, "lon": 125.0466913, "tags": {"admin_level": "10", "admin_type:PH": "barangay", "is_in:city": "Valencia", "name": "Lurugan", "place": "village", "postal_code": "8709"}}, {"type": "node", "id": 6283757656, "lat": 7.972899, "lon": 125.2330899, "tags": {"admin_level": "11", "admin_type:PH": "sitio", "is_in:barangay": "Apo Macote", "name": "Dapulan", "place": "hamlet"}}, {"type": "node", "id": 6283757657, "lat": 7.9921088, "lon": 125.2126193, "tags": {"admin_level": "11", "admin_type:PH": "purok", "alt_name": "Purok 4", "is_in:barangay": "Sinanglanan", "name": "Malapgap", "place": "hamlet"}}, {"type": "node", "id": 6283757660, "lat": 8.0354101, "lon": 125.2784923, "tags": {"alt_name": "Sitio Valderrama", "is_in:barangay": "Imbatug", "is_in:municipality": "Cabanglasan", "name": "Valderrama", "place": "village", "postal_code": "8723"}}, {"type": "node", "id": 6283757663, "lat": 8.0681102, "lon": 125.2673202, "tags": {"admin_level": "11", "admin_type:PH": "sitio", "is_in:barangay": "Lambagan", "is_in:municipality": "Cabanglasan", "name": "Punuon", "place": "hamlet", "postal_code": "8723"}}, {"type": "node", "id": 6283757666, "lat": 8.0270836, "lon": 125.2016973, "tags": {"place": "village"}}, {"type": "node", "id": 6283757667, "lat": 8.0721681, "lon": 125.1963651, "tags": {"admin_level": "11", "admin_type:PH": "sitio", "is_in:barangay": "Linabo", "is_in:city": "Malaybalay", "name": "Paiwaig", "place": "hamlet", "postal_code": "8700"}}, {"type": "node", "id": 6283757668, "lat": 8.059134, "lon": 125.2278757, "tags": {"admin_level": "11", "admin_type:PH": "sitio", "is_in:barangay": "Miglamin", "is_in:city": "Malaybalay", "name": "Matangpatang", "place": "hamlet", "postal_code": "8700"}}, {"type": "node", "id": 6397533176, "lat": 8.1348624, "lon": 125.1269136, "tags": {"admin_level": "10", "admin_type:PH": "barangay", "ele": "590", "is_in:city": "Malaybalay", "name": "Casisang", "place": "suburb", "population": "29406", "population:date": "2020-05-01", "postal_code": "8700", "start_date": "1961-02-07", "wikidata": "Q31536476", "wikipedia": "en:Casisang"}}, {"type": "node", "id": 6397533177, "lat": 8.1246719, "lon": 125.1495767, "tags": {"admin_level": "11", "admin_type:PH": "sitio", "is_in:barangay": "Caisang", "name": "Kibarok", "place": "hamlet"}}, {"type": "node", "id": 6445634717, "lat": 8.022271, "lon": 125.0960612, "tags": {"name": "Kulasihan", "place": "village"}}, {"type": "node", "id": 6445634718, "lat": 8.0144199, "lon": 125.073756, "tags": {"is_in:municipality": "Lantapan", "name": "Bantuanon", "place": "village", "postal_code": "8722"}}, {"type": "node", "id": 6446603508, "lat": 8.0269348, "lon": 125.1584816, "tags": {"admin_level": "10", "admin_type:PH": "barangay", "is_in:city": "Malaybalay", "name": "Violeta", "place": "village", "postal_code": "8700"}}, {"type": "node", "id": 6446603509, "lat": 8.0032007, "lon": 125.1553059, "tags": {"admin_level": "10", "admin_type:PH": "barangay", "is_in:city": "Malaybalay", "name": "Simaya", "place": "village", "postal_code": "8700"}}, {"type": "node", "id": 6446604759, "lat": 8.065733, "lon": 125.3471886, "tags": {"admin_level": "10", "admin_type:PH": "barangay", "alt_name": "Kanangaan", "is_in:municipality": "Cabanglasan", "name": "Canangaan", "place": "village", "postal_code": "8723"}}, {"type": "node", "id": 6446604770, "lat": 8.2141662, "lon": 125.2771425, "tags": {"admin_level": "10", "admin_type:PH": "barangay", "is_in:city": "Malaybalay", "name": "Caburacanan", "place": "village", "postal_code": "8700"}}, {"type": "node", "id": 6502723932, "lat": 8.0906934, "lon": 125.2534103, "tags": {"admin_level": "11", "admin_type:PH": "sitio", "is_in:barangay": "Capinonan", "is_in:municipality": "Cabanglasan", "name": "Tumaguan", "place": "hamlet", "postal_code": "8723"}}, {"type": "node", "id": 6502724313, "lat": 8.1117352, "lon": 125.2572029, "tags": {"alt_name": "Sitio Omalao", "is_in:barangay": "Freedom", "is_in:municipality": "Cabanglasan", "name": "Omalao", "place": "hamlet", "postal_code": "8723"}}, {"type": "node", "id": 6502724315, "lat": 8.1471359, "lon": 125.0223136, "tags": {"admin_level": "10", "admin_type:PH": "barangay", "is_in:city": "Malaybalay", "name": "Capitan Anghel", "place": "village", "postal_code": "8700"}}, {"type": "node", "id": 6502724357, "lat": 8.1098339, "lon": 125.3238129, "tags": {"admin_level": "11", "admin_type:PH": "sitio", "is_in:municipality": "Cabanglasan", "name": "Bulak", "place": "hamlet", "postal_code": "8723"}}, {"type": "node", "id": 6502724358, "lat": 8.1194807, "lon": 125.3195939, "tags": {"admin_level": "11", "admin_type:PH": "sitio", "is_in:barangay": "Iba", "is_in:municipality": "Cabanglasan", "name": "Crossing Mainaga", "place": "hamlet", "postal_code": "8723"}}, {"type": "node", "id": 6502724359, "lat": 8.1273165, "lon": 125.311861, "tags": {"admin_level": "11", "admin_type:PH": "sitio", "is_in:municipality": "Cabanglasan", "name": "Tagiptip", "place": "hamlet", "postal_code": "8723"}}, {"type": "node", "id": 6502724360, "lat": 8.1383517, "lon": 125.3116786, "tags": {"place": "hamlet"}}, {"type": "node", "id": 6502724361, "lat": 8.1132327, "lon": 125.2967147, "tags": {"is_in:barangay": "Poblacion", "is_in:municipality": "Cabanglasan", "name": "Buso", "place": "hamlet", "postal_code": "8723"}}, {"type": "node", "id": 6502724364, "lat": 8.1439913, "lon": 125.2153122, "tags": {"admin_level": "11", "admin_type:PH": "sitio", "name": "Tag-ilanao", "place": "hamlet"}}, {"type": "node", "id": 6502724372, "lat": 8.1617804, "lon": 125.23, "tags": {"admin_level": "11", "admin_type:PH": "sitio", "alt_name": "Kilap-Agan", "is_in:barangay": "Can-Ayan", "name": "Kilapagan", "place": "hamlet"}}, {"type": "node", "id": 6511749097, "lat": 8.2821962, "lon": 125.2529812, "tags": {"admin_level": "10", "admin_type:PH": "barangay", "is_in:city": "Malaybalay", "name": "Busdi", "old_ref": "101312003", "place": "village", "population": "2644", "population:date": "2020-05-01", "postal_code": "8700", "ref": "1001312003", "wikidata": "Q31520193", "wikipedia": "en:Busdi"}}, {"type": "node", "id": 6511749112, "lat": 8.3621924, "lon": 125.0307726, "tags": {"admin_level": "11", "admin_type:PH": "sitio", "is_in:barangay": "Dumalaguing", "is_in:municipality": "Impasugong", "name": "Kalipayan", "place": "hamlet", "postal_code": "8702"}}, {"type": "node", "id": 6511751548, "lat": 8.0475105, "lon": 125.3690529, "tags": {"admin_level": "11", "admin_type:PH": "sitio", "ele": "660", "is_in:barangay": "Mandahican", "is_in:municipality": "Cabanglasan", "name": "Miaray", "place": "hamlet", "postal_code": "8723"}}, {"type": "node", "id": 6517060024, "lat": 8.0576601, "lon": 125.3329969, "tags": {"admin_level": "10", "admin_type:PH": "barangay", "alt_name": "Mandahican", "is_in:municipality": "Cabanglasan", "name": "Mandahikan", "official_name": "Barangay Mandahikan", "place": "village", "postal_code": "8723"}}, {"type": "node", "id": 6517060217, "lat": 8.0739633, "lon": 125.3448522, "tags": {"admin_level": "11", "admin_type:PH": "sitio", "is_in:barangay": "Canangaan", "name": "Malinao", "place": "hamlet"}}, {"type": "node", "id": 6517060218, "lat": 8.0761728, "lon": 125.3359687, "tags": {"name": "Limao", "place": "hamlet"}}, {"type": "node", "id": 6517060381, "lat": 8.0567758, "lon": 125.3495031, "tags": {"place": "hamlet"}}, {"type": "node", "id": 6517060383, "lat": 8.0146217, "lon": 125.3044366, "tags": {"admin_level": "11", "admin_type:PH": "sitio", "is_in:barangay": "Paradise", "is_in:municipality": "Cabanglasan", "name": "Crossing Paradise", "place": "hamlet", "postal_code": "8723"}}, {"type": "node", "id": 6517060384, "lat": 8.0368041, "lon": 125.3135937, "tags": {"admin_level": "11", "admin_type:PH": "sitio", "is_in:barangay": "Paradise", "is_in:municipality": "Cabanglasan", "name": "Pangian", "place": "hamlet", "postal_code": "8723"}}, {"type": "node", "id": 6517060385, "lat": 8.0530916, "lon": 125.3061505, "tags": {"admin_level": "10", "admin_type:PH": "barangay", "alt_name": "Anlugan", "is_in:municipality": "Cabanglasan", "name": "Anlogan", "official_name": "Barangay Anlogan", "place": "village", "postal_code": "8723"}}, {"type": "node", "id": 6517060386, "lat": 8.0166668, "lon": 125.3136876, "tags": {"admin_level": "10", "admin_type:PH": "barangay", "is_in:municipality": "Cabanglasan", "name": "Paradise", "place": "village", "postal_code": "8723"}}, {"type": "node", "id": 6534843236, "lat": 8.1778569, "lon": 125.0936008}, {"type": "node", "id": 6538484458, "lat": 8.1163607, "lon": 125.1114732, "tags": {"admin_level": "11", "admin_type:PH": "sitio", "is_in:barangay": "Casisang", "is_in:city": "Malaybalay", "name": "Santa Ana", "place": "hamlet", "postal_code": "8700"}}, {"type": "node", "id": 6564994731, "lat": 8.10226, "lon": 125.1259162}, {"type": "node", "id": 6564994732, "lat": 8.1020934, "lon": 125.1259189}, {"type": "node", "id": 6564994733, "lat": 8.1020703, "lon": 125.1252925}, {"type": "node", "id": 6564994750, "lat": 8.1024255, "lon": 125.1285107}, {"type": "node", "id": 6627284785, "lat": 8.2454924, "lon": 125.1765602, "tags": {"admin_level": "10", "admin_type:PH": "barangay", "is_in:city": "Malaybalay", "name": "Kibalabag", "place": "village", "postal_code": "8700"}}, {"type": "node", "id": 6662992567, "lat": 8.2708027, "lon": 125.0229442, "tags": {"alt_name": "Crossing Patulangan", "name": "Patulangan", "place": "hamlet"}}, {"type": "node", "id": 6662992675, "lat": 8.2651225, "lon": 125.0292098, "tags": {"admin_level": "11", "admin_type:PH": "sitio", "is_in:barangay": "Impalutao", "name": "Amalyaw", "place": "hamlet"}}, {"type": "node", "id": 6709917225, "lat": 8.1174813, "lon": 125.0328147, "tags": {"admin_level": "10", "admin_type:PH": "barangay", "name": "Imbayao", "place": "village"}}, {"type": "node", "id": 6757377386, "lat": 8.1572745, "lon": 125.3270629, "tags": {"admin_level": "11", "admin_type:PH": "sitio", "alt_name": "Nalumosan", "is_in:city": "Malaybalay", "name": "Nalumusan", "place": "hamlet", "postal_code": "8700"}}, {"type": "node", "id": 6925711373, "lat": 8.1252669, "lon": 125.2519505, "tags": {"admin_level": "10", "admin_type:PH": "barangay", "is_in:municipality": "Cabanglasan", "name": "Freedom", "place": "village", "postal_code": "8723"}}, {"type": "node", "id": 6925711374, "lat": 8.1337663, "lon": 125.2723156, "tags": {"admin_level": "10", "admin_type:PH": "barangay", "is_in:municipality": "Cabanglasan", "name": "Dalacutan", "place": "village", "postal_code": "8723"}}, {"type": "node", "id": 6925711375, "lat": 8.1031496, "lon": 125.2768617, "tags": {"admin_level": "10", "admin_type:PH": "barangay", "is_in:municipality": "Cabanglasan", "name": "Mauswagon", "place": "village", "postal_code": "8723"}}, {"type": "node", "id": 6925711376, "lat": 8.0798587, "lon": 125.2598584, "tags": {"admin_level": "10", "admin_type:PH": "barangay", "is_in:municipality": "Cabanglasan", "name": "Capinonan", "place": "village", "postal_code": "8723"}}, {"type": "node", "id": 6925711377, "lat": 8.0511251, "lon": 125.2611679, "tags": {"admin_level": "10", "admin_type:PH": "barangay", "is_in:municipality": "Cabanglasan", "name": "Lambagan", "place": "village", "postal_code": "8723"}}, {"type": "node", "id": 6925771761, "lat": 8.1296425, "lon": 125.301218, "tags": {"alt_name": "Tingkaan", "is_in:barangay": "Poblacion", "is_in:municipality": "Cabanglasan", "name": "Tingcaan", "place": "hamlet", "postal_code": "8723"}}, {"type": "node", "id": 6925771983, "lat": 8.1257499, "lon": 125.3299284, "tags": {"alt_name": "Sitio Mainaga", "is_in:barangay": "Iba", "is_in:municipality": "Cabanglasan", "name": "Mainaga", "place": "hamlet", "postal_code": "8723"}}, {"type": "node", "id": 6925771986, "lat": 8.1032697, "lon": 125.3345579, "tags": {"is_in:barangay": "Iba", "is_in:municipality": "Cabanglasan", "name": "Maraguing", "place": "hamlet", "postal_code": "8723"}}, {"type": "node", "id": 6925771988, "lat": 8.0880378, "lon": 125.3463542, "tags": {"admin_level": "11", "admin_type:PH": "sitio", "is_in:barangay": "Canangaan", "is_in:municipality": "Cabanglasan", "name": "Upper Benangcasan", "place": "hamlet", "postal_code": "8723"}}, {"type": "node", "id": 6925772088, "lat": 8.0505825, "lon": 125.3333187, "tags": {"place": "hamlet"}}, {"type": "node", "id": 6925772089, "lat": 8.0527284, "lon": 125.3825319, "tags": {"admin_level": "11", "admin_type:PH": "sitio", "alt_name": "Kalakapan", "ele": "810", "is_in:barangay": "Canangaan", "is_in:municipality": "Cabanglasan", "name": "Calakapan", "place": "hamlet", "postal_code": "8723"}}, {"type": "node", "id": 6925772566, "lat": 8.0394034, "lon": 125.2427868, "tags": {"admin_level": "10", "admin_type:PH": "barangay", "is_in:city": "Malaybalay", "name": "Miglamin", "place": "village", "postal_code": "8700"}}, {"type": "node", "id": 6925772579, "lat": 8.047202, "lon": 125.2520903, "tags": {"admin_level": "10", "admin_type:PH": "barangay", "is_in:municipality": "Cabanglasan", "name": "Imbatug", "place": "village", "postal_code": "8723"}}, {"type": "node", "id": 6925772580, "lat": 8.0177306, "lon": 125.2924043, "tags": {"admin_level": "10", "admin_type:PH": "barangay", "alt_name": "Cabuluhan", "is_in:municipality": "Cabanglasan", "name": "Cabulohan", "place": "village", "postal_code": "8723"}}, {"type": "node", "id": 6925772806, "lat": 8.0180228, "lon": 125.3312172, "tags": {"admin_level": "11", "admin_type:PH": "sitio", "alt_name": "Comaliwat", "ele": "420", "is_in:barangay": "Paradise", "is_in:municipality": "Cabanglasan", "name": "Kumaliwat", "place": "hamlet", "postal_code": "8723"}}, {"type": "node", "id": 6925772807, "lat": 8.0808147, "lon": 125.3419983, "tags": {"place": "hamlet"}}, {"type": "node", "id": 6925772834, "lat": 8.0904337, "lon": 125.3242454, "tags": {"admin_level": "10", "admin_type:PH": "barangay", "is_in:municipality": "Cabanglasan", "name": "Iba", "place": "village", "postal_code": "8723"}}, {"type": "node", "id": 6925772835, "lat": 8.0716688, "lon": 125.3124189, "tags": {"admin_level": "11", "admin_type:PH": "sitio", "fixme": "confirm location", "is_in:municipality": "Cabanglasan", "name": "Crossing Dagao", "place": "hamlet", "postal_code": "8723"}}, {"type": "node", "id": 6925772837, "lat": 8.059049, "lon": 125.2886277, "tags": {"admin_level": "10", "admin_type:PH": "barangay", "is_in:municipality": "Cabanglasan", "name": "Mandaing", "place": "village", "postal_code": "8723"}}, {"type": "node", "id": 6928862214, "lat": 8.1708632, "lon": 125.3041255, "tags": {"admin_level": "11", "admin_type:PH": "sitio", "is_in:municipality": "Cabanglasan", "name": "Minlantao", "place": "hamlet", "postal_code": "8723"}}, {"type": "node", "id": 6928862215, "lat": 7.9945816, "lon": 125.2426949, "tags": {"admin_level": "11", "admin_type:PH": "sitio", "is_in:barangay": "Sinanglanan", "is_in:city": "Malaybalay", "name": "San Roque", "place": "hamlet", "postal_code": "8700"}}, {"type": "node", "id": 6928862216, "lat": 8.014882, "lon": 125.2736986, "tags": {"admin_level": "11", "admin_type:PH": "sitio", "is_in:city": "Malaybalay", "name": "Maranhog", "place": "hamlet", "postal_code": "8700"}}, {"type": "node", "id": 6928862217, "lat": 8.0210917, "lon": 125.2730763, "tags": {"admin_level": "11", "admin_type:PH": "sitio", "alt_name": "Lunukan", "is_in:barangay": "Miglamin", "is_in:city": "Malaybalay", "name": "Lunocan", "place": "hamlet", "postal_code": "8700"}}, {"type": "node", "id": 6928862218, "lat": 8.0389501, "lon": 125.2561247, "tags": {"admin_level": "11", "admin_type:PH": "sitio", "is_in:barangay": "Miglamin", "is_in:city": "Malaybalay", "name": "Alimpulos", "place": "hamlet", "postal_code": "8700"}}, {"type": "node", "id": 6928862224, "lat": 8.0447716, "lon": 125.3147256, "tags": {"admin_level": "11", "admin_type:PH": "sitio", "is_in:municipality": "Cabanglasan", "name": "Perino", "place": "hamlet", "postal_code": "8723"}}, {"type": "node", "id": 6928862257, "lat": 8.1300952, "lon": 125.3466966, "tags": {"admin_level": "11", "admin_type:PH": "sitio", "is_in:barangay": "Canangaan", "is_in:municipality": "Cabanglasan", "name": "Tagbacan", "place": "hamlet", "postal_code": "8723"}}, {"type": "node", "id": 6928862258, "lat": 8.2152494, "lon": 125.2937293, "tags": {"is_in:city": "Malaybalay", "name": "Min-agdaw", "place": "hamlet", "postal_code": "8700"}}, {"type": "node", "id": 6928862260, "lat": 8.1869707, "lon": 125.277974, "tags": {"is_in:city": "Malaybalay", "name": "Upper Mapulo", "place": "hamlet", "postal_code": "8700"}}, {"type": "node", "id": 6928862263, "lat": 8.2141238, "lon": 125.3123224, "tags": {"admin_level": "11", "admin_type:PH": "sitio", "is_in:city": "Malaybalay", "name": "Malilong", "place": "hamlet", "postal_code": "8700"}}, {"type": "node", "id": 6928862264, "lat": 8.2254273, "lon": 125.2387118, "tags": {"admin_level": "11", "admin_type:PH": "sitio", "is_in:city": "Malaybalay", "name": "Lagaslasan", "place": "hamlet", "postal_code": "8700"}}, {"type": "node", "id": 6928862265, "lat": 8.2414822, "lon": 125.309726, "tags": {"admin_level": "11", "admin_type:PH": "sitio", "is_in:barangay": "Saint Peter", "is_in:city": "Malaybalay", "name": "Mahayag", "place": "hamlet", "postal_code": "8700"}}, {"type": "node", "id": 6928862266, "lat": 8.2519036, "lon": 125.2783871, "tags": {"admin_level": "11", "admin_type:PH": "sitio", "is_in:city": "Malaybalay", "name": "Pinuwakan", "place": "hamlet", "postal_code": "8700"}}, {"type": "node", "id": 6928862267, "lat": 8.262054, "lon": 125.2609849, "tags": {"admin_level": "11", "admin_type:PH": "sitio", "is_in:city": "Malaybalay", "name": "Tubigon", "place": "hamlet", "postal_code": "8700"}}, {"type": "node", "id": 6928867427, "lat": 8.3236412, "lon": 125.2374673, "tags": {"admin_level": "11", "admin_type:PH": "sitio", "is_in:barangay": "Busdi", "is_in:city": "Malaybalay", "name": "Nahigit", "place": "hamlet", "postal_code": "8700"}}, {"type": "node", "id": 6928867429, "lat": 8.3014854, "lon": 125.2357775, "tags": {"admin_level": "11", "admin_type:PH": "sitio", "name": "Mahawan", "place": "hamlet"}}, {"type": "node", "id": 6928867430, "lat": 8.3039696, "lon": 125.2430463, "tags": {"admin_level": "11", "admin_type:PH": "sitio", "name": "Nabawang", "place": "hamlet"}}, {"type": "node", "id": 6928867431, "lat": 8.2995001, "lon": 125.2558619, "tags": {"admin_level": "11", "admin_type:PH": "sitio", "name": "Nabag-o", "place": "hamlet"}}, {"type": "node", "id": 6928867494, "lat": 8.357276, "lon": 125.2508408, "tags": {"admin_level": "11", "admin_type:PH": "sitio", "is_in:barangay": "Bolonay", "is_in:municipality": "Impasugong", "name": "Mahan-aw", "place": "hamlet", "postal_code": "8702"}}, {"type": "node", "id": 6928867713, "lat": 8.2441101, "lon": 125.369904, "tags": {"is_in:barangay": "Zamboanguita", "is_in:city": "Malaybalay", "name": "Kinuaw", "place": "hamlet", "postal_code": "8700"}}, {"type": "node", "id": 6928867714, "lat": 8.2676919, "lon": 125.3815126, "tags": {"alt_name": "Sitio Balaudo", "is_in:barangay": "Saint Peter", "is_in:city": "Malaybalay", "name": "Balaudo", "place": "hamlet", "postal_code": "8700"}}, {"type": "node", "id": 6928867715, "lat": 8.3528549, "lon": 125.3643787, "tags": {"place": "hamlet"}}, {"type": "node", "id": 6928867716, "lat": 8.3839663, "lon": 125.3568792, "tags": {"place": "hamlet"}}, {"type": "node", "id": 6928868282, "lat": 8.3533007, "lon": 125.4493189, "tags": {"place": "hamlet"}}, {"type": "node", "id": 6928870259, "lat": 8.0362411, "lon": 125.4311979, "tags": {"place": "hamlet"}}, {"type": "node", "id": 6928870261, "lat": 8.0712758, "lon": 125.4276037, "tags": {"place": "hamlet"}}, {"type": "node", "id": 6928870262, "lat": 8.0921539, "lon": 125.4509121, "tags": {"place": "hamlet"}}, {"type": "node", "id": 6933877085, "lat": 8.0503653, "lon": 125.1621366, "tags": {"is_in:barangay": "Linabo", "is_in:city": "Malaybalay", "is_in:purok": "Purok 2", "name": "Flores Village", "place": "neighbourhood", "postal_code": "8700"}}, {"type": "node", "id": 6936090255, "lat": 8.1200952, "lon": 125.3625716, "tags": {"admin_level": "11", "admin_type:PH": "sitio", "alt_name": "Saluringan", "is_in:barangay": "Canangaan", "is_in:municipality": "Cabanglasan", "name": "Saluringan", "place": "hamlet", "postal_code": "8723"}}, {"type": "node", "id": 6936091099, "lat": 8.0314605, "lon": 125.2861762, "tags": {"admin_level": "11", "admin_type:PH": "sitio", "is_in:barangay": "Cabulohan", "is_in:municipality": "Cabanglasan", "name": "Crossing Cabulohan", "place": "hamlet", "postal_code": "8723"}}, {"type": "node", "id": 6936091992, "lat": 8.3671212, "lon": 125.4322493, "tags": {"place": "hamlet"}}, {"type": "node", "id": 6936100108, "lat": 8.1632407, "lon": 125.3066683, "tags": {"is_in:city": "Malaybalay", "name": "Lower Silae", "place": "hamlet", "postal_code": "8700"}}, {"type": "node", "id": 6936100789, "lat": 8.1867212, "lon": 125.1549625, "tags": {"admin_level": "10", "admin_type:PH": "barangay", "alt_name": "Canayan", "is_in:city": "Malaybalay", "name": "Can-ayan", "nat_name": "Barangay Canayan", "official_name": "Barangay Can-ayan", "old_ref": "101312009", "place": "village", "population": "6553", "population:date": "2020-05-01", "postal_code": "8700"}}, {"type": "node", "id": 6936100940, "lat": 8.3232644, "lon": 125.15154, "tags": {"fixme": "fix location", "is_in:barangay": "Manalog", "is_in:city": "Malaybalay", "name": "Kugonkugon", "place": "hamlet", "postal_code": "8700"}}, {"type": "node", "id": 6960292818, "lat": 7.9790642, "lon": 125.1817953, "tags": {"admin_level": "10", "admin_type:PH": "barangay", "is_in:city": "Malaybalay", "name": "Santo Ni\u00f1o", "place": "village", "postal_code": "8700"}}, {"type": "node", "id": 6960293076, "lat": 7.9652807, "lon": 125.19158, "tags": {"admin_level": "10", "admin_type:PH": "barangay", "is_in:city": "Valencia", "name": "San Isidro", "place": "village", "postal_code": "8709"}}, {"type": "node", "id": 6960293080, "lat": 7.9714752, "lon": 125.1381719, "tags": {"admin_level": "10", "admin_type:PH": "barangay", "is_in:city": "Valencia", "name": "Mailag", "place": "village", "postal_code": "8709"}}, {"type": "node", "id": 6964938764, "lat": 8.3450691, "lon": 125.0560805, "tags": {"admin_level": "10", "admin_type:PH": "barangay", "is_in:municipality": "Impasugong", "name": "Dumalaguing", "place": "village", "postal_code": "8702"}}, {"type": "node", "id": 6964938766, "lat": 8.3624614, "lon": 125.0428784, "tags": {"admin_level": "11", "admin_type:PH": "sitio", "is_in:barangay": "Dumalaguing", "is_in:municipality": "Impasugong", "name": "Gabunan", "place": "hamlet", "postal_code": "8702"}}, {"type": "node", "id": 6964938767, "lat": 8.355362, "lon": 125.0824061, "tags": {"alt_name": "Sitio Bundaan", "ele": "1090", "is_in:barangay": "Dumalaguing", "is_in:municipality": "Impasugong", "name": "Bundaan", "place": "hamlet", "postal_code": "8702"}}, {"type": "node", "id": 6975002093, "lat": 8.3381793, "lon": 125.013814, "tags": {"alt_name": "Sitio Pinaanan", "is_in:barangay": "Dumalaguing", "is_in:municipality": "Impasugong", "name": "Pinaanan", "place": "hamlet", "postal_code": "8702"}}, {"type": "node", "id": 6975002304, "lat": 8.2272059, "lon": 125.082972, "tags": {"place": "hamlet"}}, {"type": "node", "id": 6975002305, "lat": 8.2434518, "lon": 125.0601089, "tags": {"admin_level": "11", "admin_type:PH": "sitio", "is_in:barangay": "Impalutao", "is_in:municipality": "Impasugong", "name": "Kibuwa", "place": "hamlet", "postal_code": "8702"}}, {"type": "node", "id": 6975002306, "lat": 8.3265499, "lon": 125.0680643, "tags": {"is_in:barangay": "Dumalaguing", "is_in:municipality": "Impasugong", "name": "Batiaw", "place": "hamlet", "postal_code": "8702"}}, {"type": "node", "id": 6975002939, "lat": 8.3213907, "lon": 125.1075464, "tags": {"admin_level": "11", "admin_type:PH": "sitio", "is_in:barangay": "Bontongon", "is_in:municipality": "Impasugong", "name": "Kamaka", "place": "hamlet", "postal_code": "8702"}}, {"type": "node", "id": 7029908177, "lat": 7.960353, "lon": 125.0734715, "tags": {"admin_level": "10", "admin_type:PH": "barangay", "is_in:city": "Valencia", "name": "San Carlos", "place": "village", "postal_code": "8709"}}, {"type": "node", "id": 7029908180, "lat": 7.9852877, "lon": 125.1362675, "tags": {"admin_level": "10", "admin_type:PH": "barangay", "is_in:city": "Valencia", "name": "Colonia", "place": "village", "postal_code": "8709"}}, {"type": "node", "id": 7029981819, "lat": 7.9600056, "lon": 125.0263011, "tags": {"admin_level": "11", "admin_type:PH": "sitio", "name": "Kilangi", "place": "hamlet"}}, {"type": "node", "id": 7039599795, "lat": 7.9611475, "lon": 125.2128553, "tags": {"place": "hamlet"}}, {"type": "node", "id": 7055540852, "lat": 8.0482773, "lon": 125.0077951, "tags": {"name": "Kaatuan", "place": "village"}}, {"type": "node", "id": 7055540853, "lat": 8.0680465, "lon": 125.0282764, "tags": {"place": "hamlet"}}, {"type": "node", "id": 7055540854, "lat": 8.0863117, "lon": 125.019232, "tags": {"name": "Block 2", "place": "hamlet"}}, {"type": "node", "id": 7311194077, "lat": 8.2281883, "lon": 125.1914815, "tags": {"admin_level": "11", "admin_type:PH": "purok", "alt_name": "Purok 4;Purok Lamana;Sitio Lamana", "is_in:barangay": "Kibalabag", "is_in:city": "Malaybalay", "name": "Lamana", "official_name": "Purok 4 Lamana", "place": "hamlet", "postal_code": "8700"}}, {"type": "node", "id": 7311194078, "lat": 8.210635, "lon": 125.1788471, "tags": {"admin_level": "11", "admin_type:PH": "sitio", "is_in:barangay": "Kibalabag", "name": "Kalib", "place": "hamlet"}}, {"type": "node", "id": 7311796227, "lat": 8.2944475, "lon": 125.1545195, "tags": {"admin_level": "10", "admin_type:PH": "barangay", "is_in:city": "Malaybalay", "name": "Manalog", "place": "village", "postal_code": "8700"}}, {"type": "node", "id": 7311815097, "lat": 8.2210866, "lon": 125.2577256, "tags": {"admin_level": "11", "admin_type:PH": "sitio", "is_in:barangay": "Caburacanan", "is_in:city": "Malaybalay", "name": "Sambukan", "place": "hamlet", "postal_code": "8700"}}, {"type": "node", "id": 7311815100, "lat": 8.1880081, "lon": 125.2958341, "tags": {"admin_level": "11", "admin_type:PH": "sitio", "is_in:barangay": "Mapulo", "is_in:city": "Malaybalay", "name": "Tuburan", "place": "hamlet", "postal_code": "8700"}}, {"type": "node", "id": 7311815101, "lat": 8.1944791, "lon": 125.323088, "tags": {"admin_level": "11", "admin_type:PH": "sitio", "is_in:barangay": "Indalasa", "is_in:city": "Malaybalay", "name": "Mindagulus", "place": "hamlet", "postal_code": "8700"}}, {"type": "node", "id": 7311815115, "lat": 8.1476307, "lon": 125.3077366, "tags": {"admin_level": "11", "admin_type:PH": "sitio", "is_in:barangay": "Silae", "is_in:city": "Malaybalay", "name": "Kibalabag", "place": "hamlet", "postal_code": "8700"}}, {"type": "node", "id": 7311815116, "lat": 8.1670124, "lon": 125.1511033, "tags": {"admin_level": "11", "admin_type:PH": "sitio", "is_in:barangay": "Can-ayan", "is_in:city": "Malaybalay", "name": "Tigbawan", "place": "hamlet", "postal_code": "8700"}}, {"type": "node", "id": 7311815117, "lat": 8.1878484, "lon": 125.1759406, "tags": {"admin_level": "11", "admin_type:PH": "sitio", "is_in:barangay": "Can-ayan", "is_in:city": "Malaybalay", "name": "Tagalolo", "place": "hamlet", "postal_code": "8700"}}, {"type": "node", "id": 7311815118, "lat": 8.1660566, "lon": 125.1838692, "tags": {"admin_level": "11", "admin_type:PH": "sitio", "is_in:barangay": "Can-ayan", "is_in:city": "Malaybalay", "name": "Incalbog", "place": "hamlet", "postal_code": "8700"}}, {"type": "node", "id": 7311815119, "lat": 8.1330671, "lon": 125.1876549, "tags": {"admin_level": "11", "admin_type:PH": "sitio", "is_in:barangay": "Can-ayan", "is_in:city": "Malaybalay", "name": "Candiisan", "place": "hamlet", "postal_code": "8700"}}, {"type": "node", "id": 7311815120, "lat": 8.168162, "lon": 125.2002002, "tags": {"admin_level": "11", "admin_type:PH": "sitio", "is_in:barangay": "Can-ayan", "is_in:city": "Malaybalay", "name": "Tintinaan", "place": "hamlet", "postal_code": "8700"}}, {"type": "node", "id": 7311815121, "lat": 8.1769645, "lon": 125.2117342, "tags": {"admin_level": "11", "admin_type:PH": "sitio", "is_in:barangay": "Can-ayan", "is_in:city": "Malaybalay", "name": "Kiito", "place": "hamlet", "postal_code": "8700"}}, {"type": "node", "id": 7311815122, "lat": 8.1609379, "lon": 125.2113259, "tags": {"admin_level": "11", "admin_type:PH": "sitio", "is_in:barangay": "Can-ayan", "is_in:city": "Malaybalay", "name": "Taguican", "place": "hamlet", "postal_code": "8700"}}, {"type": "node", "id": 7314248685, "lat": 8.1028318, "lon": 125.1595664, "tags": {"admin_level": "11", "admin_type:PH": "sitio", "is_in:barangay": "San Jose", "is_in:city": "Malaybalay", "name": "Mabuhay", "place": "hamlet", "postal_code": "8700"}}, {"type": "node", "id": 7314248686, "lat": 8.0832448, "lon": 125.1860452, "tags": {"admin_level": "11", "admin_type:PH": "sitio", "is_in:barangay": "San Jose", "is_in:city": "Malaybalay", "name": "Panamucan", "place": "hamlet", "postal_code": "8700"}}, {"type": "node", "id": 7314248687, "lat": 8.0686496, "lon": 125.1758743, "tags": {"admin_level": "11", "admin_type:PH": "sitio", "is_in:barangay": "Linabo", "is_in:city": "Malaybalay", "name": "Lalawan", "place": "hamlet", "postal_code": "8700"}}, {"type": "node", "id": 7314248688, "lat": 8.0615315, "lon": 125.192169, "tags": {"admin_level": "11", "admin_type:PH": "sitio", "is_in:barangay": "Maligaya", "is_in:city": "Malaybalay", "name": "Bagong Silang", "place": "hamlet", "postal_code": "8700"}}, {"type": "node", "id": 7314248689, "lat": 8.0495761, "lon": 125.1986809, "tags": {"admin_level": "11", "admin_type:PH": "sitio", "alt_name": "Sitio Dumayas", "is_in:barangay": "Maligaya", "is_in:city": "Malaybalay", "name": "Dumayas", "place": "hamlet", "postal_code": "8700"}}, {"type": "node", "id": 7314248690, "lat": 8.0317024, "lon": 125.2135969, "tags": {"admin_level": "11", "admin_type:PH": "purok", "alt_name": "Purok 5", "is_in:barangay": "Managok", "is_in:city": "Malaybalay", "name": "Langasihan", "place": "hamlet", "postal_code": "8700"}}, {"type": "node", "id": 7314248691, "lat": 8.0743034, "lon": 125.224768, "tags": {"admin_level": "11", "admin_type:PH": "sitio", "is_in:barangay": "Miglamin", "is_in:city": "Malaybalay", "name": "Dungis", "place": "hamlet", "postal_code": "8700"}}, {"type": "node", "id": 7314248692, "lat": 7.953855, "lon": 125.2337101, "tags": {"admin_level": "11", "admin_type:PH": "sitio", "is_in:barangay": "Apo Macote", "is_in:city": "Malaybalay", "name": "Calawag", "place": "hamlet", "postal_code": "8700"}}, {"type": "node", "id": 7314248693, "lat": 7.9866884, "lon": 125.1562563, "tags": {"admin_level": "11", "admin_type:PH": "sitio", "is_in:barangay": "Simaya", "is_in:city": "Malaybalay", "name": "Purais", "place": "hamlet", "postal_code": "8700"}}, {"type": "node", "id": 7314248694, "lat": 8.0113177, "lon": 125.1680647, "tags": {"admin_level": "11", "admin_type:PH": "sitio", "is_in:barangay": "Simaya", "is_in:city": "Malaybalay", "name": "Binalbagan", "place": "hamlet", "postal_code": "8700"}}, {"type": "node", "id": 7314248695, "lat": 8.0903316, "lon": 125.0790522, "tags": {"admin_level": "11", "admin_type:PH": "sitio", "is_in:barangay": "Magsaysay", "is_in:city": "Malaybalay", "name": "Bendolan", "place": "hamlet", "postal_code": "8700"}}, {"type": "node", "id": 7314248696, "lat": 8.1668844, "lon": 125.0555803, "tags": {"admin_level": "11", "admin_type:PH": "sitio", "is_in:barangay": "Kalasungay", "is_in:city": "Malaybalay", "name": "Karangkarang", "place": "hamlet", "postal_code": "8700"}}, {"type": "node", "id": 7314248697, "lat": 8.220991, "lon": 125.0359155, "tags": {"admin_level": "11", "admin_type:PH": "sitio", "is_in:barangay": "Dalwangan", "is_in:city": "Malaybalay", "name": "New Ilocos", "place": "hamlet", "postal_code": "8700"}}, {"type": "node", "id": 7317870119, "lat": 8.1361831, "lon": 125.1340167, "tags": {"admin_level": "11", "admin_type:PH": "sitio", "is_in:barangay": "Casisang", "is_in:city": "Malaybalay", "name": "Natid-asan", "place": "hamlet", "postal_code": "8700"}}, {"type": "node", "id": 7732916529, "lat": 8.001384, "lon": 125.01302, "tags": {"admin_level": "11", "admin_type:PH": "purok", "is_in:barangay": "Balila", "is_in:municipality": "Lantapan", "name": "Purok 1", "place": "neighbourhood", "postal_code": "8722"}}, {"type": "node", "id": 7732916557, "lat": 8.0024251, "lon": 125.0102252, "tags": {"name": "Balila", "place": "village"}}, {"type": "node", "id": 7732971124, "lat": 8.0117934, "lon": 125.0036511, "tags": {"admin_level": "10", "admin_type:PH": "barangay", "is_in:municipality": "Lantapan", "name": "Baclayon", "place": "village", "postal_code": "8722"}}, {"type": "node", "id": 7732998578, "lat": 7.9983348, "lon": 125.0341558, "tags": {"admin_level": "11", "admin_type:PH": "purok", "is_in:barangay": "Poblacion", "is_in:municipality": "Lantapan", "name": "Purok 3", "place": "neighbourhood", "postal_code": "8722"}}, {"type": "node", "id": 7733074691, "lat": 8.00404, "lon": 125.0490367, "tags": {"is_in:municipality": "Lantapan", "name": "Babahagon", "place": "hamlet", "postal_code": "8722"}}, {"type": "node", "id": 7733075548, "lat": 8.0174743, "lon": 125.0962731, "tags": {"admin_level": "11", "admin_type:PH": "purok", "is_in:barangay": "Kulasihan", "is_in:municipality": "Lantapan", "name": "Purok 1", "place": "neighbourhood", "postal_code": "8722"}}, {"type": "node", "id": 7733079944, "lat": 8.0143243, "lon": 125.0767118, "tags": {"admin_level": "11", "admin_type:PH": "purok", "name": "Purok 6", "place": "neighbourhood"}}, {"type": "node", "id": 7733101338, "lat": 8.0565527, "lon": 125.0762129, "tags": {"is_in:barangay": "Bugcaon", "is_in:municipality": "Lantapan", "name": "Sobsob", "place": "hamlet", "postal_code": "8722"}}, {"type": "node", "id": 7733190349, "lat": 8.0437146, "lon": 125.1153892, "tags": {"admin_level": "11", "admin_type:PH": "purok", "is_in:barangay": "Bugcaon", "is_in:municipality": "Lantapan", "name": "Purok 1", "place": "neighbourhood", "postal_code": "8722"}}, {"type": "node", "id": 7733206458, "lat": 8.0459986, "lon": 125.1115483, "tags": {"is_in:barangay": "Bugcaon", "is_in:municipality": "Lantapan", "name": "Zone 2", "place": "neighbourhood", "postal_code": "8722"}}, {"type": "node", "id": 7733239589, "lat": 8.0546029, "lon": 125.1364475, "tags": {"admin_level": "11", "admin_type:PH": "purok", "is_in:barangay": "Aglayan", "is_in:city": "Malaybalay", "name": "Purok 1", "place": "neighbourhood", "postal_code": "8700"}}, {"type": "node", "id": 7733250773, "lat": 8.0536798, "lon": 125.1535723, "tags": {"admin_level": "11", "admin_type:PH": "purok", "is_in:barangay": "Linabo", "is_in:city": "Malaybalay", "name": "Purok 1", "place": "neighbourhood", "postal_code": "8700"}}, {"type": "node", "id": 7733305893, "lat": 8.0866145, "lon": 125.1310372, "tags": {"admin_level": "11", "admin_type:PH": "purok", "is_in:barangay": "Laguitas", "is_in:city": "Malaybalay", "name": "Purok 5", "place": "neighbourhood", "postal_code": "8700"}}, {"type": "node", "id": 7978152692, "lat": 8.068806, "lon": 125.3281528, "tags": {"place": "hamlet"}}, {"type": "node", "id": 7978152693, "lat": 8.0786159, "lon": 125.3233248, "tags": {"place": "hamlet"}}, {"type": "node", "id": 7978152694, "lat": 8.085446, "lon": 125.3293973, "tags": {"place": "hamlet"}}, {"type": "node", "id": 7978152695, "lat": 8.1024093, "lon": 125.3375566, "tags": {"place": "hamlet"}}, {"type": "node", "id": 7978152696, "lat": 8.0953458, "lon": 125.3368592, "tags": {"place": "hamlet"}}, {"type": "node", "id": 7978152697, "lat": 8.0804536, "lon": 125.3549105, "tags": {"place": "hamlet"}}, {"type": "node", "id": 7978152698, "lat": 8.0158116, "lon": 125.3299713, "tags": {"place": "hamlet"}}, {"type": "node", "id": 7978152699, "lat": 7.9899838, "lon": 125.3203261, "tags": {"place": "hamlet"}}, {"type": "node", "id": 7978152700, "lat": 7.9864458, "lon": 125.3247142, "tags": {"admin_level": "11", "admin_type:PH": "purok", "name": "Purok 7", "place": "neighbourhood"}}, {"type": "node", "id": 7978152701, "lat": 7.9747053, "lon": 125.3204334, "tags": {"admin_level": "11", "admin_type:PH": "purok", "name": "Purok 2", "place": "neighbourhood"}}, {"type": "node", "id": 7978152702, "lat": 7.9886982, "lon": 125.3121078, "tags": {"place": "hamlet"}}, {"type": "node", "id": 7978152703, "lat": 7.9902468, "lon": 125.3030366, "tags": {"place": "hamlet"}}, {"type": "node", "id": 7978152704, "lat": 7.9952005, "lon": 125.3067541, "tags": {"place": "hamlet"}}, {"type": "node", "id": 7978152705, "lat": 7.9996841, "lon": 125.3086531, "tags": {"place": "hamlet"}}, {"type": "node", "id": 7978152706, "lat": 7.9986641, "lon": 125.3165603, "tags": {"place": "hamlet"}}, {"type": "node", "id": 7978152754, "lat": 8.0025473, "lon": 125.3231317, "tags": {"place": "hamlet"}}, {"type": "node", "id": 7978152967, "lat": 8.0199125, "lon": 125.3401637, "tags": {"place": "hamlet"}}, {"type": "node", "id": 7978154014, "lat": 8.0309081, "lon": 125.320251, "tags": {"place": "hamlet"}}, {"type": "node", "id": 7978154125, "lat": 8.0368041, "lon": 125.3266936, "tags": {"place": "hamlet"}}, {"type": "node", "id": 7978154126, "lat": 8.0483145, "lon": 125.3454155, "tags": {"alt_name": "Sitio Manggaod", "is_in:barangay": "Mandahican", "is_in:municipality": "Cabanglasan", "name": "Manggaod", "place": "village", "postal_code": "8723"}}, {"type": "node", "id": 8046252825, "lat": 8.0977454, "lon": 125.0037615, "tags": {"admin_level": "11", "admin_type:PH": "sitio", "fixme": "confirm", "is_in:barangay": "Imbayao", "name": "Kalabasahon", "place": "hamlet"}}, {"type": "node", "id": 8068416823, "lat": 8.1155765, "lon": 125.2843908, "tags": {"admin_level": "11", "admin_type:PH": "sitio", "name": "Hilop", "place": "hamlet"}}, {"type": "node", "id": 8127429682, "lat": 8.0952608, "lon": 125.1853949, "tags": {"fixme": "uncertain name", "name": "Buluan", "place": "hamlet"}}, {"type": "node", "id": 8127671013, "lat": 8.0448828, "lon": 125.1144146, "tags": {"name": "Bugcaon", "place": "village"}}, {"type": "node", "id": 8127671014, "lat": 8.0846398, "lon": 125.0426918, "tags": {"is_in:city": "Malaybalay", "name": "Mapayag", "place": "village", "postal_code": "8700"}}, {"type": "node", "id": 8150225908, "lat": 8.1233174, "lon": 125.101524, "tags": {"is_in:barangay": "Casisang", "name": "Gabunan", "place": "hamlet"}}, {"type": "node", "id": 8150225909, "lat": 8.13263, "lon": 125.0911385, "tags": {"is_in:barangay": "Casisang", "name": "Santa Cruz", "place": "hamlet"}}, {"type": "node", "id": 8192985870, "lat": 8.095067, "lon": 125.0610785, "tags": {"is_in:barangay": "Mapayag", "is_in:city": "Malaybalay", "name": "Tamugawi", "place": "hamlet", "postal_code": "8700"}}, {"type": "node", "id": 8192985871, "lat": 8.1454118, "lon": 125.2442585, "tags": {"is_in:barangay": "Can-ayan", "is_in:city": "Malaybalay", "name": "Gantulan", "place": "hamlet", "postal_code": "8700"}}, {"type": "node", "id": 8193087478, "lat": 8.1116862, "lon": 125.3102423, "tags": {"is_in:barangay": "Poblacion", "is_in:municipality": "Cabanglasan", "name": "Lagonglong", "place": "hamlet", "postal_code": "8723"}}, {"type": "node", "id": 8193087479, "lat": 8.1261239, "lon": 125.339511, "tags": {"is_in:barangay": "Canangaan", "is_in:municipality": "Cabanglasan", "name": "Mapantao", "place": "hamlet", "postal_code": "8723"}}, {"type": "node", "id": 8193087480, "lat": 8.0891215, "lon": 125.3779874, "tags": {"admin_level": "11", "admin_type:PH": "sitio", "is_in:barangay": "Canangaan", "is_in:municipality": "Cabanglasan", "name": "Catablaran", "place": "hamlet", "postal_code": "8723"}}, {"type": "node", "id": 8193087481, "lat": 8.089921, "lon": 125.3044075, "tags": {"admin_level": "11", "is_in:barangay": "Poblacion", "is_in:municipality": "Cabanglasan", "name": "Old Cabanglasan", "place": "village", "postal_code": "8723"}}, {"type": "node", "id": 8199083370, "lat": 7.9748912, "lon": 125.245294, "tags": {"place": "hamlet"}}, {"type": "node", "id": 8199083371, "lat": 7.972559, "lon": 125.2662849, "tags": {"place": "hamlet"}}, {"type": "node", "id": 8199083373, "lat": 7.9550002, "lon": 125.2601442, "tags": {"name": "Dalit", "place": "hamlet"}}, {"type": "node", "id": 8208820945, "lat": 8.158113, "lon": 125.1197836, "tags": {"admin_level": "10", "admin_type:PH": "barangay", "ele": "650", "is_in:city": "Malaybalay", "name": "Sumpong", "place": "suburb", "population": "9302", "population:date": "2020-05-01", "postal_code": "8700", "start_date": "1961", "wikidata": "Q31537787", "wikipedia": "en:Sumpong, Malaybalay"}}, {"type": "node", "id": 8353841232, "lat": 8.2970211, "lon": 125.1096734, "tags": {"admin_level": "11", "admin_type:PH": "purok", "is_in:barangay": "Bontongon", "is_in:municipality": "Impasug-ong", "name": "Purok 2", "place": "neighbourhood"}}, {"type": "node", "id": 8398524399, "lat": 7.9568231, "lon": 125.3164591, "tags": {"admin_level": "11", "admin_type:PH": "purok", "name": "Purok 8", "place": "neighbourhood"}}, {"type": "node", "id": 8494101596, "lat": 8.1892353, "lon": 125.3336057, "tags": {"name": "Balaisan", "place": "hamlet"}}, {"type": "node", "id": 8494102220, "lat": 8.2322549, "lon": 125.3020012, "tags": {"name": "Sumagibo", "place": "hamlet"}}, {"type": "node", "id": 8494102221, "lat": 8.2313152, "lon": 125.3099245, "tags": {"place": "hamlet"}}, {"type": "node", "id": 8583567543, "lat": 8.1539293, "lon": 125.1157121}, {"type": "node", "id": 8583567544, "lat": 8.1541711, "lon": 125.115651}, {"type": "node", "id": 8583567545, "lat": 8.152684, "lon": 125.1160235}, {"type": "node", "id": 8583567546, "lat": 8.1529258, "lon": 125.1158312}, {"type": "node", "id": 8583567547, "lat": 8.1552154, "lon": 125.116867}, {"type": "node", "id": 8660057403, "lat": 7.9665664, "lon": 125.2757317, "tags": {"place": "hamlet"}}, {"type": "node", "id": 8660057404, "lat": 7.9800178, "lon": 125.2418017, "tags": {"place": "hamlet"}}, {"type": "node", "id": 8700949286, "lat": 8.0099153, "lon": 125.2815252, "tags": {"place": "hamlet"}}, {"type": "node", "id": 8723392028, "lat": 8.1393965, "lon": 125.3283365, "tags": {"place": "hamlet"}}, {"type": "node", "id": 8723392029, "lat": 8.1484944, "lon": 125.3277719, "tags": {"is_in:barangay": "Indalasa", "name": "Banderawan", "place": "hamlet"}}, {"type": "node", "id": 8747835458, "lat": 8.2451889, "lon": 125.0834183, "tags": {"admin_level": "11", "is_in:barangay": "Patpat", "is_in:city": "Malaybalay", "name": "Migue", "place": "hamlet", "postal_code": "8700"}}, {"type": "node", "id": 8747835459, "lat": 8.2329812, "lon": 125.115457, "tags": {"admin_level": "11", "is_in:barangay": "Kalasungay", "is_in:city": "Malaybalay", "name": "Malinao", "place": "hamlet", "postal_code": "8700"}}, {"type": "node", "id": 8747835460, "lat": 8.1982649, "lon": 125.1027255, "tags": {"is_in:barangay": "Kalasungay", "is_in:city": "Malaybalay", "name": "Digemen", "place": "hamlet", "postal_code": "8700"}}, {"type": "node", "id": 8819980626, "lat": 8.1696303, "lon": 125.127405, "tags": {"alt_name": "Sitio Bongbongon", "is_in:barangay": "Sumpong", "is_in:city": "Malaybalay", "name": "Bongbongon", "place": "hamlet", "postal_code": "8700"}}, {"type": "node", "id": 8915039388, "lat": 8.0824525, "lon": 125.1466078, "tags": {"admin_level": "11", "admin_type:PH": "sitio", "alt_name": "Purok 1", "is_in:barangay": "Laguitas", "is_in:city": "Malaybalay", "name": "Manlungay", "place": "hamlet", "postal_code": "8700"}}, {"type": "node", "id": 8915039389, "lat": 8.0819937, "lon": 125.1610518, "tags": {"admin_level": "11", "admin_type:PH": "sitio", "is_in:barangay": "Laguitas", "is_in:city": "Malaybalay", "name": "Balangbang", "place": "hamlet", "postal_code": "8700"}}, {"type": "node", "id": 9012830217, "lat": 8.1029952, "lon": 125.1276098}, {"type": "node", "id": 9200470679, "lat": 8.104523, "lon": 125.1274864}, {"type": "node", "id": 9200470680, "lat": 8.1034534, "lon": 125.1276646}, {"type": "node", "id": 9200470681, "lat": 8.103433, "lon": 125.1275356}, {"type": "node", "id": 9200470683, "lat": 8.1031024, "lon": 125.1287051}, {"type": "node", "id": 9200470684, "lat": 8.1027711, "lon": 125.1287366}, {"type": "node", "id": 9200470685, "lat": 8.1027499, "lon": 125.1284985}, {"type": "node", "id": 9200470686, "lat": 8.1026496, "lon": 125.1244551}, {"type": "node", "id": 9200470687, "lat": 8.1043411, "lon": 125.1244524}, {"type": "node", "id": 9669299806, "lat": 8.3214225, "lon": 125.0307038, "tags": {"alt_name": "Sitio Habyugan", "is_in:barangay": "Dumalaguing", "is_in:municipality": "Impasugong", "name": "Habyugan", "place": "hamlet", "postal_code": "8702"}}, {"type": "node", "id": 9791772676, "lat": 7.969264, "lon": 125.2820187, "tags": {"ele": "560", "is_in:municipality": "San Fernando", "name": "Santo Ni\u00f1o", "place": "hamlet", "postal_code": "8711", "short_name": "Sto. Ni\u00f1o"}}, {"type": "node", "id": 9791831930, "lat": 7.9726011, "lon": 125.2659195, "tags": {"name": "San Vicente", "place": "neighbourhood"}}, {"type": "node", "id": 11096634380, "lat": 8.0030672, "lon": 125.1407262, "tags": {"admin_level": "11", "admin_type:PH": "purok", "is_in:barangay": "Simaya", "is_in:city": "Malaybalay", "name": "Purok 6", "place": "neighbourhood", "postal_code": "8700"}}, {"type": "node", "id": 11097017129, "lat": 8.0344492, "lon": 125.1559073, "tags": {"admin_level": "11", "admin_type:PH": "purok", "is_in:barangay": "Violeta", "is_in:city": "Malaybalay", "name": "Purok 3", "place": "neighbourhood", "postal_code": "8700"}}, {"type": "node", "id": 11097246413, "lat": 8.0542494, "lon": 125.1459331, "tags": {"admin_level": "11", "admin_type:PH": "purok", "is_in:barangay": "Aglayan", "is_in:city": "Malaybalay", "name": "Purok 6-A", "place": "neighbourhood", "postal_code": "8700"}}, {"type": "node", "id": 11097246414, "lat": 8.0632002, "lon": 125.1350941, "tags": {"admin_level": "11", "admin_type:PH": "purok", "is_in:barangay": "Aglayan", "is_in:city": "Malaybalay", "name": "Purok 2-B", "place": "neighbourhood", "postal_code": "8700"}}, {"type": "node", "id": 11097461262, "lat": 8.100254, "lon": 125.128498, "tags": {"admin_level": "11", "admin_type:PH": "purok", "is_in:barangay": "San Jose", "is_in:city": "Malaybalay", "name": "Purok 2", "place": "neighbourhood", "postal_code": "8700"}}, {"type": "node", "id": 11099253173, "lat": 8.1295365, "lon": 125.1284175, "tags": {"admin_level": "11", "admin_type:PH": "purok", "is_in:barangay": "Casisang", "is_in:city": "Malaybalay", "name": "Purok 5", "place": "neighbourhood", "postal_code": "8700"}}, {"type": "node", "id": 11099398694, "lat": 8.1865564, "lon": 125.087354}, {"type": "node", "id": 11099398695, "lat": 8.1857612, "lon": 125.0871822}, {"type": "node", "id": 11099398696, "lat": 8.1861555, "lon": 125.0882207}, {"type": "node", "id": 11099398697, "lat": 8.1853785, "lon": 125.0879688}, {"type": "node", "id": 11099449213, "lat": 8.191963, "lon": 125.0800752, "tags": {"admin_level": "11", "admin_type:PH": "purok", "alt_name": "Purok 4;Purok Pal-ing;Sitio Pal-ing", "is_in:barangay": "Patpat", "is_in:city": "Malaybalay", "name": "Pal-ing", "official_name": "Pal-ing", "place": "hamlet", "postal_code": "8700"}}, {"type": "node", "id": 11100954384, "lat": 8.1767183, "lon": 125.09421, "tags": {"admin_level": "11", "admin_type:PH": "purok", "is_in:barangay": "Kalasungay", "is_in:city": "Malaybalay", "name": "Purok 4", "place": "neighbourhood", "postal_code": "8700"}}, {"type": "node", "id": 11510101938, "lat": 7.9785612, "lon": 125.1490983, "tags": {"is_in:barangay": "Santo Ni\u00f1o", "name": "San Marcos", "place": "hamlet"}}, {"type": "node", "id": 11630130419, "lat": 8.1668841, "lon": 125.3971252, "tags": {"fixme": "Locals point to this area called Pinangampuan, a sitio of Indalasa.", "name": "Pinangampuan", "place": "hamlet"}}, {"type": "node", "id": 11630130420, "lat": 8.2843619, "lon": 125.237683, "tags": {"admin_level": "11", "is_in:barangay": "Busdi", "is_in:city": "Malaybalay", "name": "Danaw", "place": "hamlet", "postal_code": "8700"}}, {"type": "node", "id": 11630130421, "lat": 8.1647993, "lon": 125.271689, "tags": {"is_in:barangay": "Silae", "name": "Salindungaw", "place": "hamlet"}}, {"type": "node", "id": 11948113492, "lat": 8.0516836, "lon": 125.1576389, "tags": {"admin_level": "11", "admin_type:PH": "purok", "is_in:barangay": "Linabo", "is_in:city": "Malaybalay", "name": "Purok 2", "place": "neighbourhood", "postal_code": "8700"}}, {"type": "node", "id": 12269981957, "lat": 8.1719915, "lon": 125.0170089, "tags": {"is_in:barangay": "Dalwangan", "name": "Green Valley", "place": "hamlet"}}, {"type": "node", "id": 12269981958, "lat": 8.1735367, "lon": 125.037759, "tags": {"is_in:barangay": "Dalwangan", "name": "Tongantongan", "place": "hamlet"}}, {"type": "node", "id": 12269999111, "lat": 7.9740122, "lon": 125.1925632, "tags": {"is_in:barangay": "Apo Macote", "name": "Mahinog", "place": "hamlet"}}, {"type": "way", "id": 178639939, "nodes": [1889856678, 1889856697, 1889856667, 1889856672, 1889856691, 1889856685, 1889856694, 1889856688, 1889856678], "tags": {"alt_name": "Gold Star Subdivision", "is_in:barangay": "Casisang", "is_in:city": "Malaybalay", "landuse": "residential", "name": "Gold Star", "place": "neighbourhood", "postal_code": "8700", "residential": "single_family"}}, {"type": "way", "id": 180683053, "nodes": [1911312730, 1911312731, 1911312732, 1911312729, 1911312730], "tags": {"alt_name": "Villa De Azura Subdivision", "is_in:barangay": "Casisang", "is_in:city": "Malaybalay", "landuse": "residential", "name": "Villa De Azura", "place": "neighbourhood", "postal_code": "8700", "residential": "single_family"}}, {"type": "way", "id": 180683159, "nodes": [1911313518, 1911313519, 1911313509, 1911313508, 1911313515, 1747426639, 1911313518], "tags": {"alt_name": "Carmenville Subdivision", "is_in:barangay": "Casisang", "is_in:city": "Malaybalay", "landuse": "residential", "name": "Carmenville", "place": "neighbourhood", "postal_code": "8700", "residential": "single_family"}}, {"type": "way", "id": 182102313, "nodes": [1924417621, 1865203709, 1924417635, 8583567547, 1924417600, 1924417617, 1924417615, 1924417638, 8583567544, 8583567543, 1924417619, 1924417626, 8583567546, 1924417632, 8583567545, 1924417621], "tags": {"alt_name": "Gawad Kalinga Subdivision", "landuse": "residential", "name": "Gawad Kalinga", "place": "neighbourhood"}}, {"type": "way", "id": 186609346, "nodes": [1973559686, 1973559666, 1973559665, 1973559660, 1973559663, 1973559658, 1973559668, 1973559670, 1973559688, 6534843236, 1973559682, 1973559669, 1973559656, 1973559667, 1973559664, 1973559686], "tags": {"alt_name": "Panorama Heights Subdivision", "is_in:barangay": "Kalasungay", "is_in:city": "Malaybalay", "is_in:purok": "Purok 4", "landuse": "residential", "name": "Panorama Heights", "place": "neighbourhood", "residential": "rural"}}, {"type": "way", "id": 257580053, "nodes": [2630733617, 2630733619, 1910937657, 1747316285, 2630733621, 2630733623, 2630733625, 2630733627, 2630733629, 2630733631, 2630733633, 2630733635, 2630733637, 2630733639, 1931524347, 2630736337, 2630736338, 2630736339, 2630736340, 1931524353, 2630733617], "tags": {"is_in:city": "Malaybalay", "landuse": "residential", "name": "Gawad Kalinga", "place": "neighbourhood", "postal_code": "8700", "residential": "single_family"}}, {"type": "way", "id": 283120901, "nodes": [2870351949, 2870351952, 2870351961, 2870351962, 2870351957, 2870351955, 2870351953, 2870351948, 2870351949], "tags": {"name": "Red Cross Village", "note": "resettlement areas for Sendong and Pablo victims in Valencia", "place": "neighbourhood"}}, {"type": "way", "id": 996370441, "nodes": [9200470687, 9200470686, 6564994733, 6564994732, 6564994731, 6564994750, 9200470685, 9200470684, 9200470683, 9012830217, 9200470681, 9200470680, 9200470679, 9200470687], "tags": {"alt_name": "Pinewood Subdivision", "landuse": "residential", "name": "Pinewood", "place": "neighbourhood", "residential": "single_family"}}, {"type": "way", "id": 1196062998, "nodes": [11099398694, 11099398696, 11099398697, 11099398695, 11099398694], "tags": {"construction": "residential", "is_in:barangay": "Patpat", "is_in:city": "Malaybalay", "landuse": "construction", "name": "Criswen Homes", "place": "neighbourhood", "residential": "single_family"}}]}