{"version": 0.6, "generator": "Overpass API 0.7.62.5 1bd436f1", "osm3s": {"timestamp_osm_base": "2025-05-24T18:01:29Z", "copyright": "The data included in this document is from www.openstreetmap.org. The data is made available under ODbL."}, "elements": [{"type": "node", "id": 198495623, "lat": 9.756499, "lon": 123.9728153, "tags": {"admin_level": "6", "designation": "municipality", "name": "Balilihan", "name:uk": "\u0411\u0430\u043b\u0456\u043b\u0456\u0433\u0430\u043d", "place": "town", "population": "18694", "population:date": "2020-05-01", "ref": "071206000", "source:population": "Philippine Statistics Authority", "wikidata": "Q404519", "wikimedia_commons": "Category:Balilihan", "wikipedia": "en:Balilihan"}}, {"type": "node", "id": 198497971, "lat": 9.9515287, "lon": 123.9618897, "tags": {"admin_level": "6", "admin_type:PH": "municipality", "gns_classification": "ADM2", "name": "Tubigon", "name:uk": "\u0422\u0443\u0431\u0456\u0491\u043e\u043d", "old_ref": "071245000", "place": "town", "population": "47886", "population:date": "2020-05-01", "ref": "0701245000", "source:population": "Philippine Statistics Authority", "wikidata": "Q405980", "wikimedia_commons": "Category:Tubigon", "wikipedia": "en:Tubigon"}}, {"type": "node", "id": 198503155, "lat": 9.9626104, "lon": 124.0244228, "tags": {"admin_level": "6", "admin_type:PH": "municipality", "gns_classification": "ADM2", "name": "Clarin", "old_ref": "071214000", "place": "town", "population": "21158", "population:date": "2020-05-01", "ref": "0701214000", "source:population": "Philippine Statistics Authority", "wikidata": "Q404775", "wikimedia_commons": "Category:Clarin, Bohol", "wikipedia": "en:Clarin, Bohol"}}, {"type": "node", "id": 198508510, "lat": 10.1629017, "lon": 123.7073793, "tags": {"admin_level": "6", "gns_classification": "ADM2", "gns_uni": "-3374295", "is_in:province": "Cebu", "name": "San Fernando", "place": "town", "place:PH": "municipality", "population": "72224", "population:date": "2020-05-01", "source": "GNS", "source:population": "Philippine Statistics Authority", "wikidata": "Q316318", "wikimedia_commons": "Category:San Fernando, Cebu", "wikipedia": "en:San Fernando, Cebu"}}, {"type": "node", "id": 198509847, "lat": 10.0308864, "lon": 124.0656561, "tags": {"admin_level": "6", "admin_type:PH": "municipality", "gns_classification": "ADM2", "is_in:province": "Bohol", "name": "Inabanga", "old_ref": "071224000", "place": "town", "population": "48534", "population:date": "2020-05-01", "ref": "0701224000", "source:population": "Philippine Statistics Authority", "wikidata": "Q405088", "wikimedia_commons": "Category:Inabanga", "wikipedia": "en:Inabanga"}}, {"type": "node", "id": 198510600, "lat": 9.8593137, "lon": 124.0053953, "tags": {"admin_level": "6", "admin_type:PH": "municipality", "alt_name": "Catigbian", "name": "Catigbi-an", "old_ref": "071213000", "place": "town", "population": "23805", "population:date": "2020-05-01", "ref": "0701213000", "source:population": "Philippine Statistics Authority", "wikidata": "Q404750", "wikimedia_commons": "Category:Catigbian", "wikipedia": "en:Catigbian"}}, {"type": "node", "id": 198510695, "lat": 9.7997626, "lon": 123.7945228, "tags": {"admin_level": "6", "admin_type:PH": "municipality", "gns_classification": "ADM2", "name": "Loon", "old_ref": "071230000", "place": "town", "population": "44224", "population:date": "2020-05-01", "ref": "0701230000", "source:population": "Philippine Statistics Authority", "wikidata": "Q405224", "wikimedia_commons": "Category:Loon, Bohol", "wikipedia": "en:Loon, Bohol"}}, {"type": "node", "id": 198520414, "lat": 9.8595624, "lon": 123.9562221, "tags": {"admin_level": "6", "designation": "municipality", "name": "San Isidro", "place": "town", "population": "9909", "population:date": "2020-05-01", "ref": "071237000", "source:population": "Philippine Statistics Authority", "wikidata": "Q259298", "wikimedia_commons": "Category:San Isidro, Bohol", "wikipedia": "en:San Isidro, Bohol"}}, {"type": "node", "id": 198521606, "lat": 9.7809304, "lon": 123.8981433, "tags": {"admin_level": "6", "admin_type:PH": "municipality", "gns_classification": "ADM2", "name": "Antequera", "old_ref": "071204000", "place": "town", "population": "14990", "population:date": "2020-05-01", "ref": "0701204000", "source:population": "Philippine Statistics Authority", "wikidata": "Q404459", "wikimedia_commons": "Category:Antequera, Bohol", "wikipedia": "en:Antequera, Bohol"}}, {"type": "node", "id": 198522332, "lat": 9.7409309, "lon": 123.8429701, "tags": {"admin_level": "6", "admin_type:PH": "municipality", "gns_classification": "ADM2", "name": "Maribojoc", "old_ref": "071232000", "place": "town", "population": "22178", "population:date": "2020-05-01", "ref": "0701232000", "source:population": "Philippine Statistics Authority", "wikidata": "Q405303", "wikimedia_commons": "Category:Maribojoc", "wikipedia": "en:Maribojoc"}}, {"type": "node", "id": 198525154, "lat": 9.8905133, "lon": 123.8718668, "tags": {"admin_level": "6", "designation": "municipality", "name": "Calape", "place": "town", "population": "33079", "population:date": "2020-05-01", "ref": "071210000", "source:population": "Philippine Statistics Authority", "wikidata": "Q404652", "wikimedia_commons": "Category:Calape", "wikipedia": "en:Calape"}}, {"type": "node", "id": 198528442, "lat": 9.913182, "lon": 124.0932027, "tags": {"admin_level": "6", "admin_type:PH": "municipality", "gns_classification": "ADM2", "is_in:province": "Bohol", "name": "Sagbayan", "old_name": "Borja", "old_ref": "071236000", "place": "town", "population": "24335", "population:date": "2020-05-01", "ref": "0701236000", "source:population": "Philippine Statistics Authority", "wikidata": "Q405472", "wikimedia_commons": "Category:Sagbayan", "wikipedia": "en:Sagbayan"}}, {"type": "node", "id": 613396791, "lat": 9.8867634, "lon": 123.7637124, "tags": {"admin_level": "10", "is_in:island": "Cabilao", "is_in:province": "Bohol", "is_in:town": "Loon", "name": "Pantudlan", "place": "village", "place:PH": "barangay"}}, {"type": "node", "id": 613397196, "lat": 9.8897715, "lon": 123.7740551, "tags": {"admin_level": "10", "is_in:island": "Cabilao", "is_in:province": "Bohol", "is_in:town": "Loon", "name": "Looc", "place": "village", "place:PH": "barangay"}}, {"type": "node", "id": 613397292, "lat": 9.8864517, "lon": 123.7914787, "tags": {"admin_level": "10", "alt_name": "Cambakis", "is_in:island": "Cabilao", "is_in:province": "Bohol", "is_in:town": "Loon", "name": "Cambaquiz", "place": "village", "place:PH": "barangay"}}, {"type": "node", "id": 613397347, "lat": 9.8724685, "lon": 123.7774513, "tags": {"admin_level": "10", "is_in:island": "Cabilao", "is_in:province": "Bohol", "is_in:town": "Loon", "name": "Talisay", "place": "village", "place:PH": "barangay"}}, {"type": "node", "id": 613397381, "lat": 9.8709775, "lon": 123.7653003, "tags": {"admin_level": "10", "is_in:island": "Cabilao", "is_in:province": "Bohol", "is_in:town": "Loon", "name": "Cabacongan", "place": "village", "place:PH": "barangay"}}, {"type": "node", "id": 678983650, "lat": 9.74057, "lon": 123.909569, "tags": {"FIXME": "add names and proper tags", "arivac:name": "L-26-503-001-07", "arivac:type_id": "26.000000", "arivac:typetxt": "Purok", "place": "hamlet", "source": "arivac", "source:url": "http://hisdu2.sph.uq.edu.au/arivac/"}}, {"type": "node", "id": 678983665, "lat": 9.742459, "lon": 123.922958, "tags": {"FIXME": "add names and proper tags", "arivac:name": "L-26-503-002-07", "arivac:type_id": "26.000000", "arivac:typetxt": "Purok", "place": "hamlet", "source": "arivac", "source:url": "http://hisdu2.sph.uq.edu.au/arivac/"}}, {"type": "node", "id": 678983730, "lat": 9.74885, "lon": 123.939056, "tags": {"FIXME": "add names and proper tags", "arivac:name": "L-26-503-002-08", "arivac:type_id": "26.000000", "arivac:typetxt": "Purok", "place": "hamlet", "source": "arivac", "source:url": "http://hisdu2.sph.uq.edu.au/arivac/"}}, {"type": "node", "id": 678983739, "lat": 9.74809, "lon": 123.936417, "tags": {"FIXME": "add names and proper tags", "arivac:name": "L-26-503-001-08", "arivac:type_id": "26.000000", "arivac:typetxt": "Purok", "place": "hamlet", "source": "arivac", "source:url": "http://hisdu2.sph.uq.edu.au/arivac/"}}, {"type": "node", "id": 678983744, "lat": 9.75301, "lon": 123.966476, "tags": {"FIXME": "add names and proper tags", "arivac:name": "L-26-605-009-08", "arivac:type_id": "26.000000", "arivac:typetxt": "Purok", "place": "hamlet", "source": "arivac", "source:url": "http://hisdu2.sph.uq.edu.au/arivac/"}}, {"type": "node", "id": 678983746, "lat": 9.74588, "lon": 123.967484, "tags": {"FIXME": "add names and proper tags", "arivac:name": "L-26-605-007-08", "arivac:type_id": "26.000000", "arivac:typetxt": "Purok", "place": "hamlet", "source": "arivac", "source:url": "http://hisdu2.sph.uq.edu.au/arivac/"}}, {"type": "node", "id": 678983747, "lat": 9.751929, "lon": 123.957008, "tags": {"FIXME": "add names and proper tags", "arivac:name": "L-26-605-020-08", "arivac:type_id": "26.000000", "arivac:typetxt": "Purok", "place": "hamlet", "source": "arivac", "source:url": "http://hisdu2.sph.uq.edu.au/arivac/"}}, {"type": "node", "id": 678983754, "lat": 9.75191, "lon": 123.956558, "tags": {"FIXME": "add names and proper tags", "arivac:name": "L-26-605-021-08", "arivac:type_id": "26.000000", "arivac:typetxt": "Purok", "place": "hamlet", "source": "arivac", "source:url": "http://hisdu2.sph.uq.edu.au/arivac/"}}, {"type": "node", "id": 678983756, "lat": 9.75224, "lon": 123.9533, "tags": {"FIXME": "add names and proper tags", "arivac:name": "L-26-605-007-02", "arivac:type_id": "26.000000", "arivac:typetxt": "Purok", "place": "hamlet", "source": "arivac", "source:url": "http://hisdu2.sph.uq.edu.au/arivac/"}}, {"type": "node", "id": 678983779, "lat": 9.739639, "lon": 123.976669, "tags": {"FIXME": "add names and proper tags", "arivac:name": "L-26-602-018-05", "arivac:type_id": "26.000000", "arivac:typetxt": "Purok", "place": "hamlet", "source": "arivac", "source:url": "http://hisdu2.sph.uq.edu.au/arivac/"}}, {"type": "node", "id": 678983788, "lat": 9.74621, "lon": 123.978073, "tags": {"FIXME": "add names and proper tags", "arivac:name": "L-26-602-022-05", "arivac:type_id": "26.000000", "arivac:typetxt": "Purok", "place": "hamlet", "source": "arivac", "source:url": "http://hisdu2.sph.uq.edu.au/arivac/"}}, {"type": "node", "id": 678983790, "lat": 9.74514, "lon": 123.986969, "tags": {"FIXME": "add names and proper tags", "arivac:name": "L-26-602-014-07", "arivac:type_id": "26.000000", "arivac:typetxt": "Purok", "place": "hamlet", "source": "arivac", "source:url": "http://hisdu2.sph.uq.edu.au/arivac/"}}, {"type": "node", "id": 678983797, "lat": 9.7494, "lon": 123.993423, "tags": {"FIXME": "add names and proper tags", "arivac:name": "L-26-602-009-05", "arivac:type_id": "26.000000", "arivac:typetxt": "Purok", "place": "hamlet", "source": "arivac", "source:url": "http://hisdu2.sph.uq.edu.au/arivac/"}}, {"type": "node", "id": 678983808, "lat": 9.76447, "lon": 123.952538, "tags": {"FIXME": "add names and proper tags", "arivac:name": "L-26-605-006-02", "arivac:type_id": "26.000000", "arivac:typetxt": "Purok", "place": "hamlet", "source": "arivac", "source:url": "http://hisdu2.sph.uq.edu.au/arivac/"}}, {"type": "node", "id": 678983811, "lat": 9.76315, "lon": 123.965309, "tags": {"FIXME": "add names and proper tags", "arivac:name": "L-26-605-005-08", "arivac:type_id": "26.000000", "arivac:typetxt": "Purok", "place": "hamlet", "source": "arivac", "source:url": "http://hisdu2.sph.uq.edu.au/arivac/"}}, {"type": "node", "id": 678983814, "lat": 9.76227, "lon": 123.962868, "tags": {"FIXME": "add names and proper tags", "arivac:name": "L-26-605-006-08", "arivac:type_id": "26.000000", "arivac:typetxt": "Purok", "place": "hamlet", "source": "arivac", "source:url": "http://hisdu2.sph.uq.edu.au/arivac/"}}, {"type": "node", "id": 678983815, "lat": 9.762919, "lon": 123.951866, "tags": {"FIXME": "add names and proper tags", "arivac:name": "L-26-605-014-08", "arivac:type_id": "26.000000", "arivac:typetxt": "Purok", "place": "hamlet", "source": "arivac", "source:url": "http://hisdu2.sph.uq.edu.au/arivac/"}}, {"type": "node", "id": 678983828, "lat": 9.76451, "lon": 123.982666, "tags": {"FIXME": "add names and proper tags", "arivac:name": "L-26-605-008-08", "arivac:type_id": "26.000000", "arivac:typetxt": "Purok", "place": "hamlet", "source": "arivac", "source:url": "http://hisdu2.sph.uq.edu.au/arivac/"}}, {"type": "node", "id": 678983837, "lat": 9.776609, "lon": 123.970154, "tags": {"FIXME": "add names and proper tags", "arivac:name": "L-26-606-006-04", "arivac:type_id": "26.000000", "arivac:typetxt": "Purok", "place": "hamlet", "source": "arivac", "source:url": "http://hisdu2.sph.uq.edu.au/arivac/"}}, {"type": "node", "id": 678983838, "lat": 9.76735, "lon": 123.975327, "tags": {"FIXME": "add names and proper tags", "arivac:name": "L-26-605-012-08", "arivac:type_id": "26.000000", "arivac:typetxt": "Purok", "place": "hamlet", "source": "arivac", "source:url": "http://hisdu2.sph.uq.edu.au/arivac/"}}, {"type": "node", "id": 678983839, "lat": 9.77666, "lon": 123.96994, "tags": {"FIXME": "add names and proper tags", "arivac:name": "L-26-606-008-06", "arivac:type_id": "26.000000", "arivac:typetxt": "Purok", "place": "hamlet", "source": "arivac", "source:url": "http://hisdu2.sph.uq.edu.au/arivac/"}}, {"type": "node", "id": 678983840, "lat": 9.76243, "lon": 123.992569, "tags": {"FIXME": "add names and proper tags", "arivac:name": "L-26-602-006-07", "arivac:type_id": "26.000000", "arivac:typetxt": "Purok", "is_in:town": "Balilihan", "is_in:village": "Boctol", "place": "neighbourhood", "source": "arivac", "source:url": "http://hisdu2.sph.uq.edu.au/arivac/"}}, {"type": "node", "id": 678983848, "lat": 9.77355, "lon": 124.003494, "tags": {"arivac:name": "L-26-602-004-05", "arivac:type_id": "26.000000", "arivac:typetxt": "Purok", "fixme": "add names and proper tags", "place": "hamlet", "source": "arivac", "source:url": "http://hisdu2.sph.uq.edu.au/arivac/"}}, {"type": "node", "id": 678983854, "lat": 9.77402, "lon": 124.005219, "tags": {"FIXME": "add names and proper tags", "arivac:name": "L-26-602-010-07", "arivac:type_id": "26.000000", "arivac:typetxt": "Purok", "place": "hamlet", "source": "arivac", "source:url": "http://hisdu2.sph.uq.edu.au/arivac/"}}, {"type": "node", "id": 678983855, "lat": 9.77888, "lon": 123.969818, "tags": {"FIXME": "add names and proper tags", "arivac:name": "L-26-606-005-04", "arivac:type_id": "26.000000", "arivac:typetxt": "Purok", "place": "hamlet", "source": "arivac", "source:url": "http://hisdu2.sph.uq.edu.au/arivac/"}}, {"type": "node", "id": 678983857, "lat": 9.77874, "lon": 123.973351, "tags": {"FIXME": "add names and proper tags", "arivac:name": "L-26-606-002-04", "arivac:type_id": "26.000000", "arivac:typetxt": "Purok", "place": "hamlet", "source": "arivac", "source:url": "http://hisdu2.sph.uq.edu.au/arivac/"}}, {"type": "node", "id": 678983860, "lat": 9.78734, "lon": 123.972107, "tags": {"FIXME": "add names and proper tags", "arivac:name": "L-26-606-002-06", "arivac:type_id": "26.000000", "arivac:typetxt": "Purok", "place": "hamlet", "source": "arivac", "source:url": "http://hisdu2.sph.uq.edu.au/arivac/"}}, {"type": "node", "id": 678983862, "lat": 9.79226, "lon": 123.976738, "tags": {"FIXME": "add names and proper tags", "arivac:name": "L-26-606-003-04", "arivac:type_id": "26.000000", "arivac:typetxt": "Purok", "place": "hamlet", "source": "arivac", "source:url": "http://hisdu2.sph.uq.edu.au/arivac/"}}, {"type": "node", "id": 678983866, "lat": 9.79611, "lon": 123.976898, "tags": {"FIXME": "add names and proper tags", "arivac:name": "L-26-606-002-06", "arivac:type_id": "26.000000", "arivac:typetxt": "Purok", "place": "hamlet", "source": "arivac", "source:url": "http://hisdu2.sph.uq.edu.au/arivac/"}}, {"type": "node", "id": 678983867, "lat": 9.79737, "lon": 123.983429, "tags": {"FIXME": "add names and proper tags", "arivac:name": "L-26-606-004-04", "arivac:type_id": "26.000000", "arivac:typetxt": "Purok", "place": "hamlet", "source": "arivac", "source:url": "http://hisdu2.sph.uq.edu.au/arivac/"}}, {"type": "node", "id": 678983873, "lat": 9.78971, "lon": 124.000679, "tags": {"FIXME": "add names and proper tags", "arivac:name": "L-26-606-007-04", "arivac:type_id": "26.000000", "arivac:typetxt": "Purok", "place": "hamlet", "source": "arivac", "source:url": "http://hisdu2.sph.uq.edu.au/arivac/"}}, {"type": "node", "id": 678983876, "lat": 9.7964, "lon": 123.998734, "tags": {"FIXME": "add names and proper tags", "arivac:name": "L-26-606-001-04", "arivac:type_id": "26.000000", "arivac:typetxt": "Purok", "place": "hamlet", "source": "arivac", "source:url": "http://hisdu2.sph.uq.edu.au/arivac/"}}, {"type": "node", "id": 678983880, "lat": 9.80513, "lon": 123.980858, "tags": {"FIXME": "add names and proper tags", "arivac:name": "L-26-606-002-06", "arivac:type_id": "26.000000", "arivac:typetxt": "Purok", "place": "hamlet", "source": "arivac", "source:url": "http://hisdu2.sph.uq.edu.au/arivac/"}}, {"type": "node", "id": 678983884, "lat": 9.7746, "lon": 124.041618, "tags": {"FIXME": "add names and proper tags", "arivac:name": "L-26-604-016-08", "arivac:type_id": "26.000000", "arivac:typetxt": "Purok", "place": "hamlet", "source": "arivac", "source:url": "http://hisdu2.sph.uq.edu.au/arivac/"}}, {"type": "node", "id": 678983886, "lat": 9.78345, "lon": 124.02887, "tags": {"FIXME": "add names and proper tags", "arivac:name": "L-26-604-002-02", "arivac:type_id": "26.000000", "arivac:typetxt": "Purok", "place": "hamlet", "source": "arivac", "source:url": "http://hisdu2.sph.uq.edu.au/arivac/"}}, {"type": "node", "id": 678983888, "lat": 9.79158, "lon": 124.030907, "tags": {"FIXME": "add names and proper tags", "arivac:name": "L-26-604-002-08", "arivac:type_id": "26.000000", "arivac:typetxt": "Purok", "place": "hamlet", "source": "arivac", "source:url": "http://hisdu2.sph.uq.edu.au/arivac/"}}, {"type": "node", "id": 678983889, "lat": 9.79387, "lon": 124.031158, "tags": {"FIXME": "add names and proper tags", "arivac:name": "L-26-604-001-08", "arivac:type_id": "26.000000", "arivac:typetxt": "Purok", "place": "hamlet", "source": "arivac", "source:url": "http://hisdu2.sph.uq.edu.au/arivac/"}}, {"type": "node", "id": 678983893, "lat": 9.7858, "lon": 124.036018, "tags": {"FIXME": "add names and proper tags", "arivac:name": "L-26-604-001-02", "arivac:type_id": "26.000000", "arivac:typetxt": "Purok", "place": "hamlet", "source": "arivac", "source:url": "http://hisdu2.sph.uq.edu.au/arivac/"}}, {"type": "node", "id": 678983915, "lat": 9.80801, "lon": 124.054955, "tags": {"FIXME": "add names and proper tags", "arivac:name": "L-26-601-002-04", "arivac:type_id": "26.000000", "arivac:typetxt": "Purok", "place": "hamlet", "source": "arivac", "source:url": "http://hisdu2.sph.uq.edu.au/arivac/"}}, {"type": "node", "id": 678983918, "lat": 9.80908, "lon": 124.0392, "tags": {"FIXME": "add names and proper tags", "arivac:name": "L-26-601-006-06", "arivac:type_id": "26.000000", "arivac:typetxt": "Purok", "place": "hamlet", "source": "arivac", "source:url": "http://hisdu2.sph.uq.edu.au/arivac/"}}, {"type": "node", "id": 678983919, "lat": 9.80138, "lon": 124.032646, "tags": {"FIXME": "add names and proper tags", "arivac:name": "L-26-604-001-02", "arivac:type_id": "26.000000", "arivac:typetxt": "Purok", "place": "hamlet", "source": "arivac", "source:url": "http://hisdu2.sph.uq.edu.au/arivac/"}}, {"type": "node", "id": 678983922, "lat": 9.80707, "lon": 124.056038, "tags": {"FIXME": "add names and proper tags", "arivac:name": "L-26-601-001-04", "arivac:type_id": "26.000000", "arivac:typetxt": "Purok", "place": "hamlet", "source": "arivac", "source:url": "http://hisdu2.sph.uq.edu.au/arivac/"}}, {"type": "node", "id": 1568711166, "lat": 9.7525952, "lon": 123.7892258, "tags": {"admin_level": "10", "is_in": "Loon,Bohol,Philippines", "name": "Tontonan", "place": "village", "place:PH": "barangay", "population": "600"}}, {"type": "node", "id": 1612920094, "lat": 9.9671126, "lon": 124.0405173, "tags": {"admin_level": "10", "admin_type:PH": "barangay", "gns_classification": "ADM3", "is_in:municipality": "Clarin", "name": "Bacani", "old_ref": "071214001", "place": "village", "population": "1141", "ref": "0701214001", "source:name": "extrapolated from OSMaPaaralan, way/992135167", "source:population": "Philippine Statistics Authority"}}, {"type": "node", "id": 1612920096, "lat": 9.9493975, "lon": 124.0240177, "tags": {"admin_level": "10", "admin_type:PH": "barangay", "is_in:town": "Clarin", "name": "Candajec", "place": "village", "source:name": "extrapolated from OSMaPaaralan"}}, {"type": "node", "id": 1612920102, "lat": 9.9311921, "lon": 124.0676374, "tags": {"admin_level": "10", "admin_type:PH": "barangay", "gns_classification": "ADM3", "is_in:town": "Sagbayan", "name": "San Augustin", "old_ref": "071236015", "place": "village", "place:PH": "barangay", "population": "1071", "ref": "0701236015", "source:population": "Philippine Statistics Authority"}}, {"type": "node", "id": 2527306799, "lat": 9.783333, "lon": 124.083333, "tags": {"FIXME": "Location approximate", "name": "Awijao", "nga:ufi": "-2409388", "place": "hamlet", "source": "Bing; USGS, 2013-10-11; NGA"}}, {"type": "node", "id": 2527306801, "lat": 9.8, "lon": 124.016667, "tags": {"FIXME": "Location approximate", "name": "Baang", "nga:ufi": "-2409460", "place": "hamlet", "source": "Bing; USGS, 2013-10-11; NGA"}}, {"type": "node", "id": 2527306805, "lat": 9.816766, "lon": 123.8016577, "tags": {"FIXME": "Location approximate", "name": "Babayongan", "nga:ufi": "-2409529", "place": "hamlet", "source": "Bing; USGS, 2013-10-11; NGA"}}, {"type": "node", "id": 2527306807, "lat": 9.8572494, "lon": 123.8650202, "tags": {"FIXME": "Location approximate", "name": "Bagacay Katipuhan", "nga:ufi": "-2410023", "place": "hamlet", "source": "Bing;USGS, 2013-10-11;NGA"}}, {"type": "node", "id": 2527306833, "lat": 9.883333, "lon": 124.033333, "tags": {"FIXME": "Location approximate", "name": "Bigtasan", "nga:ufi": "-2413990", "place": "hamlet", "source": "Bing; USGS, 2013-10-11; NGA"}}, {"type": "node", "id": 2527306837, "lat": 9.9345606, "lon": 123.9979677, "tags": {"name": "Bosongon", "nga:ufi": "-2415477", "place": "village", "source": "Bing;USGS, 2013-10-11;NGA;local knowledge"}}, {"type": "node", "id": 2527306859, "lat": 9.8, "lon": 124.05, "tags": {"FIXME": "Location approximate", "name": "Cabainetan", "nga:ufi": "-2417379", "place": "hamlet", "source": "Bing; USGS, 2013-10-11; NGA"}}, {"type": "node", "id": 2527306863, "lat": 9.866667, "lon": 124.016667, "tags": {"FIXME": "Location approximate", "name": "Cabayo", "nga:ufi": "-2417679", "place": "hamlet", "source": "Bing; USGS, 2013-10-11; NGA"}}, {"type": "node", "id": 2527306864, "lat": 10.1557603, "lon": 124.0452657, "tags": {"alt_name": "Cabulan", "name": "Cabul-an", "nga:ufi": "-2417985", "place": "neighbourhood", "source": "Bing; USGS, 2013-10-11; NGA"}}, {"type": "node", "id": 2527306879, "lat": 9.8448106, "lon": 123.7941741, "tags": {"FIXME": "Location approximate", "name": "Calayugan Sur", "nga:ufi": "-2418961", "place": "hamlet", "source": "Bing; USGS, 2013-10-11; NGA"}}, {"type": "node", "id": 2527306898, "lat": 9.766667, "lon": 124.066667, "tags": {"FIXME": "Location approximate", "name": "Campagao", "nga:ufi": "-2419732", "place": "hamlet", "source": "Bing; USGS, 2013-10-11; NGA"}}, {"type": "node", "id": 2527306911, "lat": 9.8825282, "lon": 124.0669512, "tags": {"FIXME": "Location approximate", "name": "Canbanoy", "nga:ufi": "-2420011", "place": "hamlet", "source": "Bing; USGS, 2013-10-11; NGA"}}, {"type": "node", "id": 2527306916, "lat": 9.816667, "lon": 123.833333, "tags": {"FIXME": "Location approximate", "name": "Candaigan", "nga:ufi": "-2420066", "place": "hamlet", "source": "Bing; USGS, 2013-10-11; NGA"}}, {"type": "node", "id": 2527306928, "lat": 9.8169702, "lon": 124.0165226, "tags": {"FIXME": "Location approximate", "name": "Cang Iras", "nga:ufi": "-2420200", "place": "hamlet", "source": "Bing; USGS, 2013-10-11; NGA"}}, {"type": "node", "id": 2527306950, "lat": 9.8384681, "lon": 123.8111978, "tags": {"FIXME": "Location approximate", "name": "Canhangdon Occidental", "nga:ufi": "-2420233", "place": "village", "source": "Bing;USGS, 2013-10-11;NGA"}}, {"type": "node", "id": 2527306955, "lat": 9.839444, "lon": 123.849444, "tags": {"FIXME": "Location approximate", "name": "Cansuaguit", "nga:ufi": "-2420472", "place": "hamlet", "source": "Bing;USGS, 2013-10-11;NGA"}}, {"type": "node", "id": 2527306957, "lat": 9.8160978, "lon": 123.801733, "tags": {"FIXME": "Location approximate", "name": "Cantamis", "nga:ufi": "-2420493", "place": "hamlet", "source": "Bing; USGS, 2013-10-11; NGA"}}, {"type": "node", "id": 2527306970, "lat": 9.847222, "lon": 123.825833, "tags": {"FIXME": "Location approximate", "name": "Catagbacan", "nga:ufi": "-2421376", "place": "hamlet", "source": "Bing;USGS, 2013-10-11;NGA"}}, {"type": "node", "id": 2527306974, "lat": 9.9173215, "lon": 123.9956486, "tags": {"name": "Cawayanan", "nga:ufi": "-2421785", "place": "village", "source": "Bing;USGS, 2013-10-11;NGA"}}, {"type": "node", "id": 2527306978, "lat": 9.9643855, "lon": 124.0345708, "tags": {"admin_level": "10", "admin_type:PH": "barangay", "gns_classification": "ADM3", "is_in:municipality": "Clarin", "name": "Comaang", "nga:ufi": "-2422304", "old_ref": "071214012", "place": "village", "population": "473", "ref": "0701214012", "source": "Bing; USGS, 2013-10-11; NGA", "source:population": "Philippine Statistics Authority"}}, {"type": "node", "id": 2527306981, "lat": 10.1131568, "lon": 123.9886702, "tags": {"admin_level": "10", "admin_type:PH": "barangay", "alt_name": "Coamen", "is_in:town": "Inabanga", "name": "Cuaming", "old_ref": "071224016", "place": "village", "population": "3263", "population:2015": "2951", "ref": "0701224016", "source": "Bing;USGS, 2013-10-11;NGA", "source:population": "Philippine Statistics Authority"}}, {"type": "node", "id": 2527306982, "lat": 9.783193, "lon": 123.7869131, "tags": {"FIXME": "Location approximate", "name": "Dacong Cog", "nga:ufi": "-2423087", "place": "neighbourhood", "source": "Bing; USGS, 2013-10-11; NGA"}}, {"type": "node", "id": 2527307024, "lat": 10.0245024, "lon": 123.9664327, "tags": {"name": "Isla de Ubay", "nga:ufi": "-2428983", "place": "hamlet", "source": "Bing; USGS, 2013-10-11; NGA"}}, {"type": "node", "id": 2527307041, "lat": 9.95, "lon": 124.05, "tags": {"FIXME": "Location approximate", "name": "Kabawan", "nga:ufi": "-2429536", "place": "hamlet", "source": "Bing; USGS, 2013-10-11; NGA"}}, {"type": "node", "id": 2527307050, "lat": 9.9379592, "lon": 124.0938681, "tags": {"admin_level": "10", "admin_type:PH": "barangay", "gns_classification": "ADM3", "is_in:municipality": "Sagbayan", "name": "Canmaya Diot", "nga:ufi": "-2430073", "old_ref": "071236004", "place": "village", "population": "1331", "ref": "0701236000", "source:name": "extrapolated from OSMaPaaralan, way/810372803", "source:population": "Philippine Statistics Authority"}}, {"type": "node", "id": 2527307054, "lat": 9.9050465, "lon": 123.8161861, "tags": {"admin_level": "10", "admin_type:PH": "barangay", "is_in:island": "Pangangan", "is_in:province": "Bohol", "is_in:town": "Calape", "name": "Kinabag-an", "old_ref": "071210015", "place": "village", "population": "650", "population:2015": "639", "ref": "0701210015"}}, {"type": "node", "id": 2527307069, "lat": 9.866667, "lon": 123.983333, "tags": {"FIXME": "Location approximate", "name": "Libas", "nga:ufi": "-2432768", "place": "hamlet", "source": "Bing; USGS, 2013-10-11; NGA"}}, {"type": "node", "id": 2527307078, "lat": 9.883333, "lon": 123.883333, "tags": {"FIXME": "Location approximate", "name": "Libjo", "nga:ufi": "-2432855", "place": "hamlet", "source": "Bing; USGS, 2013-10-11; NGA"}}, {"type": "node", "id": 2527307083, "lat": 9.888333, "lon": 123.857778, "tags": {"FIXME": "Location approximate", "name": "Liboron", "nga:ufi": "-2432905", "place": "hamlet", "source": "Bing; USGS, 2013-10-11; NGA"}}, {"type": "node", "id": 2527307088, "lat": 9.783333, "lon": 124.0, "tags": {"FIXME": "Location approximate", "name": "Limbutan", "nga:ufi": "-2433171", "place": "hamlet", "source": "Bing; USGS, 2013-10-11; NGA"}}, {"type": "node", "id": 2527307092, "lat": 9.816667, "lon": 124.016667, "tags": {"FIXME": "Location approximate", "name": "Limbutan", "nga:ufi": "-2433172", "place": "hamlet", "source": "Bing; USGS, 2013-10-11; NGA"}}, {"type": "node", "id": 2527307095, "lat": 9.8903695, "lon": 123.8248979, "tags": {"admin_level": "10", "admin_type:PH": "barangay", "is_in:island": "Pangangan", "is_in:province": "Bohol", "is_in:town": "Calape", "name": "Lomboy", "old_ref": "071210020", "place": "village", "population": "543", "population:2015": "488", "ref": "0701210020"}}, {"type": "node", "id": 2527307106, "lat": 9.9075472, "lon": 123.8096962, "tags": {"admin_level": "10", "is_in:island": "Pangangan", "is_in:province": "Bohol", "is_in:town": "Calape", "name": "Madangog", "place": "village", "place:PH": "barangay"}}, {"type": "node", "id": 2527307117, "lat": 9.8834237, "lon": 123.8661292, "tags": {"FIXME": "Location approximate", "name": "Magtongtong", "nga:ufi": "-2435812", "place": "hamlet", "source": "Bing; USGS, 2013-10-11; NGA"}}, {"type": "node", "id": 2527307127, "lat": 9.8832274, "lon": 123.8662544, "tags": {"FIXME": "Location approximate", "name": "Mantata-o", "nga:ufi": "-2438107", "place": "hamlet", "source": "Bing; USGS, 2013-10-11; NGA"}}, {"type": "node", "id": 2527307132, "lat": 9.9, "lon": 123.983333, "tags": {"FIXME": "Location approximate", "name": "Mapait", "nga:ufi": "-2438245", "place": "hamlet", "source": "Bing; USGS, 2013-10-11; NGA"}}, {"type": "node", "id": 2527307147, "lat": 9.8562012, "lon": 123.78927, "tags": {"FIXME": "Location approximate", "name": "Mocpoc Sur", "nga:ufi": "-2440141", "place": "hamlet", "source": "Bing; USGS, 2013-10-11; NGA"}}, {"type": "node", "id": 2527307153, "lat": 9.866944, "lon": 123.852222, "tags": {"FIXME": "Location approximate", "name": "Mojon", "nga:ufi": "-2440168", "place": "hamlet", "source": "Bing; USGS, 2013-10-11; NGA"}}, {"type": "node", "id": 2527307157, "lat": 9.826111, "lon": 123.824722, "tags": {"FIXME": "Location approximate", "name": "Mualon", "nga:ufi": "-2440418", "place": "hamlet", "source": "Bing; USGS, 2013-10-11; NGA"}}, {"type": "node", "id": 2527307158, "lat": 9.8539345, "lon": 123.8494254, "tags": {"FIXME": "Location approximate", "name": "Nueva Vida", "nga:ufi": "-2442148", "place": "hamlet", "source": "Bing; USGS, 2013-10-11; NGA"}}, {"type": "node", "id": 2527307165, "lat": 9.954454, "lon": 123.9949848, "tags": {"FIXME": "Location approximate", "name": "Macaas", "nga:ufi": "-2443832", "place": "hamlet", "source": "Bing;USGS, 2013-10-11;NGA"}}, {"type": "node", "id": 2527307169, "lat": 9.9979708, "lon": 123.9404981, "tags": {"name": "Pangapasan", "nga:ufi": "-2444238", "place": "hamlet", "source": "Bing; USGS, 2013-10-11; NGA"}}, {"type": "node", "id": 2527307171, "lat": 9.8835624, "lon": 123.8663673, "tags": {"FIXME": "Location approximate", "name": "Parlanquilon", "nga:ufi": "-2444962", "place": "hamlet", "source": "Bing; USGS, 2013-10-11; NGA"}}, {"type": "node", "id": 2527307182, "lat": 9.84986, "lon": 123.8170932, "tags": {"FIXME": "Location approximate", "name": "Sandingan", "nga:ufi": "-2449510", "place": "hamlet", "source": "Bing; USGS, 2013-10-11; NGA"}}, {"type": "node", "id": 2527307184, "lat": 9.8831768, "lon": 123.8664935, "tags": {"FIXME": "Location approximate", "name": "Santa Cruz", "nga:ufi": "-2451364", "place": "hamlet", "source": "Bing; USGS, 2013-10-11; NGA"}}, {"type": "node", "id": 2527307186, "lat": 9.833333, "lon": 124.1, "tags": {"FIXME": "Location approximate", "name": "Santigian", "nga:ufi": "-2451887", "place": "hamlet", "source": "Bing; USGS, 2013-10-11; NGA"}}, {"type": "node", "id": 2527307189, "lat": 9.85, "lon": 124.016667, "tags": {"FIXME": "Location approximate", "name": "Silob", "nga:ufi": "-2453220", "place": "hamlet", "source": "Bing; USGS, 2013-10-11; NGA"}}, {"type": "node", "id": 2527307190, "lat": 9.8589718, "lon": 123.9091463, "tags": {"alt_name": "Sohuton;Sojoton", "name": "Sohoton", "nga:ufi": "-2454253", "place": "hamlet", "source": "Bing; USGS, 2013-10-11; NGA", "source:name": "extrapolated from OSMaPaaralan, way/810642792"}}, {"type": "node", "id": 2527307193, "lat": 9.8833021, "lon": 123.8831195, "tags": {"FIXME": "Location approximate", "name": "Tabayag", "nga:ufi": "-2454655", "place": "hamlet", "source": "Bing; USGS, 2013-10-11; NGA"}}, {"type": "node", "id": 2527307195, "lat": 9.9378758, "lon": 123.9819988, "tags": {"name": "Talenceras", "nga:ufi": "-2455735", "place": "village", "source": "Bing;USGS, 2013-10-11;NGA"}}, {"type": "node", "id": 2527307198, "lat": 9.816667, "lon": 124.066667, "tags": {"FIXME": "Location approximate", "name": "Tanla", "nga:ufi": "-2456641", "place": "hamlet", "source": "Bing; USGS, 2013-10-11; NGA"}}, {"type": "node", "id": 2527307208, "lat": 9.95, "lon": 124.016667, "tags": {"FIXME": "Location approximate", "name": "Tubod", "nga:ufi": "-2458595", "place": "hamlet", "source": "Bing; USGS, 2013-10-11; NGA"}}, {"type": "node", "id": 2527307211, "lat": 9.8834553, "lon": 123.8666274, "tags": {"FIXME": "Location approximate", "name": "Ulbujan", "nga:ufi": "-2459364", "place": "hamlet", "source": "Bing; USGS, 2013-10-11; NGA"}}, {"type": "node", "id": 2527307212, "lat": 9.865278, "lon": 124.084444, "tags": {"FIXME": "Location approximate", "name": "Uliuli", "nga:ufi": "-2459377", "place": "hamlet", "source": "Bing; USGS, 2013-10-11; NGA"}}, {"type": "node", "id": 2527307216, "lat": 9.9495475, "lon": 123.9789854, "tags": {"admin_level": "10", "admin_type:PH": "barangay", "name": "Cabulijan", "nga:ufi": "-2459875", "place": "village"}}, {"type": "node", "id": 2539267123, "lat": 9.8278775, "lon": 123.9018446, "tags": {"admin_level": "10", "admin_type:PH": "barangay", "gns_classification": "ADM3", "is_in:town": "Antequera", "name": "Quinapon-an", "old_ref": "071204015", "place": "village", "population": "258", "ref": "0701204015", "source": "DigitalGlobe, NextView", "source:population": "Philippine Statistics Authority"}}, {"type": "node", "id": 3347884737, "lat": 9.7519633, "lon": 123.8558203, "tags": {"admin_level": "10", "admin_type:PH": "barangay", "gns_classification": "ADM3", "is_in:town": "Maribojoc", "name": "Bayacabac", "old_ref": "071232005", "place": "village", "population": "1897", "ref": "0701232005", "source:population": "Philippine Statistics Authority"}}, {"type": "node", "id": 3710925108, "lat": 10.0654736, "lon": 124.0626092, "tags": {"admin_level": "10", "admin_type:PH": "barangay", "is_in:town": "Inabanga", "name": "Lawis", "old_ref": "071224029", "place": "village", "population": "1293", "population:2015": "1297", "ref": "0701224029"}}, {"type": "node", "id": 3710938469, "lat": 10.0490617, "lon": 124.0590403, "tags": {"admin_level": "10", "admin_type:PH": "barangay", "is_in:town": "Inabanga", "name": "Ondol", "not:name": "Undol", "old_ref": "071224041", "place": "village", "population": "1270", "population:2015": "1107", "ref": "0701224041", "source:name": "extrapolated from way:800908885"}}, {"type": "node", "id": 3833697018, "lat": 9.8991008, "lon": 123.836969, "tags": {"admin_level": "10", "is_in:island": "Pangangan", "is_in:province": "Bohol", "is_in:town": "Calape", "name": "Lawis", "place": "village", "place:PH": "barangay"}}, {"type": "node", "id": 3833697267, "lat": 9.8906959, "lon": 123.8346727, "tags": {"admin_level": "10", "is_in:island": "Pangangan", "is_in:province": "Bohol", "is_in:town": "Calape", "name": "Kahayag", "place": "village", "place:PH": "barangay"}}, {"type": "node", "id": 3833697628, "lat": 9.9043637, "lon": 123.8257797, "tags": {"admin_level": "10", "admin_type:PH": "barangay", "is_in:island": "Pangangan", "is_in:province": "Bohol", "is_in:town": "Calape", "name": "Talisay", "old_ref": "071210031", "place": "village", "population": "479", "population:2015": "470", "ref": "0701210031"}}, {"type": "node", "id": 3833703663, "lat": 9.9086145, "lon": 123.8118631, "tags": {"admin_level": "10", "admin_type:PH": "barangay", "is_in:island": "Pangangan", "is_in:province": "Bohol", "is_in:town": "Calape", "name": "Magtongtong", "old_ref": "071210023", "place": "village", "place:PH": "barangay", "population": "732", "population:2015": "693", "ref": "0701210023"}}, {"type": "node", "id": 3833704234, "lat": 9.9023125, "lon": 123.8160249, "tags": {"admin_level": "10", "alt_name": "Looc", "is_in:island": "Pangangan", "is_in:province": "Bohol", "is_in:town": "Calape", "name": "Lo-oc", "place": "village", "place:PH": "barangay"}}, {"type": "node", "id": 3833820335, "lat": 9.9147628, "lon": 123.9116512, "tags": {"is_in:town": "Calape", "name": "Abucayan Norte", "place": "village"}}, {"type": "node", "id": 3835140615, "lat": 9.7965175, "lon": 123.7901057, "tags": {"name": "Moto Sur", "place": "hamlet"}}, {"type": "node", "id": 3835167714, "lat": 9.790618, "lon": 123.7883247, "tags": {"name": "Lintuan", "place": "hamlet"}}, {"type": "node", "id": 3835168316, "lat": 9.7859026, "lon": 123.786651, "tags": {"name": "Basdacu", "place": "hamlet"}}, {"type": "node", "id": 3835169164, "lat": 9.769303, "lon": 123.7868227, "tags": {"name": "Pig-ot", "place": "hamlet"}}, {"type": "node", "id": 3835170207, "lat": 9.7661522, "lon": 123.7871874, "tags": {"name": "Tangnan", "place": "hamlet"}}, {"type": "node", "id": 3835170870, "lat": 9.7499746, "lon": 123.7897624, "tags": {"name": "Song-on", "place": "hamlet"}}, {"type": "node", "id": 3835171021, "lat": 9.7585604, "lon": 123.7887109, "tags": {"name": "Cuasi", "place": "village", "population": "1500"}}, {"type": "node", "id": 3835188141, "lat": 9.8052259, "lon": 123.8001841, "tags": {"name": "Cogon Norte", "place": "hamlet"}}, {"type": "node", "id": 3835610153, "lat": 9.8447264, "lon": 123.8202787, "tags": {"name": "Catagbacan Sur", "place": "village"}}, {"type": "node", "id": 3838283312, "lat": 9.8428511, "lon": 123.816175, "tags": {"name": "Ubayon", "place": "village"}}, {"type": "node", "id": 3838283583, "lat": 9.8337177, "lon": 123.8136215, "tags": {"name": "Canhangdon Oriental", "place": "village"}}, {"type": "node", "id": 3838332283, "lat": 9.8623108, "lon": 123.7926817, "tags": {"name": "Mocpoc Norte", "place": "village"}}, {"type": "node", "id": 3838332284, "lat": 9.858421, "lon": 123.8038183, "tags": {"name": "Sondol", "place": "village"}}, {"type": "node", "id": 3838334306, "lat": 9.8520063, "lon": 123.7868703, "tags": {"name": "Basdio", "place": "village"}}, {"type": "node", "id": 3838334307, "lat": 9.8537187, "lon": 123.8101733, "tags": {"name": "Ubojan", "place": "village"}}, {"type": "node", "id": 3838335984, "lat": 9.846888, "lon": 123.7989086, "tags": {"name": "Calayugan Norte", "place": "village"}}, {"type": "node", "id": 3838338263, "lat": 9.8515501, "lon": 123.8101084, "tags": {"name": "Canigaan", "place": "village"}}, {"type": "node", "id": 4837795926, "lat": 9.9493319, "lon": 123.9945201, "tags": {"name": "Maca-as", "name:en": "Maca-as", "place": "village"}}, {"type": "node", "id": 5694452381, "lat": 10.0650717, "lon": 124.064781, "tags": {"is_in": "Lawis;Inabanga", "name": "Rowena Village", "place": "neighbourhood"}}, {"type": "node", "id": 5998775001, "lat": 9.7799719, "lon": 123.935684, "tags": {"name": "Angilan", "place": "village"}}, {"type": "node", "id": 6007047863, "lat": 10.0158685, "lon": 123.9877048, "tags": {"admin_level": "10", "admin_type:PH": "barangay", "is_in:town": "Tubigon", "name": "Batasan", "old_ref": "071245004", "place": "village", "population": "871", "population:2015": "856", "ref": "0701245004"}}, {"type": "node", "id": 6007048930, "lat": 10.071288, "lon": 123.928072, "tags": {"name": "Mocaboc", "place": "village"}}, {"type": "node", "id": 7483705557, "lat": 9.7529293, "lon": 123.844411, "tags": {"name": "Jandig", "place": "village"}}, {"type": "node", "id": 7487948844, "lat": 9.8276952, "lon": 123.8711002, "tags": {"name": "Genomoan", "place": "village"}}, {"type": "node", "id": 7487953793, "lat": 9.8424172, "lon": 123.898262, "tags": {"admin_level": "10", "admin_type:PH": "barangay", "is_in:town": "Calape", "name": "Cabayugan", "place": "village", "source:name": "extrapolated from OSMaPaaralan"}}, {"type": "node", "id": 7487984529, "lat": 9.8122658, "lon": 123.8828073, "tags": {"admin_level": "10", "admin_type:PH": "barangay", "gns_classification": "ADM3", "is_in:town": "Antequera", "name": "Canlaas", "old_ref": "071204007", "place": "village", "population": "757", "ref": "0701204007", "source:population": "Philippine Statistics Authority"}}, {"type": "node", "id": 7490850373, "lat": 9.8612955, "lon": 123.7997842, "tags": {"name": "Sondol", "place": "village"}}, {"type": "node", "id": 7490976694, "lat": 9.8517567, "lon": 123.8884332, "tags": {"name": "Canguha", "place": "village"}}, {"type": "node", "id": 7490979761, "lat": 9.8512755, "lon": 123.8753057, "tags": {"name": "Cabudburan", "place": "village"}}, {"type": "node", "id": 7491027455, "lat": 9.9528388, "lon": 124.0031069, "tags": {"name": "Buacao", "place": "village"}}, {"type": "node", "id": 7555565451, "lat": 9.8491106, "lon": 124.0442943, "tags": {"name": "Baang", "place": "village"}}, {"type": "node", "id": 7555583592, "lat": 9.8156287, "lon": 124.0485829, "tags": {"name": "Hagbuaya", "place": "village"}}, {"type": "node", "id": 7555583903, "lat": 9.8911513, "lon": 124.0507967, "tags": {"name": "Mantacida", "place": "village"}}, {"type": "node", "id": 7567936909, "lat": 9.8934892, "lon": 124.0989593, "tags": {"name": "San Vicente Sur", "place": "village"}}, {"type": "node", "id": 7567980397, "lat": 9.8798363, "lon": 124.0733223, "tags": {"admin_level": "10", "admin_type:PH": "barangay", "gns_classification": "ADM3", "is_in:municipality": "Sagbayan", "name": "Santa Catalina", "old_ref": "071236022", "place": "village", "population": "1261", "ref": "0701236022", "source:population": "Philippine Statistics Authority"}}, {"type": "node", "id": 7567980448, "lat": 9.8997586, "lon": 124.0871325, "tags": {"name": "Sagbayan Sur", "place": "village"}}, {"type": "node", "id": 7567982678, "lat": 9.8642982, "lon": 124.0834652, "tags": {"admin_type:PH": "barangay", "gns_classification": "ADM3", "is_in:municipality": "Catigbian", "name": "Maitum", "old_ref": "071213019", "place": "village", "population": "881", "ref": "0701213019", "source:population": "Philippine Statistics Authority"}}, {"type": "node", "id": 7567986940, "lat": 9.8256441, "lon": 124.0626758, "tags": {"name": "Mahayag Norte", "place": "village"}}, {"type": "node", "id": 7567989416, "lat": 9.847217, "lon": 124.0829366, "tags": {"name": "Kang-iras", "place": "village"}}, {"type": "node", "id": 7567995199, "lat": 9.8418837, "lon": 124.0573126, "tags": {"name": "Bagtic", "place": "village"}}, {"type": "node", "id": 7568008990, "lat": 9.8719275, "lon": 124.0913848, "tags": {"admin_level": "10", "admin_type:PH": "barangay", "gns_classification": "ADM3", "is_in:municipality": "Sagbayan", "name": "San Roque", "old_ref": "071236019", "place": "hamlet", "population": "464", "ref": "0701236019", "source:population": "Philippine Statistics Authority"}}, {"type": "node", "id": 7576529771, "lat": 9.9467755, "lon": 124.0345607, "tags": {"admin_level": "10", "admin_type:PH": "barangay", "is_in:town": "Clarin", "name": "Bontud", "place": "village", "source:name": "extrapolated from OSMaPaaralan, way/810370151"}}, {"type": "node", "id": 7576543652, "lat": 9.8885583, "lon": 124.0285333, "tags": {"name": "Causwagan Norte", "place": "village"}}, {"type": "node", "id": 7576559413, "lat": 9.9192481, "lon": 124.0779283, "tags": {"name": "Santa Cruz", "place": "village"}}, {"type": "node", "id": 7576560558, "lat": 9.9141721, "lon": 124.0651677, "tags": {"name": "Calangahan", "place": "village"}}, {"type": "node", "id": 7576568199, "lat": 9.934937, "lon": 124.0809233, "tags": {"name": "Canmaya Centro", "place": "village"}}, {"type": "node", "id": 7576925352, "lat": 9.7619238, "lon": 123.8480586, "tags": {"name": "Pagnitoan", "place": "village"}}, {"type": "node", "id": 7576930769, "lat": 9.7408052, "lon": 123.866983, "tags": {"admin_level": "10", "admin_type:PH": "barangay", "is_in:town": "Maribojoc", "name": "Aliguay", "old_ref": "071232003", "place": "village", "population": "1000", "population:2015": "971", "ref": "0701232003"}}, {"type": "node", "id": 7576939275, "lat": 9.7398537, "lon": 123.890857, "tags": {"name": "Agahay", "place": "village"}}, {"type": "node", "id": 7579185752, "lat": 9.7542213, "lon": 123.8951968, "tags": {"name": "Toril", "place": "village"}}, {"type": "node", "id": 7579228564, "lat": 9.7923374, "lon": 123.9233963, "tags": {"name": "Bicahan", "place": "village"}}, {"type": "node", "id": 7579228565, "lat": 9.7923702, "lon": 123.9374581, "tags": {"name": "Bantolinao", "place": "village"}}, {"type": "node", "id": 7579234705, "lat": 9.7751794, "lon": 123.9171756, "tags": {"name": "Bungahan", "place": "village"}}, {"type": "node", "id": 7579239620, "lat": 9.7648507, "lon": 123.905435, "tags": {"name": "Bitaugan", "place": "village"}}, {"type": "node", "id": 7579240411, "lat": 9.7732672, "lon": 123.9596763, "tags": {"name": "Dorol", "place": "village"}}, {"type": "node", "id": 7579242085, "lat": 9.7577324, "lon": 123.9168625, "tags": {"name": "Tupas", "place": "village"}}, {"type": "node", "id": 7579247036, "lat": 9.777745, "lon": 123.977432, "tags": {"name": "Sal-ing", "place": "village"}}, {"type": "node", "id": 7579259240, "lat": 9.7751784, "lon": 123.8877234, "tags": {"name": "Villa Aurora", "place": "village"}}, {"type": "node", "id": 7579263834, "lat": 9.7973161, "lon": 123.9763044, "tags": {"name": "Cantomimbo", "place": "village"}}, {"type": "node", "id": 7579285551, "lat": 9.8101409, "lon": 123.9503936, "tags": {"name": "Baunos", "place": "village"}}, {"type": "node", "id": 7579296044, "lat": 9.8490258, "lon": 123.9711311, "tags": {"name": "Caimbang", "place": "village"}}, {"type": "node", "id": 7579304899, "lat": 9.796668, "lon": 123.9063742, "tags": {"name": "Danao", "place": "village"}}, {"type": "node", "id": 7579312149, "lat": 9.7918898, "lon": 124.0304177, "tags": {"name": "Boyog Sur", "place": "village"}}, {"type": "node", "id": 7579312155, "lat": 9.7996436, "lon": 124.0333099, "tags": {"name": "Boyog Proper", "place": "village"}}, {"type": "node", "id": 7579325151, "lat": 9.8366213, "lon": 123.9926738, "tags": {"name": "Sinakayanan", "place": "village"}}, {"type": "node", "id": 7579333809, "lat": 9.866673, "lon": 123.8826029, "tags": {"name": "Camias", "place": "village"}}, {"type": "node", "id": 7579333814, "lat": 9.879726, "lon": 123.8988892, "tags": {"admin_level": "10", "admin_type:PH": "barangay", "is_in:town": "Calape", "name": "Tinibgan", "place": "village", "source:name": "extrapolated from OSMaPaaralan, way/810642321"}}, {"type": "node", "id": 7579343154, "lat": 9.8119691, "lon": 124.0104843, "tags": {"name": "Ambuan", "place": "village"}}, {"type": "node", "id": 7579346056, "lat": 9.8386875, "lon": 123.9628591, "tags": {"name": "Cansague Norte", "place": "village"}}, {"type": "node", "id": 7585439209, "lat": 9.8899374, "lon": 123.9676201, "tags": {"admin_level": "10", "admin_type:PH": "barangay", "gns_classification": "ADM3", "is_in:town": "San Isidro", "name": "Cabanugan", "old_ref": "071237005", "place": "village", "population": "1047", "ref": "0701237005", "source:name": "extrapolated from OSMaPaaralan, way/811869583", "source:population": "Philippine Statistics Authority"}}, {"type": "node", "id": 7586342383, "lat": 9.850172, "lon": 124.0535868, "tags": {"fixme": "name", "place": "neighbourhood"}}, {"type": "node", "id": 7586543426, "lat": 9.921374, "lon": 124.0399195, "tags": {"name": "Tubod", "place": "village"}}, {"type": "node", "id": 7588338683, "lat": 10.0225969, "lon": 124.0740503, "tags": {"admin_type:PH": "barangay", "gns_classification": "ADM3", "is_in:municipality": "Inabanga", "name": "Tambooc", "old_ref": "071224050", "place": "village", "population": "506", "ref": "0701224050", "source:population": "Philippine Statistics Authority"}}, {"type": "node", "id": 7588338684, "lat": 10.0023541, "lon": 124.0851693, "tags": {"name": "Cainsican", "place": "village"}}, {"type": "node", "id": 7588348785, "lat": 10.0131272, "lon": 124.083965, "tags": {"admin_level": "10", "admin_type:PH": "barangay", "is_in:town": "Inabanga", "name": "Lonoy Roma", "place": "village", "source:name": "extrapolated from OSMaPaaralan, way/800907333"}}, {"type": "node", "id": 7601182006, "lat": 9.7682727, "lon": 123.8562933, "tags": {"is_in:town": "Maribojoc", "name": "San Isidro", "place": "village"}}, {"type": "node", "id": 7601201784, "lat": 9.7843438, "lon": 123.8975054, "tags": {"is_in:town": "Antequera", "name": "Poblacion", "place": "village"}}, {"type": "node", "id": 7601232980, "lat": 9.7882398, "lon": 123.9960122, "tags": {"admin_level": "12", "admin_type:PH": "purok", "is_in:town": "Balilihan", "is_in:village": "San Roque", "name": "San Isidro", "place": "neighbourhood", "source:name": "extrapolated from OSMaPaaralan, way/813751426"}}, {"type": "node", "id": 7642406984, "lat": 10.1639583, "lon": 123.6847358, "tags": {"admin_level": "10", "designation": "barangay", "is_in:town": "San Fernando", "name": "Tonggo", "place": "village", "population": "2479", "population:date": "2020-05-01", "ref": "072241022", "source:population": "Philippine Statistics Authority"}}, {"type": "node", "id": 7832402392, "lat": 9.7476845, "lon": 123.9011688, "tags": {"name": "Busao", "place": "village"}}, {"type": "node", "id": 7834022418, "lat": 9.7577896, "lon": 123.7922888, "tags": {"name": "Taytay", "place": "village", "population": "500"}}, {"type": "node", "id": 7968419930, "lat": 10.1758899, "lon": 123.6837597, "tags": {"admin_level": "10", "designation": "barangay", "is_in:town": "San Fernando", "name": "Tinubdan", "place": "village", "population": "1764", "population:date": "2020-05-01", "ref": "072241021", "source:name": "extrapolated from OSMaPaaralan, way/854474736", "source:population": "Philippine Statistics Authority"}}, {"type": "node", "id": 7968459435, "lat": 10.1734025, "lon": 123.6663848, "tags": {"admin_level": "11", "designation": "purok", "is_in:town": "San Fernando", "is_in:village": "Basak", "name": "Balud", "place": "neighbourhood", "source:name": "extrapolated from OSMaPaaralan"}}, {"type": "node", "id": 8374735594, "lat": 9.8894416, "lon": 123.9384198, "tags": {"admin_level": "10", "designation": "barangay", "is_in:town": "Calape", "name": "Banlasan", "place": "village", "source:name": "extrapolated from OSMaPaaralan, way/810656614"}}, {"type": "node", "id": 8732681983, "lat": 9.9492512, "lon": 123.9597246, "tags": {"admin_level": "11", "designation": "purok", "is_in:town": "Tubigon", "is_in:village": "Pooc Occidental", "name": "Purok 2", "place": "neighbourhood", "source:name": "extrapolated from OSMaPaaralan"}}, {"type": "node", "id": 8732681984, "lat": 9.9520092, "lon": 123.9618248, "tags": {"description": "poblacion", "is_in:town": "Tubigon", "name": "Poblacion", "place": "suburb", "source:name": "extrapolated from OSMaPaaralan"}}, {"type": "node", "id": 8732691564, "lat": 9.9485009, "lon": 123.9635709, "tags": {"admin_level": "10", "admin_type:PH": "barangay", "is_in:town": "Tubigon", "name": "Pooc Oriental", "place": "village", "population": "2463", "population:2015": "2533", "ref": "071245027", "source:name": "extrapolated from OSMaPaaralan", "source:population": "Philippine Statistics Authority"}}, {"type": "node", "id": 9106402307, "lat": 9.8324319, "lon": 124.0420336, "tags": {"admin_level": "10", "admin_type:PH": "barangay", "is_in:town": "Catigbian", "name": "Cambailan", "place": "village", "source:name": "extrapolated from OSMaPaaralan, way/807967833"}}, {"type": "node", "id": 9106412804, "lat": 9.7749048, "lon": 123.8009727, "tags": {"admin_level": "10", "admin_type:PH": "barangay", "is_in:town": "Loon", "name": "Cabug", "place": "village", "source:name": "extrapolated from OSMaPaaralan, way/984995256"}}, {"type": "node", "id": 9106430461, "lat": 9.7869949, "lon": 123.8085875, "tags": {"admin_level": "10", "admin_type:PH": "barangay", "is_in:town": "Loon", "is_in:village": "?", "name": "Tiwi", "place": "village", "source:name": "extrapolated from OSMaPaaralan, way/984994558", "way": "984994558"}}, {"type": "node", "id": 9106443046, "lat": 9.7646831, "lon": 123.7863359, "tags": {"admin_level": "10", "admin_type:PH": "barangay", "is_in:town": "Loon", "name": "Tangnan", "place": "village", "source:name": "extrapolated from OSMaPaaralan, way/984995685"}}, {"type": "node", "id": 9106443370, "lat": 9.8156007, "lon": 124.0635308, "tags": {"admin_level": "10", "admin_type:PH": "barangay", "is_in:town": "Catigbian", "name": "Mahayag Sur", "place": "village", "source:name": "extrapolated from OSMaPaaralan, way/984996866"}}, {"type": "node", "id": 9106454737, "lat": 9.8987307, "lon": 124.0597455, "tags": {"admin_level": "10", "admin_type:PH": "barangay", "is_in:town": "Sagbayan", "name": "San Antonio", "place": "village", "source:name": "extrapolated from OSMaPaaralan, way/812709389"}}, {"type": "node", "id": 9106462066, "lat": 9.8602344, "lon": 124.0529126, "tags": {"fixme": "name", "place": "neighbourhood"}}, {"type": "node", "id": 9106462087, "lat": 9.8575839, "lon": 124.0540465, "tags": {"admin_level": "10", "admin_type:PH": "barangay", "is_in:town": "Catigbian", "name": "Liboron", "place": "village", "source:name": "extrapolated from OSMaPaaralan, way/984997887", "way": "984997887"}}, {"type": "node", "id": 9106520818, "lat": 9.9490669, "lon": 124.085653, "tags": {"admin_level": "10", "admin_type:PH": "barangay", "is_in:town": "Sagbayan", "name": "Kagawasan", "place": "village", "source:name": "extrapolated from OSMaPaaralan, way/985005433"}}, {"type": "node", "id": 9106523944, "lat": 9.9698122, "lon": 124.0907586, "tags": {"admin_level": "10", "admin_type:PH": "barangay", "is_in:town": "Inabanga", "name": "Banahao", "place": "village", "source:name": "extrapolated from OSMaPaaralan, way/795138266"}}, {"type": "node", "id": 9106565044, "lat": 10.0433001, "lon": 124.0917959, "tags": {"admin_level": "10", "admin_type:PH": "barangay", "is_in:town": "Inabanga", "is_in:village": "?", "name": "Fatima", "place": "village", "source:name": "extrapolated from OSMaPaaralan, way/985010463"}}, {"type": "node", "id": 9106565065, "lat": 10.039003, "lon": 124.0961136, "tags": {"admin_level": "10", "admin_type:PH": "barangay", "is_in:town": "Inabanga", "name": "Dait Sur", "place": "village", "source:name": "extrapolated from OSMaPaaralan, way/985009946"}}, {"type": "node", "id": 9128388205, "lat": 10.0677475, "lon": 124.0708796, "tags": {"admin_level": "10", "admin_type:PH": "barangay", "name": "Santo Ni\u00f1o", "old_ref": "071224047", "place": "village", "population": "713", "population:2015": "686", "ref": "0701224047"}}, {"type": "node", "id": 9163695904, "lat": 10.0549899, "lon": 124.1024522, "tags": {"admin_level": "10", "admin_type:PH": "barangay", "is_in:town": "Buenavista", "is_in:village": "?", "name": "Cambuhat", "place": "village", "source:name": "extrapolated from OSMaPaaralan, way/487546409"}}, {"type": "node", "id": 9163888224, "lat": 10.036974, "lon": 124.0820958, "tags": {"admin_level": "10", "admin_type:PH": "barangay", "is_in:town": "Inabanga", "name": "San Isidro", "place": "village", "source:name": "extrapolated from OSMaPaaralan, way/801441813"}}, {"type": "node", "id": 9163888262, "lat": 10.0304751, "lon": 124.0795363, "tags": {"admin_level": "10", "admin_type:PH": "barangay", "is_in:municipality": "Inabanga", "name": "Cagayan", "place": "village", "source:name": "extrapolated from OSMaPaaralan"}}, {"type": "node", "id": 9163912461, "lat": 10.0126904, "lon": 124.0968801, "tags": {"admin_level": "10", "admin_type:PH": "barangay", "is_in:town": "Inabanga", "name": "Liloan Sur", "place": "village", "source:name": "extrapolated from OSMaPaaralan, way/800952503"}}, {"type": "node", "id": 9163912462, "lat": 10.0235705, "lon": 124.09796, "tags": {"fixme": "name", "place": "neighbourhood"}}, {"type": "node", "id": 9163912463, "lat": 10.0275999, "lon": 124.1045137, "tags": {"admin_level": "11", "admin_type:PH": "sitio", "is_in:town": "Inabanga", "is_in:village": "Nabuad", "name": "Causlan", "place": "hamlet", "source:name": "extrapolated from OSMaPaaralan, way/991837181"}}, {"type": "node", "id": 9164266243, "lat": 9.7553101, "lon": 123.9717545, "tags": {"is_in:town": "Balilihan", "name": "Poblacion", "place": "suburb"}}, {"type": "node", "id": 9166184865, "lat": 9.8915872, "lon": 123.8739878, "tags": {"is_in:town": "Calape", "name": "Poblacion", "place": "suburb"}}, {"type": "node", "id": 9166185493, "lat": 9.8598037, "lon": 123.9059758, "tags": {"fixme": "name", "place": "neighbourhood"}}, {"type": "node", "id": 9166185494, "lat": 9.8602423, "lon": 123.9143765, "tags": {"fixme": "name", "place": "neighbourhood"}}, {"type": "node", "id": 9166193023, "lat": 9.8758808, "lon": 123.8698894, "tags": {"admin_level": "10", "admin_type:PH": "barangay", "is_in:town": "Calape", "name": "Labu-on", "place": "village", "source:name": "extrapolated from OSMaPaaralan, way/800952519"}}, {"type": "node", "id": 9166375299, "lat": 9.8766042, "lon": 124.0100837, "tags": {"admin_level": "10", "admin_type:PH": "barangay", "gns_classification": "ADM3", "is_in:town": "Catigbi-an", "name": "Candumayao", "old_ref": "071213008", "place": "village", "population": "1605", "ref": "0701213008", "source:name": "extrapolated from OSMaPaaralan, way/809392150", "source:population": "Philippine Statistics Authority"}}, {"type": "node", "id": 9166407641, "lat": 9.8657257, "lon": 124.0317044, "tags": {"admin_level": "10", "admin_type:PH": "barangay", "gns_classification": "ADM3", "is_in:town": "Catigbi-an", "name": "Alegria", "place": "village", "population": "1301", "population:2015": "071213001", "ref": "0701213001", "source:name": "extrapolated from OSMaPaaralan, addr:town=Catigbian", "source:population": "Philippine Statistics Authority"}}, {"type": "node", "id": 9166529867, "lat": 9.9792403, "lon": 124.0475053, "tags": {"fixme": "name", "place": "neighbourhood"}}, {"type": "node", "id": 9166529875, "lat": 9.9692989, "lon": 124.0489074, "tags": {"admin_level": "10", "admin_type:PH": "barangay", "gns_classification": "ADM3", "is_in:municipality": "Clarin", "is_in:town": "Clarin", "name": "Nahawan", "old_ref": "071214017", "place": "village", "population": "2411", "ref": "0701214017", "source:name": "extrapolated from OSMaPaaralan", "source:population": "Philippine Statistics Authority"}}, {"type": "node", "id": 9166594547, "lat": 9.9714672, "lon": 124.0315857, "tags": {"fixme": "name", "place": "neighbourhood"}}, {"type": "node", "id": 9166603876, "lat": 9.9619715, "lon": 124.0447855, "tags": {"fixme": "name", "place": "neighbourhood"}}, {"type": "node", "id": 9168811727, "lat": 9.7400422, "lon": 123.8251998, "tags": {"admin_level": "12", "admin_type:PH": "purok", "is_in:town": "Maribojoc", "is_in:village": "Lagtangon", "name": "San Vicente", "place": "neighbourhood", "source:name": "extrapolated from OSMaPaaralan, way/992374957"}}, {"type": "node", "id": 9168811728, "lat": 9.7399933, "lon": 123.8251474, "tags": {"admin_level": "10", "admin_type:PH": "barangay", "is_in:town": "Maribojoc", "name": "Lagtangon", "place": "village", "source:name": "extrapolated from OSMaPaaralan, way/992374957"}}, {"type": "node", "id": 9168831318, "lat": 9.7665572, "lon": 123.8623068, "tags": {"fixme": "name", "place": "neighbourhood"}}, {"type": "node", "id": 9168831342, "lat": 9.7758379, "lon": 123.8685228, "tags": {"fixme": "name", "place": "neighbourhood"}}, {"type": "node", "id": 9168831376, "lat": 9.7711183, "lon": 123.8631141, "tags": {"admin_level": "10", "admin_type:PH": "barangay", "is_in:town": "Maribojoc", "name": "Tinibgan", "place": "village", "source:name": "extrapolated from OSMaPaaralan, way/992377240"}}, {"type": "node", "id": 9171002438, "lat": 9.9386425, "lon": 123.9446627, "tags": {"admin_level": "10", "admin_type:PH": "barangay", "is_in:town": "Tubigon", "is_in:village": "?", "name": "Pinayagan Norte", "place": "village", "source:name": "extrapolated from OSMaPaaralan, way/992619877"}}, {"type": "node", "id": 9171042230, "lat": 9.9191773, "lon": 123.9268996, "tags": {"admin_level": "10", "admin_type:PH": "barangay", "is_in:town": "Tubigon", "name": "Cahayag", "place": "village", "source:name": "extrapolated from OSMaPaaralan, way/756857841"}}, {"type": "node", "id": 9171042266, "lat": 9.9306703, "lon": 123.9122066, "tags": {"admin_level": "10", "admin_type:PH": "barangay", "is_in:town": "Tubigon", "name": "Matabao", "place": "village", "source:name": "extrapolated from OSMaPaaralan, way/992621681"}}, {"type": "node", "id": 9171233746, "lat": 9.9385636, "lon": 123.9727905, "tags": {"admin_level": "10", "admin_type:PH": "barangay", "is_in:municipality": "Tubigon", "name": "Ubojan", "official_name": "Barangay Ubojan", "place": "village"}}, {"type": "node", "id": 9174098062, "lat": 10.1719076, "lon": 123.6521395, "tags": {"admin_level": "11", "designation": "sitio", "is_in:city": "Carcar", "is_in:village": "Calidngan", "name": "Pit-os", "place": "hamlet"}}, {"type": "node", "id": 9610482337, "lat": 9.8529302, "lon": 123.8252011, "tags": {"admin_level": "10", "admin_type:PH": "barangay", "gns_classification": "ADM3", "is_in:town": "Loon", "name": "Catagbacan Norte", "old_ref": "071230030", "place": "village", "population": "1158", "population:2015": "1267", "ref": "0701230030", "source:name": "extrapolated from way:800590399", "source:population": "Philippine Statistics Authority"}}, {"type": "node", "id": 9861545893, "lat": 10.0701485, "lon": 124.0236296, "tags": {"admin_level": "10", "admin_type:PH": "barangay", "is_in:town": "Inabanga", "name": "Hambongan", "old_ref": "071224022", "place": "village", "population": "685", "population:2015": "666", "ref": "0701224022", "source": "extrapolation", "source_ref": "https://osm.org/way/901506633"}}, {"type": "node", "id": 9863271661, "lat": 9.8594965, "lon": 123.8382078, "tags": {"admin_level": "10", "admin_type:PH": "barangay", "gns_classification": "ADM3", "is_in:town": "Loon", "name": "Cantumocad", "old_ref": "071230034", "place": "village", "population": "771", "ref": "0701230034", "source": "extrapolation", "source:population": "Philippine Statistics Authority", "source_ref": "https://osm.org/way/800590400"}}, {"type": "node", "id": 10246898622, "lat": 9.9329485, "lon": 123.9331967, "tags": {"is_in:town": "Tubigon", "name": "Panaytayon", "place": "village"}}, {"type": "node", "id": 10246898683, "lat": 9.9305907, "lon": 123.9236453, "tags": {"is_in:town": "Tubigon", "name": "Pandan", "place": "village"}}, {"type": "node", "id": 10246898684, "lat": 9.929338, "lon": 123.94629, "tags": {"is_in:town": "Tubigon", "name": "Pinayagan Sur", "place": "village"}}, {"type": "node", "id": 10246898685, "lat": 9.9193592, "lon": 123.9399687, "tags": {"is_in:town": "Tubigon", "name": "Ilihan Norte", "place": "village"}}, {"type": "node", "id": 10246898686, "lat": 9.9024045, "lon": 123.9569501, "tags": {"is_in:town": "Tubigon", "name": "Ilihan Sur", "place": "village"}}, {"type": "node", "id": 10246898692, "lat": 9.9108423, "lon": 123.9360046, "tags": {"is_in:town": "Tubigon", "name": "Panadtaran", "place": "village"}}, {"type": "node", "id": 10246898693, "lat": 9.9078638, "lon": 123.9315371, "tags": {"is_in:town": "Tubigon", "name": "Villanueva", "place": "village"}}, {"type": "node", "id": 10246898694, "lat": 9.9033572, "lon": 123.9261088, "tags": {"is_in:town": "Calape", "name": "Mandaug", "place": "village"}}, {"type": "node", "id": 10246898695, "lat": 9.9022502, "lon": 123.9431587, "tags": {"is_in:town": "Tubigon", "name": "Banlasan", "place": "village"}}, {"type": "node", "id": 10246898696, "lat": 9.9071039, "lon": 123.9103421, "tags": {"admin_level": "10", "admin_type:PH": "barangay", "gns_classification": "ADM3", "is_in:town": "Calape", "name": "Abucayan Sur", "old_ref": "071210002", "place": "village", "population": "844", "ref": "0701210002", "source:population": "Philippine Statistics Authority"}}, {"type": "node", "id": 10246898698, "lat": 9.9005349, "lon": 123.9150779, "tags": {"is_in:town": "Calape", "name": "Lucob", "place": "village"}}, {"type": "node", "id": 10246898699, "lat": 9.9297957, "lon": 123.9614369, "tags": {"is_in:town": "Tubigon", "name": "Genonocan", "place": "village"}}, {"type": "node", "id": 10246898714, "lat": 9.9152078, "lon": 123.9737514, "tags": {"is_in:town": "Tubigon", "name": "Tan-awan", "place": "village"}}, {"type": "node", "id": 10262604270, "lat": 10.1431273, "lon": 123.6598224, "tags": {"admin_level": "11", "designation": "sitio", "is_in:village": "Can-asujan", "name": "Saay", "place": "hamlet"}}, {"type": "node", "id": 10272562160, "lat": 10.098206, "lon": 123.6554829, "tags": {"admin_level": "11", "designation": "sitio", "is_in:village": "Valladolid", "name": "Tawog", "place": "hamlet"}}, {"type": "node", "id": 10538368241, "lat": 10.1388856, "lon": 123.6748087, "tags": {"admin_level": "10", "designation": "barangay", "is_in:town": "San Fernando", "name": "Greenhills", "place": "village", "population": "3229", "population:date": "2020-05-01", "ref": "072241009", "source:population": "Philippine Statistics Authority"}}, {"type": "node", "id": 10542157821, "lat": 10.169498, "lon": 123.6536605, "tags": {"admin_level": "10", "designation": "barangay", "is_in:town": "San Fernando", "name": "Lantawan", "place": "village", "population": "2157", "population:date": "2020-05-01", "ref": "072241010", "source:population": "Philippine Statistics Authority"}}, {"type": "node", "id": 10542157826, "lat": 10.178425, "lon": 123.6657649, "tags": {"admin_level": "10", "designation": "barangay", "is_in:town": "San Fernando", "name": "Basak", "place": "village", "population": "948", "population:date": "2020-05-01", "ref": "072241005", "source:population": "Philippine Statistics Authority"}}, {"type": "node", "id": 10542161936, "lat": 10.1830633, "lon": 123.6990765, "tags": {"admin_level": "10", "alt_name": "Tananas", "designation": "barangay", "is_in:town": "San Fernando", "name": "Ta\u00f1a\u00f1as", "place": "village", "population": "1861", "population:date": "2020-05-01", "ref": "072241020", "source:population": "Philippine Statistics Authority"}}, {"type": "node", "id": 11004569861, "lat": 9.9424716, "lon": 123.8555588, "tags": {"admin_level": "10", "admin_type:PH": "barangay", "is_in:town": "Calape", "name": "Mantatao", "old_ref": "071210025", "place": "village", "population": "972", "population:2015": "849", "ref": "0701210025", "source:population": "Philippine Statistics Authority"}}, {"type": "node", "id": 11065522447, "lat": 9.8183969, "lon": 123.816162, "tags": {"admin_level": "10", "admin_type:PH": "barangay", "is_in:town": "Loon", "name": "Ticugan", "place": "village"}}, {"type": "node", "id": 11065522448, "lat": 9.8190577, "lon": 123.8022387, "tags": {"admin_level": "10", "admin_type:PH": "barangay", "is_in:town": "Loon", "name": "Basac", "place": "village"}}, {"type": "node", "id": 12260516764, "lat": 9.914794, "lon": 124.096131, "tags": {"admin_level": "11", "admin_type:PH": "sitio", "is_in:quarter": "Poblacion", "is_in:town": "Sagbayan", "name": "School Site", "place": "neighbourhood"}}, {"type": "node", "id": 12260516784, "lat": 9.9127675, "lon": 124.0921949, "tags": {"admin_level": "11", "admin_type:PH": "sitio", "is_in:quarter": "Poblacion", "is_in:town": "Sagbayan", "name": "Fabrica", "place": "neighbourhood"}}, {"type": "node", "id": 12528936493, "lat": 10.0045521, "lon": 124.0609364, "tags": {"admin_level": "10", "admin_type:PH": "barangay", "gns_classification": "ADM3", "is_in:municipality": "Inabanga", "name": "Cagawasan", "old_ref": "071224010", "place": "village", "population": "1567", "ref": "0701224010", "source:population": "Philippine Statistics Authority"}}, {"type": "node", "id": 12528948374, "lat": 10.0241469, "lon": 124.069034, "tags": {"admin_level": "10", "admin_type:PH": "barangay", "gns_classification": "ADM3", "is_in:municipality": "Inabanga", "name": "Cogon", "old_ref": "071224015", "place": "village", "population": "812", "ref": "0701224015", "source:population": "Philippine Statistics Authority"}}, {"type": "node", "id": 12530906514, "lat": 9.8842018, "lon": 124.0930304, "tags": {"admin_level": "10", "admin_type:PH": "barangay", "gns_classification": "ADM3", "is_in:municipality": "Sagbayan", "name": "Ubojan", "old_ref": "071236024", "place": "village", "population": "1113", "ref": "0701236024", "source:population": "Philippine Statistics Authority"}}, {"type": "node", "id": 12617104938, "lat": 10.1070382, "lon": 123.6599086, "tags": {"admin_type:PH": "sitio", "is_in:city": "Carcar", "is_in:quarter": "Valladolid", "name": "Pungtud", "place": "neighbourhood"}}, {"type": "node", "id": 12657744769, "lat": 9.7910045, "lon": 123.8576934, "tags": {"admin_level": "10", "admin_type:PH": "barangay", "gns_classification": "ADM3", "name": "Candavid", "old_ref": "071232009", "place": "village", "population": "579", "ref": "0701232009", "source:population": "Philippine Statistics Authority"}}, {"type": "node", "id": 12657753068, "lat": 9.7858266, "lon": 123.881337, "tags": {"admin_level": "10", "admin_type:PH": "barangay", "alt_name": "Tagubaas", "gns_classification": "ADM3", "is_in:town": "Antequera", "name": "Taguba-as", "old_ref": "071204018", "place": "hamlet", "population": "421", "ref": "0701204018", "source:population": "Philippine Statistics Authority"}}, {"type": "node", "id": 12657776823, "lat": 9.7865416, "lon": 123.8755783, "tags": {"admin_level": "10", "admin_type:PH": "barangay", "alt_name": "Ubojan", "gns_classification": "ADM3", "is_in:town": "Antequera", "name": "Obujan", "old_ref": "071204020", "place": "village", "population": "552", "ref": "0701204020", "source:population": "Philippine Statistics Authority"}}, {"type": "node", "id": 12657797878, "lat": 9.8088876, "lon": 123.8667284, "tags": {"admin_level": "10", "admin_type:PH": "barangay", "gns_classification": "ADM3", "is_in:town": "Loon", "name": "Cansubayon", "old_ref": "071230028", "place": "hamlet", "population": "444", "ref": "0701230028", "source:population": "Philippine Statistics Authority"}}, {"type": "node", "id": 12657998692, "lat": 9.8348553, "lon": 123.9266932, "tags": {"admin_level": "10", "admin_type:PH": "barangay", "gns_classification": "ADM3", "is_in:town": "San Isidro", "name": "Abehilan", "old_ref": "071237002", "place": "village", "population": "731", "ref": "0701237002", "source:population": "Philippine Statistics Authority"}}, {"type": "node", "id": 12658092723, "lat": 9.8724125, "lon": 123.8561229, "tags": {"admin_level": "10", "admin_type:PH": "barangay", "gns_classification": "ADM3", "is_in:town": "Calape", "name": "Tultugan", "old_ref": "071210033", "place": "village", "population": "953", "ref": "0701210033", "source:population": "Philippine Statistics Authority"}}, {"type": "node", "id": 12658146520, "lat": 9.860714, "lon": 123.8410597, "tags": {"admin_level": "10", "admin_type:PH": "barangay", "gns_classification": "ADM3", "is_in:town": "Loon", "name": "Pondol", "old_ref": "071230052", "place": "village", "population": "1721", "ref": "0701230052", "source:population": "Philippine Statistics Authority"}}, {"type": "node", "id": 12658181172, "lat": 9.846202, "lon": 123.8375017, "tags": {"admin_level": "10", "admin_type:PH": "barangay", "gns_classification": "ADM3", "is_in:town": "Loon", "name": "Nueva Vida", "old_ref": "071230046", "place": "hamlet", "population": "334", "ref": "0701230046", "source:population": "Philippine Statistics Authority"}}, {"type": "node", "id": 12658275451, "lat": 9.8961373, "lon": 123.956463, "tags": {"admin_level": "10", "admin_type:PH": "barangay", "gns_classification": "ADM3", "is_in:town": "San Isidro", "name": "Baryong Daan", "old_ref": "071237014", "place": "hamlet", "population": "326", "ref": "071237014", "source:population": "Philippine Statistics Authority"}}, {"type": "node", "id": 12661003482, "lat": 9.8791891, "lon": 123.9871515, "tags": {"admin_level": "10", "admin_type:PH": "barangay", "gns_classification": "ADM3", "is_in:town": "Catigbian", "name": "Libertad Sur", "old_ref": "071213015", "place": "village", "population": "409", "ref": "0701213015", "source:population": "Philippine Statistics Authority"}}, {"type": "node", "id": 12662074288, "lat": 9.9024206, "lon": 124.0082753, "tags": {"admin_level": "10", "admin_type:PH": "barangay", "gns_classification": "ADM3", "is_in:town": "Tubigon", "name": "Buenos Aires", "old_ref": "071245007", "place": "village", "population": "1248", "ref": "0701245007", "source:population": "Philippine Statistics Authority"}}, {"type": "node", "id": 12662318489, "lat": 9.7561754, "lon": 124.054027, "tags": {"admin_level": "10", "admin_type:PH": "barangay", "gns_classification": "ADM3", "is_in:town": "Sevilla", "name": "Magsaysay", "old_ref": "071239013", "place": "village", "population": "1241", "ref": "0701239013", "source:population": "Philippine Statistics Authority"}}, {"type": "node", "id": 12766972376, "lat": 9.9012858, "lon": 123.9026365, "tags": {"admin_level": "10", "admin_type:PH": "barangay", "gns_classification": "ADM3", "is_in:town": "Calape", "name": "Calunasan", "old_ref": "071210009", "place": "village", "population": "926", "ref": "0701210009", "source:population": "Philippine Statistics Authority"}}, {"type": "node", "id": 12766996129, "lat": 9.8980625, "lon": 123.8961013, "tags": {"admin_level": "10", "admin_type:PH": "barangay", "gns_classification": "ADM3", "name": "Bentig", "old_ref": "071210004", "place": "village", "population": "2369", "ref": "0701210004", "source:population": "Philippine Statistics Authority"}}, {"type": "node", "id": 12767058369, "lat": 9.8865608, "lon": 123.8873479, "tags": {"admin_level": "10", "admin_type:PH": "barangay", "gns_classification": "ADM3", "is_in:town": "Calape", "name": "Bonbon", "old_ref": "071210006", "place": "village", "population": "1371", "ref": "0701210006", "source:population": "Philippine Statistics Authority"}}, {"type": "node", "id": 12767913054, "lat": 9.7824793, "lon": 123.7863325, "tags": {"admin_level": "10", "admin_type:PH": "barangay", "gns_classification": "ADM3", "is_in:town": "Loon", "name": "Basdacu", "old_ref": "071230009", "place": "village", "population": "866", "ref": "0701230009", "source:population": "Philippine Statistics Authority"}}, {"type": "node", "id": 12771262743, "lat": 10.0294287, "lon": 124.0918288, "tags": {"admin_level": "10", "admin_type:PH": "barangay", "gns_classification": "ADM3", "is_in:town": "Inabanga", "name": "Nabuad", "old_ref": "071224039", "place": "village", "population": "2294", "ref": "0701224039", "source:population": "Philippine Statistics Authority"}}]}