{"version": 0.6, "generator": "Overpass API 0.7.62.5 1bd436f1", "osm3s": {"timestamp_osm_base": "2025-05-24T18:01:29Z", "copyright": "The data included in this document is from www.openstreetmap.org. The data is made available under ODbL."}, "elements": [{"type": "node", "id": 198531128, "lat": 6.6336717, "lon": 124.0657013, "tags": {"admin_level": "6", "gns_classification": "ADM2", "gns_uni": "-3353637", "is_in:province": "Sultan Kudarat", "name": "Lebak", "place": "town", "place:PH": "municipality", "population": "88868", "population:date": "2015-08-01", "source": "GNS", "source:population": "Philippine Statistics Authority", "wikidata": "Q173460", "wikimedia_commons": "Category:Lebak", "wikipedia": "en:Lebak, Sultan Kudarat"}}, {"type": "node", "id": 911612807, "lat": 6.6799014, "lon": 124.0799006, "tags": {"admin_level": "11", "fixme": "confirm location", "name": "Tigo", "place": "hamlet", "place:PH": "sitio", "source": "NGA-GNS-07062010"}}, {"type": "node", "id": 911612824, "lat": 6.7556394, "lon": 124.0414028, "tags": {"admin_level": "11", "is_in:town": "Lebak", "is_in:village": "Tran", "name": "Babato", "place": "hamlet", "place:PH": "sitio"}}, {"type": "node", "id": 911612828, "lat": 6.6856977, "lon": 124.0693757, "tags": {"admin_level": "10", "is_in:town": "Lebak", "name": "Purikay", "place": "village", "place:PH": "barangay"}}, {"type": "node", "id": 911612842, "lat": 6.7282053, "lon": 124.061221, "tags": {"admin_level": "10", "is_in:town": "Lebak", "name": "Kalamongog", "place": "village", "place:PH": "barangay"}}, {"type": "node", "id": 1752447033, "lat": 6.6955232, "lon": 124.0840127, "tags": {"admin_level": "10", "is_in:town": "Lebak", "name": "Pansud", "place": "village", "place:PH": "barangay"}}, {"type": "node", "id": 6081454569, "lat": 6.6284959, "lon": 124.0525512, "tags": {"admin_level": "10", "is_in:town": "Lebak", "name": "Tibpuan", "place": "village", "place:PH": "barangay"}}, {"type": "node", "id": 6081454610, "lat": 6.6309716, "lon": 124.0637843, "tags": {"admin_level": "10", "is_in:town": "Lebak", "name": "Poblacion III", "place": "village", "place:PH": "barangay"}}, {"type": "node", "id": 6081454611, "lat": 6.631009, "lon": 124.0669869, "tags": {"admin_level": "10", "is_in:town": "Lebak", "name": "Poblacion I", "place": "village", "place:PH": "barangay"}}, {"type": "node", "id": 6081454612, "lat": 6.6348349, "lon": 124.0644871, "tags": {"admin_level": "10", "alt_name": "Poblacion II", "is_in:town": "Lebak", "name": "Aurelio F. Freires", "official_name": "Aurelio F. Freires (Poblacion II)", "place": "village", "place:PH": "barangay"}}, {"type": "node", "id": 6081454613, "lat": 6.6572193, "lon": 124.0425558, "tags": {"admin_level": "10", "admin_type:PH": "barangay", "alt_name": "Kinodalan", "is_in:town": "Lebak", "name": "Kinudalan", "old_ref": "126506010", "place": "village", "population": "2896", "population:date": "2020-05-01", "postal_code": "9807", "ref": "1206506010"}}, {"type": "node", "id": 6081454616, "lat": 6.6590545, "lon": 124.0698219, "tags": {"admin_level": "10", "admin_type:PH": "barangay", "alt_name": "Barurao \u2160;Barurao 1", "is_in:town": "Lebak", "name": "Barurao", "place": "village"}}, {"type": "node", "id": 6081454617, "lat": 6.667136, "lon": 124.0743793, "tags": {"admin_level": "10", "admin_type:PH": "barangay", "alt_name": "Barurao 2", "is_in:municipality": "Lebak", "name": "Barurao II", "official_name": "Barangay Barurao II", "old_ref": "126506026", "place": "village", "population": "2195", "population:2015": "1865", "population:date": "2020-05-01"}}, {"type": "node", "id": 6081454619, "lat": 6.6956114, "lon": 124.0540901, "tags": {"admin_level": "10", "admin_type:PH": "barangay", "is_in:municipality": "Lebak", "name": "Taguisa", "old_ref": "126506022", "place": "village", "population": "3900", "population:date": "2020-05-01", "ref": "1206506022"}}, {"type": "node", "id": 6081454620, "lat": 6.7188757, "lon": 124.0307508, "tags": {"admin_level": "10", "is_in:town": "Lebak", "name": "Datu Karon", "place": "village", "place:PH": "barangay"}}, {"type": "node", "id": 6081454621, "lat": 6.7185921, "lon": 124.0525421, "tags": {"admin_level": "10", "admin_type:PH": "barangay", "is_in:town": "Lebak", "is_in:village": "Tran", "name": "Tran", "place": "village", "place:PH": "barangay", "source:name": "extrapolated from OSMaPaaralan, way/998045310"}}, {"type": "node", "id": 6083189070, "lat": 6.8698557, "lon": 123.976008, "tags": {"name": "Resa", "place": "village"}}, {"type": "node", "id": 6084398122, "lat": 7.035182, "lon": 124.0021425, "tags": {"admin_level": "10", "is_in:town": "Datu Blah T. Sinsuat", "name": "Tubuan", "place": "village", "place:PH": "barangay"}}, {"type": "node", "id": 6084398161, "lat": 7.0080381, "lon": 123.9963484, "tags": {"admin_level": "10", "admin_type:PH": "barangay", "is_in:municipality": "Datu Blah T. Sinsuat", "name": "Nalkan", "old_ref": "153830006", "place": "village", "population": "2330", "population:date": "2020-05-01", "ref": "1908704006"}}, {"type": "node", "id": 6084525732, "lat": 6.9583668, "lon": 123.9713428, "tags": {"admin_level": "10", "admin_type:PH": "barangay", "is_in:municipality": "Datu Blah T. Sinsuat", "name": "Tambak", "old_ref": "153830011", "place": "village", "population": "1292", "population:date": "2020-05-01", "ref": "1908704012"}}, {"type": "node", "id": 6084525733, "lat": 6.9267901, "lon": 123.9718041, "tags": {"admin_level": "10", "admin_type:PH": "barangay", "is_in:municipality": "Datu Blah T. Sinsuat", "name": "Kinimi", "old_ref": "153830001", "place": "village", "population": "2654", "population:date": "2020-05-01", "ref": "1908704001"}}, {"type": "node", "id": 6084525784, "lat": 6.8311527, "lon": 123.9640892, "tags": {"name": "Lapaken", "place": "village"}}, {"type": "node", "id": 6084528103, "lat": 6.7719691, "lon": 123.9786246, "tags": {"name": "Sedem", "place": "village"}}, {"type": "node", "id": 6084528169, "lat": 6.7943036, "lon": 124.0111197, "tags": {"admin_level": "10", "admin_type:PH": "barangay", "is_in:municipality": "Datu Blah T. Sinsuat", "name": "Meti", "old_ref": "153830005", "place": "village", "population": "976", "population:date": "2020-05-01", "ref": "1908704005"}}, {"type": "node", "id": 6084528170, "lat": 6.7896151, "lon": 124.0264683, "tags": {"admin_level": "10", "admin_type:PH": "barangay", "is_in:municipality": "Datu Blah T. Sinsuat", "name": "Sinipak", "old_ref": "153830010", "place": "village", "population": "1488", "population:date": "2020-05-01", "ref": "1908704011"}}, {"type": "node", "id": 6084528171, "lat": 6.771297, "lon": 124.0360321, "tags": {"admin_level": "10", "is_in:town": "Datu Blah T. Sinsuat", "name": "Laguitan", "place": "village", "place:PH": "barangay"}}, {"type": "node", "id": 7715214967, "lat": 6.6295043, "lon": 124.0532452, "tags": {"name": "Bangus", "place": "neighbourhood", "source": "OSMaPaaralan/DepEd extrapolation"}}, {"type": "node", "id": 8140133524, "lat": 6.6907735, "lon": 124.0664685, "tags": {"admin_level": "11", "is_in:town": "Lebak", "is_in:village": "Purikay", "name": "Kumalawit", "place": "hamlet", "place:PH": "sitio"}}, {"type": "node", "id": 8140133644, "lat": 6.730097, "lon": 124.0518236, "tags": {"place": "hamlet"}}, {"type": "node", "id": 8140133699, "lat": 6.6348862, "lon": 124.0737748, "tags": {"admin_level": "10", "is_in:town": "Lebak", "name": "Pasandalan", "place": "village", "place:PH": "barangay"}}, {"type": "node", "id": 8511909964, "lat": 6.904433, "lon": 124.0851259, "tags": {"place": "hamlet"}}, {"type": "node", "id": 8511909965, "lat": 6.8805634, "lon": 124.0586901, "tags": {"place": "hamlet"}}, {"type": "node", "id": 8511909966, "lat": 6.8907143, "lon": 124.0807593, "tags": {"place": "hamlet"}}, {"type": "node", "id": 8511909969, "lat": 6.8681116, "lon": 124.0849382, "tags": {"place": "hamlet"}}, {"type": "node", "id": 8511909970, "lat": 6.8646337, "lon": 124.0772188, "tags": {"place": "hamlet"}}, {"type": "node", "id": 8511909971, "lat": 6.8881712, "lon": 124.0909114, "tags": {"place": "village"}}, {"type": "node", "id": 8511909975, "lat": 6.8585994, "lon": 124.0790266, "tags": {"place": "hamlet"}}, {"type": "node", "id": 8519415369, "lat": 7.0510189, "lon": 124.013645, "tags": {"admin_level": "10", "designation": "barangay", "is_in:town": "Datu Blah T. Sinsuat", "name": "Penensaran", "place": "village", "place:PH": "barangay"}}, {"type": "node", "id": 8589752713, "lat": 6.9404108, "lon": 123.9700323, "tags": {"place": "hamlet"}}, {"type": "node", "id": 8589752714, "lat": 6.9507574, "lon": 123.972398, "tags": {"place": "hamlet"}}, {"type": "node", "id": 8589752715, "lat": 6.9600361, "lon": 123.975665, "tags": {"place": "hamlet"}}, {"type": "node", "id": 8589870717, "lat": 7.0040841, "lon": 123.9964843, "tags": {"place": "hamlet"}}, {"type": "node", "id": 8589870718, "lat": 7.0134816, "lon": 123.9950573, "tags": {"place": "hamlet"}}, {"type": "node", "id": 8589870719, "lat": 7.0011717, "lon": 123.9954489, "tags": {"place": "hamlet"}}, {"type": "node", "id": 8589870720, "lat": 6.9870564, "lon": 123.9868551, "tags": {"place": "hamlet"}}, {"type": "node", "id": 8589870721, "lat": 6.9793411, "lon": 123.9830089, "tags": {"place": "hamlet"}}, {"type": "node", "id": 9215218504, "lat": 6.7059031, "lon": 124.056437, "tags": {"fixme": "name", "place": "neighbourhood"}}, {"type": "node", "id": 9215283768, "lat": 6.7135124, "lon": 124.0538111, "tags": {"admin_level": "11", "admin_type:PH": "purok", "is_in:barangay": "Tran", "is_in:municipality": "Lebak", "name": "Mangga", "place": "neighbourhood"}}, {"type": "node", "id": 9215303097, "lat": 6.7356322, "lon": 124.0598327, "tags": {"fixme": "name", "place": "neighbourhood"}}, {"type": "node", "id": 9215303130, "lat": 6.7286, "lon": 124.0621823, "tags": {"admin_level": "11", "admin_type:PH": "sitio", "is_in:town": "Lebak", "is_in:village": "Kalamongog", "name": "Tapudi", "place": "neighbourhood", "place:PH": "sitio", "source:name": "extrapolated from OSMaPaaralan, way/981127794"}}, {"type": "node", "id": 9215303131, "lat": 6.7159711, "lon": 124.0665007, "tags": {"fixme": "name", "place": "neighbourhood"}}]}