{"version": 0.6, "generator": "Overpass API 0.7.62.5 1bd436f1", "osm3s": {"timestamp_osm_base": "2025-05-24T18:10:44Z", "copyright": "The data included in this document is from www.openstreetmap.org. The data is made available under ODbL."}, "elements": [{"type": "node", "id": 369493428, "lat": 6.3082139, "lon": 117.3361572, "tags": {"is_in": "Sabah, Malaysia", "name": "Dolamos", "place": "village"}}, {"type": "node", "id": 4029540292, "lat": 6.5782977, "lon": 117.240836, "tags": {"place": "village"}}, {"type": "node", "id": 5245953465, "lat": 6.5245184, "lon": 117.2968925, "tags": {"name": "Kampung Pinangkau", "place": "village"}}, {"type": "node", "id": 5254209769, "lat": 6.2799021, "lon": 117.3159962, "tags": {"name": "Kampung Binsulung", "place": "village"}}, {"type": "node", "id": 5302980020, "lat": 6.2553756, "lon": 117.2912211, "tags": {"name": "Kampung Sukang Sugut", "place": "village"}}, {"type": "node", "id": 5302980611, "lat": 6.2182436, "lon": 117.2550722, "tags": {"name": "Kampung Melapi Sugut", "place": "village"}}, {"type": "node", "id": 5308535278, "lat": 6.1709476, "lon": 117.2293145, "tags": {"name": "Kampung Timbulus Sugut", "place": "village"}}, {"type": "node", "id": 8330300503, "lat": 6.5611914, "lon": 117.2494648, "tags": {"name": "Kampung Simpang Tiga", "place": "hamlet", "short_name": "Kg. Simpang Tiga"}}, {"type": "node", "id": 8330303011, "lat": 6.5793823, "lon": 117.3195892, "tags": {"name": "Kampung Maidan", "place": "hamlet", "short_name": "Kg. Maidan"}}, {"type": "node", "id": 11015653009, "lat": 6.5352261, "lon": 116.9378807, "tags": {"name": "Samparita", "place": "village"}}, {"type": "node", "id": 11596631190, "lat": 6.5016492, "lon": 117.2092509, "tags": {"name": "Kem Sinar 9", "place": "village"}}, {"type": "node", "id": 11596692139, "lat": 6.5230887, "lon": 116.9936642, "tags": {"name": "Soniton Ulu", "place": "village"}}, {"type": "node", "id": 11596700495, "lat": 6.5108546, "lon": 117.0775157, "tags": {"name": "AFC Coupe 3", "place": "village"}}, {"type": "node", "id": 11596700829, "lat": 6.4730173, "lon": 117.081689, "tags": {"name": "Jesselton Estate", "place": "village"}}, {"type": "node", "id": 11596715283, "lat": 6.4773921, "lon": 117.1686621, "tags": {"name": "AFC Coupe 8", "place": "village"}}, {"type": "node", "id": 11596715720, "lat": 6.4757033, "lon": 117.1084812, "tags": {"name": "AFC Coupe 2", "place": "village"}}, {"type": "node", "id": 11596716856, "lat": 6.4738447, "lon": 117.0632897, "tags": {"name": "Bambanagan 1", "place": "village"}}, {"type": "node", "id": 11596716857, "lat": 6.4744786, "lon": 117.1012896, "tags": {"name": "Mantalang", "place": "village"}}, {"type": "node", "id": 11596717259, "lat": 6.526204, "lon": 116.9866071, "tags": {"name": "Nabongan", "place": "village"}}, {"type": "node", "id": 11597568955, "lat": 6.5692272, "lon": 117.0030656, "tags": {"name": "Mangkabusu", "place": "village"}}, {"type": "node", "id": 11597605846, "lat": 6.576136, "lon": 117.0300315, "tags": {"name": "Pakagaya", "place": "village"}}, {"type": "node", "id": 11597606764, "lat": 6.5841352, "lon": 117.0458134, "tags": {"name": "Marang Parang", "place": "village"}}, {"type": "node", "id": 11597612349, "lat": 6.5769116, "lon": 117.0429938, "tags": {"name": "Manggis", "place": "village"}}, {"type": "node", "id": 11597633065, "lat": 6.5488135, "lon": 116.9956722, "tags": {"name": "Nibang", "place": "village"}}, {"type": "node", "id": 11597637762, "lat": 6.5471766, "lon": 117.0000869, "tags": {"name": "Sumbilingon", "place": "village"}}, {"type": "node", "id": 11597642644, "lat": 6.5726607, "lon": 116.9967224, "tags": {"name": "Lokos", "place": "village"}}, {"type": "node", "id": 11597646301, "lat": 6.559648, "lon": 116.9890607, "tags": {"name": "Soniton Laut", "place": "village"}}, {"type": "node", "id": 11597648846, "lat": 6.5811176, "lon": 116.9968887, "tags": {"name": "Vunoi", "place": "village"}}, {"type": "node", "id": 11597652016, "lat": 6.5813559, "lon": 117.0081844, "tags": {"name": "Kedundung", "place": "village"}}, {"type": "node", "id": 11597662015, "lat": 6.5802325, "lon": 117.0419798, "tags": {"name": "Maliau Layung", "place": "village"}}]}