{"version": 0.6, "generator": "Overpass API 0.7.62.5 1bd436f1", "osm3s": {"timestamp_osm_base": "2025-05-24T17:54:15Z", "copyright": "The data included in this document is from www.openstreetmap.org. The data is made available under ODbL."}, "elements": [{"type": "node", "id": 198496562, "lat": 14.4700204, "lon": 121.4230494, "tags": {"admin_level": "6", "admin_type:PH": "municipality", "alt_name:tl": "Munisipalidad ng Santa Maria", "gns_classification": "ADM2", "name": "Santa Maria", "name:en": "Santa Maria", "name:es": "Santa Maria", "name:tl": "Santa Maria", "official_name:en": "Municipality of Santa Maria", "official_name:es": "Municipio de Santa Maria", "official_name:tl": "Bayan ng Santa Maria", "place": "town", "population": "34511", "population:date": "2020-05-01", "postal_code": "4022", "ref": "043427000", "source": "GNS", "source:population": "Philippine Statistics Authority", "wikidata": "Q75943", "wikimedia_commons": "Category:Santa Maria, Laguna", "wikipedia": "en:Santa Maria, Laguna"}}, {"type": "node", "id": 198496813, "lat": 14.2453833, "lon": 121.5070018, "tags": {"admin_level": "6", "designation": "municipality", "name": "Cavinti", "name:en": "Cavinti", "name:tl": "Cavinti", "official_name:en": "Municipality of Cavinti", "official_name:tl": "Bayan ng Cavinti", "place": "town", "population": "23980", "population:date": "2020-05-01", "postal_code": "4013", "ref": "043407000", "source:population": "Philippine Statistics Authority", "website": "http://www.cavinti.gov.ph/", "wikidata": "Q69749", "wikimedia_commons": "Category:Cavinti", "wikipedia": "en:Cavinti"}}, {"type": "node", "id": 198500130, "lat": 14.3641222, "lon": 121.4815784, "tags": {"admin_level": "6", "alt_name:tl": "Munisipalidad ng Paete", "designation": "municipality", "gns_classification": "ADM2", "name": "Paete", "name:en": "Paete", "name:es": "Paete", "name:tl": "Paete", "official_name:en": "Municipality of Paete", "official_name:es": "Municipio de Paete", "official_name:tl": "Bayan ng Paete", "place": "town", "population": "24945", "population:date": "2020-05-01", "postal_code": "4016", "ref": "043418000", "source": "GNS", "source:population": "Philippine Statistics Authority", "website": "http://www.paete.gov.ph/", "wikidata": "Q75899", "wikimedia_commons": "Category:Paete", "wikipedia": "en:Paete"}}, {"type": "node", "id": 198500563, "lat": 14.4029123, "lon": 121.4677652, "tags": {"admin_level": "6", "alt_name:tl": "Munisipalidad ng Pangil", "designation": "municipality", "gns_classification": "ADM2", "name": "Pangil", "name:en": "Pangil", "name:es": "Pangil", "name:tl": "Pakil", "official_name:en": "Municipality of Pangil", "official_name:es": "Municipio de Pangil", "official_name:tl": "Bayan ng Pangil", "place": "town", "population": "25026", "population:date": "2020-05-01", "postal_code": "4018", "ref": "043421000", "source": "GNS", "source:population": "Philippine Statistics Authority", "wikidata": "Q75918", "wikimedia_commons": "Category:Pangil", "wikipedia": "en:Pangil"}}, {"type": "node", "id": 198500994, "lat": 14.2974791, "lon": 121.4590515, "tags": {"admin_level": "6", "admin_type:PH": "municipality", "alt_name:tl": "Munisipalidad ng Lumban", "name": "Lumban", "name:en": "Lumban", "name:es": "Lumb\u00e1n", "name:tl": "Lumban", "official_name:en": "Municipality of Lumban", "official_name:es": "Municipio de Lumb\u00e1n", "official_name:tl": "Bayan ng Lumban", "place": "town", "population": "32330", "population:date": "2020-05-01", "postal_code": "4014", "ref": "043413000", "source:population": "Philippine Statistics Authority", "wikidata": "Q69824", "wikimedia_commons": "Category:Lumban", "wikipedia": "en:Lumban"}}, {"type": "node", "id": 198502119, "lat": 14.1996471, "lon": 121.4292603, "tags": {"admin_level": "6", "gns_classification": "ADM2", "gns_uni": "-3357286", "is_in:province": "Laguna", "name": "Magdalena", "name:en": "Magdalena", "name:tl": "Magdalena", "official_name:en": "Municipality of Magdalena", "official_name:tl": "Bayan ng Magdalena", "place": "town", "place:PH": "municipality", "population": "27816", "population:date": "2020-05-01", "postal_code": "4007", "source": "GNS", "source:population": "Philippine Statistics Authority", "wikidata": "Q75881", "wikimedia_commons": "Category:Magdalena, Laguna", "wikipedia": "en:Magdalena, Laguna"}}, {"type": "node", "id": 198503954, "lat": 14.4354493, "lon": 121.4491564, "tags": {"admin_level": "6", "alt_name:tl": "Munisipalidad ng Famy", "designation": "municipality", "gns_classification": "ADM2", "name": "Famy", "name:en": "Famy", "name:es": "Famy", "name:tl": "Famy", "official_name:en": "Municipality of Famy", "official_name:es": "Municipio de Famy", "official_name:tl": "Bayan ng Famy", "place": "town", "population": "16791", "population:date": "2020-05-01", "postal_code": "4021", "ref": "043408000", "source": "GNS", "source:population": "Philippine Statistics Authority", "website": "http://www.famylaguna.gov.ph/", "wikidata": "Q69759", "wikimedia_commons": "Category:Famy, Laguna", "wikipedia": "en:Famy"}}, {"type": "node", "id": 198506046, "lat": 14.4215284, "lon": 121.444412, "tags": {"admin_level": "6", "alt_name:tl": "Munisipalidad ng Siniloan", "designation": "municipality", "gns_classification": "ADM2", "name": "Siniloan", "name:en": "Siniloan", "name:es": "Siniloan", "name:tl": "Siniloan", "official_name:en": "Municipality of Siniloan", "official_name:es": "Municipio de Siniloan", "official_name:tl": "Bayan ng Siniloan", "place": "town", "population": "39460", "population:date": "2020-05-01", "postal_code": "4019", "ref": "043429000", "source": "GNS", "source:population": "Philippine Statistics Authority", "website": "http://siniloan.laguna.com.ph/", "wikidata": "Q75948", "wikimedia_commons": "Category:Siniloan", "wikipedia": "en:Siniloan"}}, {"type": "node", "id": 198511695, "lat": 14.2727689, "lon": 121.4540022, "tags": {"admin_level": "6", "admin_type:PH": "municipality", "gns_classification": "ADM2", "gns_uni": "-3366452", "is_in:province": "Laguna", "name": "Pagsanjan", "name:en": "Pagsanjan", "name:tl": "Pagsanjan", "official_name:en": "Municipality of Pagsanjan", "official_name:tl": "Bayan ng Pagsanjan", "old_name": "Pinagsangahan", "place": "town", "population": "44327", "population:date": "2020-05-01", "postal_code": "4008", "source": "GNS", "source:population": "Philippine Statistics Authority", "wikidata": "Q75905", "wikimedia_commons": "Category:Pagsanjan", "wikipedia": "en:Pagsanjan"}}, {"type": "node", "id": 198512667, "lat": 14.4259361, "lon": 121.429439, "tags": {"admin_level": "6", "designation": "municipality", "gns_classification": "ADM2", "name": "Mabitac", "name:en": "Mabitac", "name:es": "Mabitac", "name:tl": "Mabitac", "official_name:en": "Municipality of Mabitac", "official_name:es": "Municipio de Mabitac", "official_name:tl": "Bayan ng Mabitac", "place": "town", "population": "21275", "population:date": "2020-05-01", "postal_code": "4020", "ref": "043414000", "source": "GNS", "source:population": "Philippine Statistics Authority", "website": "http://www.mabitac.gov.ph/", "wikidata": "Q75875", "wikimedia_commons": "Category:Mabitac", "wikipedia": "en:Mabitac"}}, {"type": "node", "id": 198513234, "lat": 14.2347317, "lon": 121.3640614, "tags": {"admin_level": "6", "admin_type:PH": "municipality", "gns_classification": "ADM2", "gns_uni": "-3369686", "is_in:province": "Laguna", "name": "Pila", "name:en": "Pila", "name:pronunciation": "pi\u02c8la", "name:tl": "Pila", "official_name:en": "Municipality of Pila", "official_name:tl": "Bayan ng Pila", "old_ref": "043422000", "place": "town", "population": "54613", "population:2015": "50289", "population:date": "2020-05-01", "postal_code": "4010", "ref": "0403422000", "source": "GNS", "source:population": "Philippine Statistics Authority", "wikidata": "Q75923", "wikimedia_commons": "Category:Pila, Laguna", "wikipedia": "en:Pila, Laguna"}}, {"type": "node", "id": 292205897, "lat": 14.2818168, "lon": 121.4148892, "tags": {"admin_level": "6", "alt_name:tl": "Munisipalidad ng Santa Cruz", "capital": "4", "designation": "municipality", "name": "Santa Cruz", "name:abbr": "Sta. Cruz", "name:en": "Santa Cruz", "name:es": "Santa Cruz", "name:ja": "\u30b5\u30f3\u30bf\u30af\u30eb\u30b9", "name:tl": "Santa Cruz", "official_name": "Municipality of Santa Cruz", "official_name:en": "Municipality of Santa Cruz", "official_name:es": "Municipio de Santa Cruz", "official_name:tl": "Bayan ng Santa Cruz", "place": "town", "population": "123574", "population:date": "2020-05-01", "postal_code": "4009", "ref": "043426000", "short_name": "Sta. Cruz", "source:population": "Philippine Statistics Authority", "wikidata": "Q75938", "wikimedia_commons": "Category:Santa Cruz, Laguna", "wikipedia": "en:Santa Cruz, Laguna"}}, {"type": "node", "id": 353550345, "lat": 14.2566665, "lon": 121.3992795, "tags": {"admin_level": "10", "admin_type:PH": "barangay", "is_in:town": "Santa Cruz", "name": "Bubukal", "old_ref": "043426003", "place": "village", "population": "7131", "postal_code": "4009", "ref": "043426003", "source:population": "Philippine Statistics Authority"}}, {"type": "node", "id": 353551191, "lat": 14.2438713, "lon": 121.4069612, "tags": {"is_in:town": "Santa Cruz", "name": "San Juan", "place": "village", "postal_code": "4009"}}, {"type": "node", "id": 353551617, "lat": 14.2373329, "lon": 121.4037511, "tags": {"is_in:town": "Santa Cruz", "name": "San Jose", "place": "village", "postal_code": "4009"}}, {"type": "node", "id": 356521887, "lat": 14.2652057, "lon": 121.4343475, "tags": {"admin_level": "10", "admin_type:PH": "barangay", "name": "Bi\u00f1an", "old_ref": "043419002", "place": "village", "population": "6434", "population:2015": "5706", "postal_code": "4008", "ref": "0403419002"}}, {"type": "node", "id": 359899270, "lat": 14.2686089, "lon": 121.3985825, "tags": {"is_in:town": "Santa Cruz", "name": "Bagumbayan", "place": "village", "postal_code": "4009"}}, {"type": "node", "id": 359899814, "lat": 14.2772526, "lon": 121.4108912}, {"type": "node", "id": 360140749, "lat": 14.2604341, "lon": 121.3835914, "tags": {"is_in:town": "Santa Cruz", "name": "Gatid", "place": "village", "postal_code": "4009"}}, {"type": "node", "id": 360474012, "lat": 14.2346631, "lon": 121.3689497}, {"type": "node", "id": 364921465, "lat": 14.2661561, "lon": 121.3985367}, {"type": "node", "id": 365488000, "lat": 14.2845619, "lon": 121.4176923}, {"type": "node", "id": 366193832, "lat": 14.2827412, "lon": 121.4164185}, {"type": "node", "id": 366193833, "lat": 14.2823014, "lon": 121.4164843}, {"type": "node", "id": 366842271, "lat": 14.2649286, "lon": 121.3990052}, {"type": "node", "id": 371314222, "lat": 14.283824, "lon": 121.4167159}, {"type": "node", "id": 480614236, "lat": 14.2609846, "lon": 121.7374878, "tags": {"admin_level": "10", "alt_name": "Cagsiay 2", "designation": "barangay", "is_in:municipality": "Mauban", "name": "Cagsiay II", "place": "village", "ref": "045627009"}}, {"type": "node", "id": 480614237, "lat": 14.2188239, "lon": 121.7506155, "tags": {"admin_level": "10", "alt_name": "Cagsiay 1", "designation": "barangay", "is_in:municipality": "Mauban", "name": "Cagsiay I", "place": "village", "ref": "045627008"}}, {"type": "node", "id": 560659305, "lat": 14.2852282, "lon": 121.4162329}, {"type": "node", "id": 571654197, "lat": 14.2840162, "lon": 121.4192063}, {"type": "node", "id": 571654472, "lat": 14.2828976, "lon": 121.4163917}, {"type": "node", "id": 685070757, "lat": 14.3645053, "lon": 121.4822358}, {"type": "node", "id": 699432921, "lat": 14.3648405, "lon": 121.4822372}, {"type": "node", "id": 699432922, "lat": 14.365156, "lon": 121.4835035}, {"type": "node", "id": 699432928, "lat": 14.3645849, "lon": 121.4833813}, {"type": "node", "id": 699432936, "lat": 14.3644447, "lon": 121.4833178}, {"type": "node", "id": 699907162, "lat": 14.3653217, "lon": 121.4827918}, {"type": "node", "id": 701678239, "lat": 14.3276464, "lon": 121.4798659, "tags": {"admin_level": "6", "alt_name:tl": "Munisipalidad ng Kalayaan", "designation": "municipality", "name": "Kalayaan", "name:en": "Kalayaan", "name:es": "Kalayaan", "name:tl": "Kalayaan", "official_name:en": "Municipality of Kalayaan", "official_name:es": "Municipio de Kalayaan", "official_name:tl": "Bayan ng Kalayaan", "place": "town", "population": "24755", "population:date": "2020-05-01", "postal_code": "4015", "ref": "043409000", "source:population": "Philippine Statistics Authority", "website": "https://www.kalayaanlaguna.gov.ph/", "wikidata": "Q69771", "wikimedia_commons": "Category:Kalayaan, Laguna", "wikipedia": "en:Kalayaan, Laguna"}}, {"type": "node", "id": 701678379, "lat": 14.3401434, "lon": 121.4808945, "tags": {"admin_level": "10", "admin_type:PH": "barangay", "alt_name": "Longos", "is_in:town": "Kalayaan", "name": "Lo\u00f1gos", "old_ref": "043409001", "place": "village", "population": "6830", "population:2015": "6070", "postal_code": "4015", "ref": "0403409001"}}, {"type": "node", "id": 705010950, "lat": 14.3652525, "lon": 121.4822122}, {"type": "node", "id": 711691049, "lat": 14.3643717, "lon": 121.4833007}, {"type": "node", "id": 760608441, "lat": 14.3648084, "lon": 121.4834365}, {"type": "node", "id": 772364978, "lat": 14.3609957, "lon": 121.4833468, "tags": {"name": "Quinale", "place": "village"}}, {"type": "node", "id": 772370131, "lat": 14.3652905, "lon": 121.482213}, {"type": "node", "id": 772371462, "lat": 14.3653351, "lon": 121.4834586}, {"type": "node", "id": 988518967, "lat": 14.1961985, "lon": 121.4007326, "tags": {"name": "Calumpang", "place": "village", "postal_code": "4002"}}, {"type": "node", "id": 988519041, "lat": 14.244595, "lon": 121.3694078, "tags": {"admin_level": "10", "admin_type:PH": "barangay", "is_in:town": "Pila", "name": "Labuin", "place": "village", "postal_code": "4010", "ref": "043422007"}}, {"type": "node", "id": 1112532446, "lat": 14.3645026, "lon": 121.4833409}, {"type": "node", "id": 1112532518, "lat": 14.364364, "lon": 121.4827608}, {"type": "node", "id": 1112861017, "lat": 14.3401788, "lon": 121.509946, "tags": {"admin_level": "10", "admin_type:PH": "barangay", "is_in:town": "Kalayaan", "name": "San Antonio", "old_ref": "043409002", "place": "village", "population": "11263", "population:2015": "10651", "population:date": "2020-05-01", "postal_code": "4015", "ref": "0403409002", "source:population": "Philippine Statistics Authority"}}, {"type": "node", "id": 1120915066, "lat": 14.3643916, "lon": 121.4822323}, {"type": "node", "id": 1120915091, "lat": 14.3650824, "lon": 121.4793648, "tags": {"admin_level": "10", "admin_type:PH": "barangay", "is_in:town": "Paete", "name": "Ibaba del Norte", "place": "neighbourhood", "source:name": "extrapolated from OSMaPaaralan, way/98708535"}}, {"type": "node", "id": 1120915093, "lat": 14.363644, "lon": 121.4796785, "tags": {"name": "Ibaba del Sur", "place": "village"}}, {"type": "node", "id": 1121142717, "lat": 14.3622101, "lon": 121.4826771, "tags": {"name": "Maytoong", "place": "village"}}, {"type": "node", "id": 1135004497, "lat": 14.2690967, "lon": 121.4449532, "tags": {"admin_level": "10", "admin_type:PH": "barangay", "name": "Sampaloc", "place": "village", "postal_code": "4008"}}, {"type": "node", "id": 1135004503, "lat": 14.3679826, "lon": 121.4804326, "tags": {"name": "Bagumbayan", "place": "village"}}, {"type": "node", "id": 1135004518, "lat": 14.3252835, "lon": 121.4780548, "tags": {"denomination": "roman_catholic", "is_in:town": "Kalayaan", "name": "San Juan", "place": "village", "postal_code": "4015", "religion": "christian"}}, {"type": "node", "id": 1135004526, "lat": 14.2699319, "lon": 121.452811, "tags": {"admin_level": "10", "admin_type:PH": "barangay", "name": "Maulawin", "place": "suburb", "postal_code": "4008"}}, {"type": "node", "id": 1135004538, "lat": 14.2708215, "lon": 121.4608573, "tags": {"admin_level": "10", "admin_type:PH": "barangay", "name": "Magdapio", "place": "village", "postal_code": "4008"}}, {"type": "node", "id": 1135004551, "lat": 14.2732796, "lon": 121.4510903, "tags": {"admin_level": "10", "admin_type:PH": "barangay", "name": "Dos", "place": "suburb", "postal_code": "4008"}}, {"type": "node", "id": 1135004553, "lat": 14.2745188, "lon": 121.4555635, "tags": {"admin_level": "10", "admin_type:PH": "barangay", "name": "Uno", "place": "suburb", "postal_code": "4008"}}, {"type": "node", "id": 1135004569, "lat": 14.2825286, "lon": 121.4577474, "tags": {"admin_level": "10", "admin_type:PH": "barangay", "name": "San Isidro", "old_ref": "043419016", "place": "village", "population": "2757", "population:2015": "2985", "postal_code": "4008", "ref": "0403419016", "source:population": "Philippine Statistics Authority"}}, {"type": "node", "id": 1135004581, "lat": 14.2682389, "lon": 121.4581993, "tags": {"admin_level": "10", "admin_type:PH": "barangay", "name": "Pinagsanjan", "old_ref": "043419011", "place": "suburb", "population": "5134", "population:2015": "5136", "postal_code": "4008", "ref": "0403419011"}}, {"type": "node", "id": 1244428621, "lat": 14.2035098, "lon": 121.3550353, "tags": {"admin_level": "10", "admin_type:PH": "barangay", "is_in:town": "Victoria", "name": "Daniw", "place": "village", "postal_code": "4011", "ref": "043430002"}}, {"type": "node", "id": 1256302414, "lat": 14.2489038, "lon": 121.3734005}, {"type": "node", "id": 1256302506, "lat": 14.2176698, "lon": 121.3597141, "tags": {"admin_level": "10", "admin_type:PH": "barangay", "is_in:town": "Pila", "name": "San Antonio", "place": "village", "postal_code": "4010", "ref": "043422014"}}, {"type": "node", "id": 1259271514, "lat": 14.3007288, "lon": 121.4539863, "tags": {"admin_level": "10", "admin_level:PH": "barangay", "name": "Concepcion", "place": "village", "postal_code": "4014"}}, {"type": "node", "id": 1260418123, "lat": 14.3649071, "lon": 121.4834401, "tags": {"distance": "103", "highway": "milestone"}}, {"type": "node", "id": 1276672953, "lat": 14.3807742, "lon": 121.4786229, "tags": {"admin_level": "6", "alt_name:tl": "Munisipalidad ng Pakil", "designation": "municipality", "gns_classification": "ADM2", "name": "Pakil", "name:en": "Pakil", "name:es": "Pakil", "name:tl": "Pakil", "official_name:en": "Municipality of Pakil", "official_name:es": "Municipio de Pakil", "official_name:tl": "Bayan ng Pakil", "place": "town", "population": "23495", "population:date": "2020-05-01", "postal_code": "4017", "ref": "043420000", "source:population": "Philippine Statistics Authority", "wikidata": "Q75910", "wikimedia_commons": "Category:Pakil", "wikipedia": "en:Pakil"}}, {"type": "node", "id": 1281193115, "lat": 14.2376632, "lon": 121.3669278}, {"type": "node", "id": 1281193129, "lat": 14.2380699, "lon": 121.366925}, {"type": "node", "id": 1287135684, "lat": 14.2871044, "lon": 121.4998783, "tags": {"admin_level": "10", "admin_type:PH": "barangay", "is_in:town": "?", "is_in:village": "?", "name": "Caliraya", "place": "village", "source:name": "extrapolated from OSMaPaaralan, way/163075145"}}, {"type": "node", "id": 1296886848, "lat": 14.282418, "lon": 121.53341, "tags": {"name": "Sierra Lakes Subdivision", "place": "neighbourhood"}}, {"type": "node", "id": 1301680161, "lat": 14.2383423, "lon": 121.368303}, {"type": "node", "id": 1301680164, "lat": 14.2382331, "lon": 121.3683513}, {"type": "node", "id": 1301680171, "lat": 14.2376637, "lon": 121.3682279}, {"type": "node", "id": 1301680176, "lat": 14.2368376, "lon": 121.3688215}, {"type": "node", "id": 1301680180, "lat": 14.2389428, "lon": 121.3677827}, {"type": "node", "id": 1333125222, "lat": 14.2851672, "lon": 121.4205483}, {"type": "node", "id": 1333125225, "lat": 14.2855233, "lon": 121.4168816}, {"type": "node", "id": 1333125247, "lat": 14.2854437, "lon": 121.4161098}, {"type": "node", "id": 1333125248, "lat": 14.2862195, "lon": 121.4197172}, {"type": "node", "id": 1333125258, "lat": 14.284974, "lon": 121.4200018}, {"type": "node", "id": 1333125259, "lat": 14.2855255, "lon": 121.4199111}, {"type": "node", "id": 1333125313, "lat": 14.2856828, "lon": 121.4175751}, {"type": "node", "id": 1333125345, "lat": 14.2856461, "lon": 121.4203456}, {"type": "node", "id": 1336556587, "lat": 14.2842328, "lon": 121.5250667, "tags": {"admin_level": "10", "admin_type:PH": "barangay", "alt_name": "West Talaongan", "is_in:town": "Cavinti", "name": "Kanluran Talaongan", "name:tl": "Kanluran Talaongan", "place": "village", "source:name": "extrapolated from OSMaPaaralan, way/971063242"}}, {"type": "node", "id": 1344010498, "lat": 14.2389914, "lon": 121.3670074}, {"type": "node", "id": 1345484043, "lat": 14.2798197, "lon": 121.3959028}, {"type": "node", "id": 1348967401, "lat": 14.2210852, "lon": 121.42639, "tags": {"admin_level": "10", "admin_type:PH": "barangay", "name": "Buenavista", "old_ref": "043415007", "place": "village", "population": "2469", "population:2015": "2209", "postal_code": "4007", "ref": "0403415007"}}, {"type": "node", "id": 1353170249, "lat": 14.2306291, "lon": 121.368368}, {"type": "node", "id": 1353170261, "lat": 14.2302716, "lon": 121.3698506}, {"type": "node", "id": 1353170280, "lat": 14.2304815, "lon": 121.3688669}, {"type": "node", "id": 1353170284, "lat": 14.23011, "lon": 121.3693592}, {"type": "node", "id": 1353170290, "lat": 14.2306038, "lon": 121.3680461}, {"type": "node", "id": 1353170345, "lat": 14.2301249, "lon": 121.3695333}, {"type": "node", "id": 1357520380, "lat": 14.5208164, "lon": 121.5363531, "tags": {"admin_level": "10", "admin_type:PH": "barangay", "designation": "barangay", "is_in:town": "Real", "name": "Llavac", "old_ref": "045638005", "place": "village", "population": "3828", "population:2015": "2517", "ref": "0405638005", "source:name": "extrapolated from OSMaPaaralan, way/964457867"}}, {"type": "node", "id": 1368557885, "lat": 14.2734115, "lon": 121.3976603}, {"type": "node", "id": 1368557916, "lat": 14.2791795, "lon": 121.3943156}, {"type": "node", "id": 1368557921, "lat": 14.2799199, "lon": 121.3958655}, {"type": "node", "id": 1368557925, "lat": 14.2801568, "lon": 121.3936928}, {"type": "node", "id": 1368557931, "lat": 14.2810973, "lon": 121.3945028}, {"type": "node", "id": 1368557941, "lat": 14.2712892, "lon": 121.3982477}, {"type": "node", "id": 1368557947, "lat": 14.2798241, "lon": 121.3957474}, {"type": "node", "id": 1368557955, "lat": 14.2773272, "lon": 121.4101136}, {"type": "node", "id": 1368557972, "lat": 14.2707753, "lon": 121.3969633}, {"type": "node", "id": 1368557980, "lat": 14.2789245, "lon": 121.4106382}, {"type": "node", "id": 1368557983, "lat": 14.2814509, "lon": 121.3956804}, {"type": "node", "id": 1368557986, "lat": 14.2813365, "lon": 121.3951708}, {"type": "node", "id": 1368557989, "lat": 14.2785564, "lon": 121.410864}, {"type": "node", "id": 1368558001, "lat": 14.2773551, "lon": 121.4114573}, {"type": "node", "id": 1368558006, "lat": 14.2775383, "lon": 121.4112931}, {"type": "node", "id": 1368558031, "lat": 14.272993, "lon": 121.3969221}, {"type": "node", "id": 1368558038, "lat": 14.2800811, "lon": 121.3963081}, {"type": "node", "id": 1368558045, "lat": 14.271189, "lon": 121.3967859}, {"type": "node", "id": 1368558060, "lat": 14.2715172, "lon": 121.3982011}, {"type": "node", "id": 1368558077, "lat": 14.2789682, "lon": 121.4115979}, {"type": "node", "id": 1368558078, "lat": 14.2774274, "lon": 121.4117684}, {"type": "node", "id": 1368558085, "lat": 14.2801387, "lon": 121.3969924}, {"type": "node", "id": 1368558086, "lat": 14.2720987, "lon": 121.3972848}, {"type": "node", "id": 1368558093, "lat": 14.2717921, "lon": 121.3965525}, {"type": "node", "id": 1368558098, "lat": 14.2780731, "lon": 121.4090919}, {"type": "node", "id": 1368558104, "lat": 14.277973, "lon": 121.4119435}, {"type": "node", "id": 1368558120, "lat": 14.2797046, "lon": 121.3959539}, {"type": "node", "id": 1368558121, "lat": 14.2775208, "lon": 121.4116472}, {"type": "node", "id": 1368558122, "lat": 14.2776597, "lon": 121.4105639}, {"type": "node", "id": 1370717011, "lat": 14.2652824, "lon": 121.3998698}, {"type": "node", "id": 1370717014, "lat": 14.2669634, "lon": 121.3992337}, {"type": "node", "id": 1370717015, "lat": 14.2642152, "lon": 121.4002981}, {"type": "node", "id": 1370717017, "lat": 14.2670322, "lon": 121.399424}, {"type": "node", "id": 1370717020, "lat": 14.2643141, "lon": 121.4005195}, {"type": "node", "id": 1504861249, "lat": 14.2775547, "lon": 121.4118823}, {"type": "node", "id": 1514960634, "lat": 14.2453617, "lon": 121.4432227}, {"type": "node", "id": 1514961213, "lat": 14.2446468, "lon": 121.4460337}, {"type": "node", "id": 1514961222, "lat": 14.2438669, "lon": 121.444604}, {"type": "node", "id": 1514961328, "lat": 14.2446832, "lon": 121.4463555}, {"type": "node", "id": 1514961362, "lat": 14.2434372, "lon": 121.4465731}, {"type": "node", "id": 1514961529, "lat": 14.2440228, "lon": 121.4440622}, {"type": "node", "id": 1514961581, "lat": 14.2438019, "lon": 121.4441453}, {"type": "node", "id": 1514961766, "lat": 14.2446457, "lon": 121.4438938}, {"type": "node", "id": 1703218940, "lat": 14.5462068, "lon": 121.3645174, "tags": {"admin_level": "10", "admin_type:PH": "barangay", "ele": "388.4", "is_in:city": "Tanay", "name": "Sampaloc", "place": "village", "population": "31000", "population:date": "2020", "source:population": "https://www.philatlas.com/luzon/r04a/rizal/tanay/sampaloc.html", "website": "https://www.facebook.com/groups/168455970628061/"}}, {"type": "node", "id": 1703218947, "lat": 14.5977949, "lon": 121.3511424, "tags": {"addr:city": "Tanay", "admin_level": "11", "name": "Maysawa", "official_name": "Sitio Maysawa", "place": "neighbourhood", "place:PH": "sitio"}}, {"type": "node", "id": 1736131074, "lat": 14.2304722, "lon": 121.3704669}, {"type": "node", "id": 1744533879, "lat": 14.5457855, "lon": 121.3664999, "tags": {"admin_level": "11", "admin_type:PH": "purok", "is_in:town": "Tanay", "name": "Purok 1", "place": "neighbourhood"}}, {"type": "node", "id": 1763887334, "lat": 14.2828933, "lon": 121.8079127, "tags": {"name": "Pinangalo", "place": "hamlet"}}, {"type": "node", "id": 1809699627, "lat": 14.2775938, "lon": 121.4118385}, {"type": "node", "id": 1809699633, "lat": 14.277723, "lon": 121.411694}, {"type": "node", "id": 1809699637, "lat": 14.2778357, "lon": 121.4118012}, {"type": "node", "id": 1809699643, "lat": 14.278146, "lon": 121.4121249}, {"type": "node", "id": 1809699746, "lat": 14.2786595, "lon": 121.4117958}, {"type": "node", "id": 1809849325, "lat": 14.2813882, "lon": 121.4167269}, {"type": "node", "id": 1809849326, "lat": 14.2816283, "lon": 121.4165922}, {"type": "node", "id": 1809849327, "lat": 14.2816322, "lon": 121.4176697}, {"type": "node", "id": 1809849328, "lat": 14.2816466, "lon": 121.4166633}, {"type": "node", "id": 1809849382, "lat": 14.2821375, "lon": 121.4175549}, {"type": "node", "id": 1809849391, "lat": 14.2822168, "lon": 121.4176669}, {"type": "node", "id": 1809849413, "lat": 14.2823573, "lon": 121.4176316}, {"type": "node", "id": 1809849427, "lat": 14.2825409, "lon": 121.4175928}, {"type": "node", "id": 1809849431, "lat": 14.2827232, "lon": 121.4175882}, {"type": "node", "id": 1809849434, "lat": 14.2828574, "lon": 121.4180717}, {"type": "node", "id": 1809849435, "lat": 14.283032, "lon": 121.4187118}, {"type": "node", "id": 1809849436, "lat": 14.2831512, "lon": 121.4184771}, {"type": "node", "id": 1809849437, "lat": 14.2831995, "lon": 121.4177544}, {"type": "node", "id": 1809849438, "lat": 14.2832025, "lon": 121.4186652}, {"type": "node", "id": 1809849439, "lat": 14.2834626, "lon": 121.4183968}, {"type": "node", "id": 1809849440, "lat": 14.2837323, "lon": 121.4163895}, {"type": "node", "id": 1809849441, "lat": 14.2838313, "lon": 121.41833}, {"type": "node", "id": 1809849442, "lat": 14.2838514, "lon": 121.4184062}, {"type": "node", "id": 1809849446, "lat": 14.2840537, "lon": 121.4173897}, {"type": "node", "id": 1809849447, "lat": 14.2839942, "lon": 121.4180777}, {"type": "node", "id": 1809849453, "lat": 14.284035, "lon": 121.417919}, {"type": "node", "id": 1809849454, "lat": 14.2840397, "lon": 121.4182203}, {"type": "node", "id": 1809849472, "lat": 14.2842174, "lon": 121.4178339}, {"type": "node", "id": 1809849480, "lat": 14.2842707, "lon": 121.4201274}, {"type": "node", "id": 1809849483, "lat": 14.2843127, "lon": 121.4177965}, {"type": "node", "id": 1809849517, "lat": 14.2845406, "lon": 121.4180101}, {"type": "node", "id": 1809849529, "lat": 14.2845975, "lon": 121.4181688}, {"type": "node", "id": 1809849534, "lat": 14.2846678, "lon": 121.4179572}, {"type": "node", "id": 1809849568, "lat": 14.2850653, "lon": 121.4157354}, {"type": "node", "id": 1809849577, "lat": 14.2852155, "lon": 121.4156638}, {"type": "node", "id": 1809849582, "lat": 14.2856996, "lon": 121.4178263}, {"type": "node", "id": 1809849583, "lat": 14.2859542, "lon": 121.4189208}, {"type": "node", "id": 1809849603, "lat": 14.2861755, "lon": 121.4194165}, {"type": "node", "id": 1985258833, "lat": 14.2305171, "lon": 121.3705621}, {"type": "node", "id": 1985258834, "lat": 14.2307102, "lon": 121.3704916}, {"type": "node", "id": 1985258835, "lat": 14.2309366, "lon": 121.3680663}, {"type": "node", "id": 1985258836, "lat": 14.2309679, "lon": 121.3683833}, {"type": "node", "id": 1985258838, "lat": 14.2312575, "lon": 121.3700349}, {"type": "node", "id": 1985258841, "lat": 14.2313621, "lon": 121.3695202}, {"type": "node", "id": 1985258842, "lat": 14.2313983, "lon": 121.3698606}, {"type": "node", "id": 1985258843, "lat": 14.2315553, "lon": 121.3692628}, {"type": "node", "id": 1985258844, "lat": 14.2317927, "lon": 121.3691133}, {"type": "node", "id": 1985258845, "lat": 14.2321267, "lon": 121.3690344}, {"type": "node", "id": 1985258846, "lat": 14.2324687, "lon": 121.3692462}, {"type": "node", "id": 1985258847, "lat": 14.232502, "lon": 121.3681913}, {"type": "node", "id": 1985258848, "lat": 14.2325261, "lon": 121.368266}, {"type": "node", "id": 1985258849, "lat": 14.2327343, "lon": 121.3692171}, {"type": "node", "id": 1985258851, "lat": 14.2340903, "lon": 121.3688891}, {"type": "node", "id": 1985258852, "lat": 14.2346105, "lon": 121.3676724}, {"type": "node", "id": 1985258871, "lat": 14.2353096, "lon": 121.3689888}, {"type": "node", "id": 1985258872, "lat": 14.2355599, "lon": 121.3694108}, {"type": "node", "id": 1985258873, "lat": 14.2356044, "lon": 121.3666895}, {"type": "node", "id": 1985258874, "lat": 14.2356809, "lon": 121.3669293}, {"type": "node", "id": 1985258875, "lat": 14.2357432, "lon": 121.3670102}, {"type": "node", "id": 1985258876, "lat": 14.2358217, "lon": 121.3673216}, {"type": "node", "id": 1985258877, "lat": 14.2359102, "lon": 121.3665961}, {"type": "node", "id": 1985258878, "lat": 14.2360551, "lon": 121.367032}, {"type": "node", "id": 1985258879, "lat": 14.2362201, "lon": 121.366978}, {"type": "node", "id": 1985258880, "lat": 14.2362824, "lon": 121.3671628}, {"type": "node", "id": 1985258882, "lat": 14.2372043, "lon": 121.3669485}, {"type": "node", "id": 1985258883, "lat": 14.2375144, "lon": 121.3669338}, {"type": "node", "id": 1985259371, "lat": 14.2631886, "lon": 121.400148}, {"type": "node", "id": 1985259372, "lat": 14.2634875, "lon": 121.4008841}, {"type": "node", "id": 1985259373, "lat": 14.2636722, "lon": 121.3998293}, {"type": "node", "id": 1985259374, "lat": 14.2637235, "lon": 121.3999287}, {"type": "node", "id": 1985259375, "lat": 14.26376, "lon": 121.3990514}, {"type": "node", "id": 1985259376, "lat": 14.2639804, "lon": 121.3997199}, {"type": "node", "id": 1985259377, "lat": 14.2641089, "lon": 121.3985736}, {"type": "node", "id": 1985259379, "lat": 14.2641883, "lon": 121.3988429}, {"type": "node", "id": 1985259380, "lat": 14.2643402, "lon": 121.3984601}, {"type": "node", "id": 1985259383, "lat": 14.2647704, "lon": 121.3986514}, {"type": "node", "id": 2141099853, "lat": 14.5766519, "lon": 121.3641036, "tags": {"is_in:city": "Tanay", "is_in:state": "Rizal", "name": "Liro Homes", "place": "neighbourhood"}}, {"type": "node", "id": 2230703420, "lat": 14.4415283, "lon": 121.3880331, "tags": {"admin_level": "10", "is_in:town": "Mabitac", "name": "Amuyong", "place": "village", "place:PH": "barangay", "population": "636", "postal_code": "4020"}}, {"type": "node", "id": 2230703433, "lat": 14.4445324, "lon": 121.4224938, "tags": {"admin_level": "10", "admin_type:PH": "barangay", "is_in:town": "Mabitac", "name": "Nanguma", "old_ref": "043414005", "place": "village", "place:PH": "barangay", "population": "2508", "population:2015": "2562", "postal_code": "4020", "ref": "0403414005"}}, {"type": "node", "id": 2230703441, "lat": 14.4471674, "lon": 121.3812392, "tags": {"admin_level": "10", "is_in:town": "Mabitac", "name": "San Miguel", "place": "village", "place:PH": "barangay", "population": "1106", "postal_code": "4020"}}, {"type": "node", "id": 2451496968, "lat": 14.3804443, "lon": 121.4777225, "tags": {"admin_level": "10", "name": "Burgos", "place": "village", "place:PH": "barangay", "population": "2152", "postal_code": "4017"}}, {"type": "node", "id": 2499271297, "lat": 14.2844047, "lon": 121.4161259}, {"type": "node", "id": 2579401369, "lat": 14.4952566, "lon": 121.5109144, "tags": {"is_in:town": "Siniloan", "name": "Sitio San Isidro", "place": "neighbourhood"}}, {"type": "node", "id": 2596298718, "lat": 14.4362757, "lon": 121.4488431, "tags": {"admin_level": "10", "admin_type:PH": "barangay", "is_in:town": "Famy", "name": "Bagong Pag-Asa", "old_ref": "043408003", "place": "neighbourhood", "population": "325", "ref": "0403408003"}}, {"type": "node", "id": 2596298722, "lat": 14.4662303, "lon": 121.4778668, "tags": {"admin_level": "10", "designation": "barangay", "is_in:city": "Siniloan", "name": "Laguio", "place": "village", "source:name": "extrapolated from OSMaPaaralan, way/791820292"}}, {"type": "node", "id": 2596298723, "lat": 14.4621832, "lon": 121.4726648, "tags": {"admin_level": "10", "is_in:town": "Siniloan", "name": "Mayatba", "place": "village", "place:PH": "barangay"}}, {"type": "node", "id": 2601165711, "lat": 14.2899578, "lon": 121.4578839, "tags": {"admin_level": "10", "admin_level:PH": "barangay", "name": "Maytalang I", "place": "village", "postal_code": "4014"}}, {"type": "node", "id": 2702957741, "lat": 14.2162959, "lon": 121.4903596, "tags": {"name": "San Salvador", "place": "village", "population": "418"}}, {"type": "node", "id": 2702957743, "lat": 14.1951736, "lon": 121.5547896, "tags": {"admin_level": "10", "loc_name": "Patahan", "name": "San Buenaventura", "place": "village", "population": "1819"}}, {"type": "node", "id": 2702957744, "lat": 14.1979935, "lon": 121.5461878, "tags": {"name": "Santo Domingo", "place": "village", "population": "503"}}, {"type": "node", "id": 2702969180, "lat": 14.223981, "lon": 121.491314, "tags": {"name": "Bulajo", "place": "village", "population": "529"}}, {"type": "node", "id": 2702969181, "lat": 14.2339086, "lon": 121.4908574, "tags": {"name": "Layasin", "place": "village", "population": "579"}}, {"type": "node", "id": 2702969182, "lat": 14.252567, "lon": 121.4966642, "tags": {"admin_level": "10", "admin_type:PH": "barangay", "is_in:town": "Cavinti", "name": "Duhat", "old_ref": "043407006", "place": "village", "population": "1830", "population:2015": "1673", "ref": "0403407006"}}, {"type": "node", "id": 2702969183, "lat": 14.2532051, "lon": 121.4939273, "tags": {"name": "Anglas", "place": "village"}}, {"type": "node", "id": 2733172393, "lat": 14.5326143, "lon": 121.3809992, "tags": {"alt_name": "Sitio Aguho", "is_in:city": "Tanay", "is_in:state": "Rizal", "name": "Aguho", "place": "neighbourhood"}}, {"type": "node", "id": 2739033751, "lat": 14.6039733, "lon": 121.4292931, "tags": {"admin_level": "10", "admin_type:PH": "barangay", "alt_name": "Daraetan", "designation": "barangay", "is_in:state": "Rizal", "is_in:town": "Tanay", "name": "Daraitan", "old_ref": "045812003", "place": "village", "population": "5743", "population:2015": "4682", "ref": "0405812003", "source:population": "Philippine Statistics Authority"}}, {"type": "node", "id": 2739033752, "lat": 14.5615521, "lon": 121.4431069, "tags": {"is_in:city": "Santa Maria", "is_in:state": "Laguna", "name": "Santiago", "note": "Some signs here says Brgy. Madilay-dilay, Tanay, Rizal (boundary dispute), but DPWH signboard says J. Santiago", "official_name": "Juan Santiago", "old_name": "Madilay-dilay", "place": "village", "short_name": "J. Santiago"}}, {"type": "node", "id": 2739033753, "lat": 14.5530173, "lon": 121.4096747, "tags": {"is_in:state": "Rizal", "is_in:town": "Tanay", "is_in:village": "Sampaloc", "name": "Pinagsabiran", "place": "neighbourhood"}}, {"type": "node", "id": 2739044709, "lat": 14.6182849, "lon": 121.3897767, "tags": {"admin_level": "10", "designation": "barangay", "is_in:state": "Rizal", "is_in:town": "Tanay", "name": "Laiban", "old_ref": "045812006", "place": "village", "population": "2332", "population:2015": "1952", "ref": "0405812006", "source:population": "Philippine Statistics Authority"}}, {"type": "node", "id": 2739044710, "lat": 14.6251083, "lon": 121.4182747, "tags": {"admin_type:PH": "sitio", "designation": "sitio", "is_in:town": "Tanay", "is_in:village": "Daraitan", "name": "Manggahan", "place": "hamlet"}}, {"type": "node", "id": 2739055573, "lat": 14.6317457, "lon": 121.4146221, "tags": {"addr:quarter": "Daraitan", "addr:town": "Tanay", "admin_level": "11", "designation": "sitio", "is_in:city": "Tanay", "is_in:state": "Rizal", "name": "Magata", "place": "hamlet"}}, {"type": "node", "id": 2755260095, "lat": 14.5988136, "lon": 121.3542293, "tags": {"FIXME": "name", "place": "neighbourhood"}}, {"type": "node", "id": 2764187439, "lat": 14.5642778, "lon": 121.3752608, "tags": {"admin_level": "11", "alt_name": "Sitio Malaanonang", "designation": "sitio", "is_in:city": "Tanay", "is_in:state": "Rizal", "name": "Malaanonang", "place": "neighbourhood"}}, {"type": "node", "id": 2764206935, "lat": 14.5805723, "lon": 121.3686128, "tags": {"admin_level": "11", "admin_type:PH": "sitio", "alt_name": "Mayagay 1", "name": "Mayagay Uno", "place": "neighbourhood"}}, {"type": "node", "id": 2769860763, "lat": 14.4549922, "lon": 121.3693629, "tags": {"admin_level": "11", "is_in:province": "Rizal", "is_in:town": "Pililla", "is_in:village": "Halayhayin", "name": "Bugarin", "note": "part of Brgy. Halayhayin, Pililla, Rizal", "place": "hamlet", "place:PH": "sitio"}}, {"type": "node", "id": 2811065801, "lat": 14.5475394, "lon": 121.4839951, "tags": {"alt_name": "Kamagong", "is_in:state": "Quezon", "name": "Camagong", "place": "neighbourhood", "source": "stone boundary marker \"sitio camagong\" barangay silang"}}, {"type": "node", "id": 2849688435, "lat": 14.5534265, "lon": 121.483194, "tags": {"is_in:city": "Infanta Quezon", "name": "New Little Baguio", "note": "boundary dispute with Real Quezon", "place": "neighbourhood"}}, {"type": "node", "id": 2849710668, "lat": 14.5531372, "lon": 121.4622697, "tags": {"is_in:city": "Santa Maria", "is_in:state": "Laguna", "name": "Laurel", "note": "Laurel is the common name; few houses here - not the center of the barangay", "official_name": "Jose Laurel Sr.", "place": "village"}}, {"type": "node", "id": 2849710669, "lat": 14.5458594, "lon": 121.4133962, "tags": {"alt_name": "Mataling-Ting", "is_in:state": "Laguna", "is_in:town": "Sta. Maria", "name": "Matalinting", "place": "village", "wikidata": "Q75943", "wikimedia_commons": "Category:Santa Maria, Laguna", "wikipedia": "en:Santa Maria, Laguna"}}, {"type": "node", "id": 2849710672, "lat": 14.5467474, "lon": 121.4212225, "tags": {"is_in:state": "Laguna", "is_in:town": "Sta. Maria", "name": "Pao-o", "place": "village", "population": "30830", "wikidata": "Q75943", "wikimedia_commons": "Category:Santa Maria, Laguna", "wikipedia": "en:Santa Maria, Laguna"}}, {"type": "node", "id": 2849744247, "lat": 14.5408799, "lon": 121.3764708, "tags": {"name": "Hilltop", "place": "neighbourhood"}}, {"type": "node", "id": 2849744251, "lat": 14.5474741, "lon": 121.3841572, "tags": {"alt_name": "Sitio Lalabasin", "is_in:city": "Tanay", "is_in:village": "Sampaloc", "name": "Lalabasin", "place": "neighbourhood"}}, {"type": "node", "id": 2850704317, "lat": 14.4877472, "lon": 121.4365065, "tags": {"is_in:city": "Santa Maria", "name": "Adia", "place": "village"}}, {"type": "node", "id": 2852242907, "lat": 14.5487905, "lon": 121.4628676, "tags": {"FIXME": "verify name - source was one bystander on the road", "alt_name": "Sitio Hambon", "is_in:city": "Santa Maria", "is_in:state": "Laguna", "name": "Hambon", "place": "neighbourhood"}}, {"type": "node", "id": 3504222335, "lat": 14.2397459, "lon": 121.6126115, "tags": {"FIXME": "name", "place": "neighbourhood"}}, {"type": "node", "id": 3753922639, "lat": 14.2660105, "lon": 121.3981212}, {"type": "node", "id": 3753922640, "lat": 14.266474, "lon": 121.3994332}, {"type": "node", "id": 3753922641, "lat": 14.2664892, "lon": 121.3979319}, {"type": "node", "id": 3753922642, "lat": 14.266521, "lon": 121.3979974}, {"type": "node", "id": 3753922643, "lat": 14.2666603, "lon": 121.3979464}, {"type": "node", "id": 3753922644, "lat": 14.2667168, "lon": 121.3981084}, {"type": "node", "id": 3753922645, "lat": 14.266932, "lon": 121.3980356}, {"type": "node", "id": 3753922646, "lat": 14.2671049, "lon": 121.3983979}, {"type": "node", "id": 3753922647, "lat": 14.2672407, "lon": 121.3991424}, {"type": "node", "id": 3753922648, "lat": 14.2672831, "lon": 121.3987747}, {"type": "node", "id": 3753922649, "lat": 14.2673113, "lon": 121.399328}, {"type": "node", "id": 3753922650, "lat": 14.2673995, "lon": 121.3990932}, {"type": "node", "id": 3753922686, "lat": 14.2722333, "lon": 121.4000883}, {"type": "node", "id": 3753922688, "lat": 14.2728059, "lon": 121.3998172}, {"type": "node", "id": 3753922689, "lat": 14.2724056, "lon": 121.398955}, {"type": "node", "id": 3753922690, "lat": 14.2724785, "lon": 121.3987464}, {"type": "node", "id": 4416661139, "lat": 14.5849506, "lon": 121.3595106, "tags": {"admin_level": "11", "designation": "sitio", "name": "Mayagay 2", "place": "neighbourhood"}}, {"type": "node", "id": 4783319921, "lat": 14.3524802, "lon": 121.4841936, "tags": {"name": "Labac Hills", "name:en": "Labac Hills", "place": "neighbourhood"}}, {"type": "node", "id": 4977377022, "lat": 14.5143147, "lon": 121.4399293, "tags": {"admin_level": "11", "designation": "sitio", "is_in:village": "Bagumbayan", "name": "Timbangan", "official_name": "Sitio Timbangan", "place": "neighbourhood"}}, {"type": "node", "id": 4977377123, "lat": 14.5183591, "lon": 121.4416964, "tags": {"admin_level": "11", "designation": "sitio", "name": "Laurel Ibaba", "place": "neighbourhood", "place:PH": "barangay"}}, {"type": "node", "id": 4977377222, "lat": 14.4677003, "lon": 121.4178247, "tags": {"admin_level": "11", "admin_type:PH": "sitio", "alt_name": "Sitio Bungliw", "is_in": "Kayhakat;Santa Maria", "is_in:town": "Santa Maria", "name": "Bugliw", "place": "neighbourhood"}}, {"type": "node", "id": 5314302097, "lat": 14.5339435, "lon": 121.3622102}, {"type": "node", "id": 5314302098, "lat": 14.5340204, "lon": 121.3639465}, {"type": "node", "id": 5314302099, "lat": 14.5356413, "lon": 121.365536}, {"type": "node", "id": 5314302100, "lat": 14.5367697, "lon": 121.3665994}, {"type": "node", "id": 5314302101, "lat": 14.5369842, "lon": 121.3667904}, {"type": "node", "id": 5314302103, "lat": 14.5362215, "lon": 121.3686114}, {"type": "node", "id": 5314302104, "lat": 14.5366889, "lon": 121.3690582}, {"type": "node", "id": 5314302105, "lat": 14.5382574, "lon": 121.3706594}, {"type": "node", "id": 5314302106, "lat": 14.5383001, "lon": 121.3705457}, {"type": "node", "id": 5314302107, "lat": 14.538902, "lon": 121.3710344}, {"type": "node", "id": 5314302108, "lat": 14.5394964, "lon": 121.371479}, {"type": "node", "id": 5314302109, "lat": 14.5399318, "lon": 121.3719283}, {"type": "node", "id": 5314302110, "lat": 14.5407226, "lon": 121.3728172}, {"type": "node", "id": 5314302111, "lat": 14.5409896, "lon": 121.3734677}, {"type": "node", "id": 5314302112, "lat": 14.54107, "lon": 121.3737524}, {"type": "node", "id": 5314302113, "lat": 14.5416643, "lon": 121.3759074}, {"type": "node", "id": 5314302114, "lat": 14.5420614, "lon": 121.3758426}, {"type": "node", "id": 5314302115, "lat": 14.5437373, "lon": 121.3763322}, {"type": "node", "id": 5314302116, "lat": 14.5447156, "lon": 121.3754893}, {"type": "node", "id": 5314302117, "lat": 14.5456462, "lon": 121.3747378}, {"type": "node", "id": 5314302119, "lat": 14.5461966, "lon": 121.3736944}, {"type": "node", "id": 5314302120, "lat": 14.5463134, "lon": 121.3732652}, {"type": "node", "id": 5314302521, "lat": 14.5421374, "lon": 121.3710591}, {"type": "node", "id": 5314302522, "lat": 14.5412898, "lon": 121.3700899}, {"type": "node", "id": 5314302523, "lat": 14.5400325, "lon": 121.3687966}, {"type": "node", "id": 5314302524, "lat": 14.5400586, "lon": 121.3678625}, {"type": "node", "id": 5314302525, "lat": 14.5404724, "lon": 121.3675699}, {"type": "node", "id": 5314302526, "lat": 14.5415631, "lon": 121.3673427}, {"type": "node", "id": 5314302527, "lat": 14.5413447, "lon": 121.3672417}, {"type": "node", "id": 5314302528, "lat": 14.5404324, "lon": 121.3663623}, {"type": "node", "id": 5314302531, "lat": 14.5390447, "lon": 121.364962}, {"type": "node", "id": 5314302532, "lat": 14.5371791, "lon": 121.3628322}, {"type": "node", "id": 5314302533, "lat": 14.5366287, "lon": 121.3630957}, {"type": "node", "id": 5314302535, "lat": 14.5353829, "lon": 121.3626925}, {"type": "node", "id": 5314302536, "lat": 14.535175, "lon": 121.3627678}, {"type": "node", "id": 5314302537, "lat": 14.5339625, "lon": 121.3625749}, {"type": "node", "id": 5345932921, "lat": 14.6325895, "lon": 121.4140946, "tags": {"alt_name": "Lower Lumutan", "is_in:quarter": "Lower Lumutan", "is_in:town": "General Nakar", "name": "Malibay", "place": "hamlet"}}, {"type": "node", "id": 5353600573, "lat": 14.4630714, "lon": 121.4536134, "tags": {"name": "Salangbato", "place": "village"}}, {"type": "node", "id": 5353841260, "lat": 14.4740461, "lon": 121.4878383, "tags": {"name": "Bacong-Sigsigan", "place": "village"}}, {"type": "node", "id": 5354774535, "lat": 14.576468, "lon": 121.6183831, "tags": {"name": "Tignoan", "place": "village"}}, {"type": "node", "id": 5354774536, "lat": 14.5511297, "lon": 121.6223315, "tags": {"name": "Malapad", "place": "village"}}, {"type": "node", "id": 5354774537, "lat": 14.5032786, "lon": 121.6293948, "tags": {"admin_level": "10", "designation": "barangay", "is_in:town": "Real", "name": "Lubayat", "place": "village", "source:name": "extrapolated from OSMaPaaralan, way/786102872"}}, {"type": "node", "id": 5354774538, "lat": 14.5926848, "lon": 121.6099244, "tags": {"fixme": "move to barangay center", "name": "Tagumpay", "place": "village"}}, {"type": "node", "id": 5354774539, "lat": 14.6046453, "lon": 121.6059118, "tags": {"name": "Capalong", "place": "village"}}, {"type": "node", "id": 5354774540, "lat": 14.6231626, "lon": 121.60502, "tags": {"name": "Kiloloran", "place": "village"}}, {"type": "node", "id": 5417864326, "lat": 14.544891, "lon": 121.372384}, {"type": "node", "id": 5417864327, "lat": 14.5458153, "lon": 121.3728145}, {"type": "node", "id": 5417864328, "lat": 14.544634, "lon": 121.3721171}, {"type": "node", "id": 5417864329, "lat": 14.5452909, "lon": 121.3727702}, {"type": "node", "id": 5417864330, "lat": 14.5436981, "lon": 121.3710938}, {"type": "node", "id": 5417864331, "lat": 14.5441265, "lon": 121.3759487}, {"type": "node", "id": 5417864332, "lat": 14.5441187, "lon": 121.376056}, {"type": "node", "id": 5417864344, "lat": 14.536893, "lon": 121.3693395}, {"type": "node", "id": 5417864351, "lat": 14.54114, "lon": 121.3740096}, {"type": "node", "id": 5417864396, "lat": 14.5409227, "lon": 121.36745}, {"type": "node", "id": 5417864418, "lat": 14.5405942, "lon": 121.3694108}, {"type": "node", "id": 5417864419, "lat": 14.5399815, "lon": 121.3681998}, {"type": "node", "id": 5417864719, "lat": 14.5337802, "lon": 121.3633637}, {"type": "node", "id": 5417864720, "lat": 14.5360779, "lon": 121.3659319}, {"type": "node", "id": 5417864721, "lat": 14.5347382, "lon": 121.3647236}, {"type": "node", "id": 5417864726, "lat": 14.5345863, "lon": 121.3626046}, {"type": "node", "id": 5417864727, "lat": 14.5337788, "lon": 121.3624223}, {"type": "node", "id": 5417864728, "lat": 14.5338269, "lon": 121.3626797}, {"type": "node", "id": 5417864729, "lat": 14.533936, "lon": 121.3624276}, {"type": "node", "id": 5421537625, "lat": 14.2267119, "lon": 121.747359, "tags": {"name": "OPL Resettlement Homes", "place": "neighbourhood"}}, {"type": "node", "id": 5427910818, "lat": 14.3772668, "lon": 121.4076795, "tags": {"name": "Banilan", "place": "village", "population": "1680"}}, {"type": "node", "id": 6191806387, "lat": 14.4325128, "lon": 121.4557845, "tags": {"name": "Halayhayin", "place": "village"}}, {"type": "node", "id": 6307705185, "lat": 14.564315, "lon": 121.3670745, "tags": {"name": "Liro Homes", "place": "neighbourhood"}}, {"type": "node", "id": 6343230657, "lat": 14.5917003, "lon": 121.4210755, "tags": {"fixme": "name of sitio", "is_in:city": "Tanay", "is_in:village": "Daraitan", "place": "neighbourhood"}}, {"type": "node", "id": 6343230754, "lat": 14.6067575, "lon": 121.4514488, "tags": {"admin_level": "11", "designation": "sitio", "is_in:city": "General Nakar", "is_in:quarter": "Pagsangahan", "is_in:town": "General Nakar", "name": "Cablao", "place": "hamlet"}}, {"type": "node", "id": 6343231138, "lat": 14.6096021, "lon": 121.4759588, "tags": {"admin_level": "11", "alt_name": "Queborrossa;Keborosa", "designation": "sitio", "is_in:city": "Infanta", "is_in:quarter": "Magsaysay", "name": "Kiborosa", "place": "hamlet", "source:name": "extrapolated from OSMaPaaralan, way/963862076"}}, {"type": "node", "id": 6343258498, "lat": 14.5829293, "lon": 121.4205229, "tags": {"fixme": "name", "is_in:city": "Tanay", "is_in:village": "Daraitan", "place": "neighbourhood"}}, {"type": "node", "id": 6343571143, "lat": 14.5467565, "lon": 121.3939637, "tags": {"fixme": "name of sitio", "is_in:city": "Tanay", "is_in:village": "Sampaloc", "place": "neighbourhood"}}, {"type": "node", "id": 6343617503, "lat": 14.5282005, "lon": 121.4366296, "tags": {"is_in:city": "Santa Maria", "name": "Parang Ng Buho", "place": "village"}}, {"type": "node", "id": 6345232399, "lat": 14.5008557, "lon": 121.4409292, "tags": {"is_in:city": "Santa Maria", "name": "Macasipac", "place": "village"}}, {"type": "node", "id": 6345232470, "lat": 14.5111801, "lon": 121.4343658, "tags": {"admin_level": "10", "designation": "barangay", "is_in:city": "Santa Maria", "name": "Bagumbayan", "place": "village", "source:name": "extrapolated from OSMaPaaralan"}}, {"type": "node", "id": 6345457471, "lat": 14.5058933, "lon": 121.458444, "tags": {"admin_level": "10", "designation": "barangay", "is_in:city": "Santa Maria", "name": "Cueva", "place": "village", "source:name": "extrapolated from OSMaPaaralan, way/791820260"}}, {"type": "node", "id": 6347835769, "lat": 14.5440148, "lon": 121.3717094}, {"type": "node", "id": 6347835770, "lat": 14.5432723, "lon": 121.3710523}, {"type": "node", "id": 6347835771, "lat": 14.5431996, "lon": 121.3711944}, {"type": "node", "id": 6347835772, "lat": 14.5430919, "lon": 121.3712494}, {"type": "node", "id": 6347835773, "lat": 14.5425421, "lon": 121.3710019}, {"type": "node", "id": 6347835774, "lat": 14.5423117, "lon": 121.3708947}, {"type": "node", "id": 6347835775, "lat": 14.5415743, "lon": 121.3704018}, {"type": "node", "id": 6347836663, "lat": 14.5402126, "lon": 121.3676995}, {"type": "node", "id": 6347836667, "lat": 14.5399166, "lon": 121.3657865}, {"type": "node", "id": 6347836668, "lat": 14.5387327, "lon": 121.3645841}, {"type": "node", "id": 6347836669, "lat": 14.5389456, "lon": 121.3648362}, {"type": "node", "id": 6347836677, "lat": 14.5394817, "lon": 121.3653271}, {"type": "node", "id": 6347836678, "lat": 14.5394129, "lon": 121.3653619}, {"type": "node", "id": 6347836682, "lat": 14.5355794, "lon": 121.3628554}, {"type": "node", "id": 6347836683, "lat": 14.5338334, "lon": 121.3623056}, {"type": "node", "id": 6347911114, "lat": 14.5397752, "lon": 121.3658314}, {"type": "node", "id": 6348067587, "lat": 14.5098662, "lon": 121.4064252, "tags": {"is_in:city": "Santa Maria", "name": "Calangay", "place": "village"}}, {"type": "node", "id": 6348067588, "lat": 14.4927744, "lon": 121.4068222, "tags": {"is_in:city": "Santa Maria", "name": "Tungkod", "place": "village"}}, {"type": "node", "id": 6348067589, "lat": 14.4444783, "lon": 121.4016605, "tags": {"is_in:city": "Santa Maria", "name": "Paagahan", "place": "village", "population": "4035"}}, {"type": "node", "id": 6348067590, "lat": 14.4763305, "lon": 121.4122188, "tags": {"is_in:city": "Santa Maria", "name": "Bubukal", "place": "village"}}, {"type": "node", "id": 6348067591, "lat": 14.4673341, "lon": 121.4026594, "tags": {"is_in:city": "Santa Maria", "name": "Cambuja", "place": "village"}}, {"type": "node", "id": 6348102917, "lat": 14.4921304, "lon": 121.4301467, "tags": {"is_in:city": "Santa Maria", "name": "Masinao", "place": "village"}}, {"type": "node", "id": 6348102918, "lat": 14.4948415, "lon": 121.4204263, "tags": {"is_in:city": "Santa Maria", "name": "Coralan", "place": "village"}}, {"type": "node", "id": 6348107043, "lat": 14.4751787, "lon": 121.4390154, "tags": {"admin_type:PH": "barangay", "is_in:city": "Santa Maria", "name": "Talangka", "old_ref": "043427025", "place": "village", "population": "1881", "population:2015": "1831", "ref": "0403427025"}}, {"type": "node", "id": 6349229336, "lat": 14.4585763, "lon": 121.4293742, "tags": {"is_in:city": "Santa Maria", "name": "Cabooan", "place": "village"}}, {"type": "node", "id": 6350253079, "lat": 14.4719492, "lon": 121.4293152, "tags": {"admin_type:PH": "barangay", "is_in:city": "Santa Maria", "name": "Bagong Pook", "old_ref": "043427002", "place": "neighbourhood", "population": "2310", "population:2015": "2283", "ref": "0403427002"}}, {"type": "node", "id": 6350253080, "lat": 14.4701857, "lon": 121.4260751, "tags": {"admin_level": "10", "admin_type:PH": "barangay", "alt_name": "Barangay \u2163", "is_in:town": "Santa Maria", "name": "Barangay Cuatro", "old_ref": "043427022", "place": "neighbourhood", "population": "504", "population:2015": "525", "ref": "0403427022", "source:population": "Philippine Statistics Authority"}}, {"type": "node", "id": 6350253081, "lat": 14.4715414, "lon": 121.4258766, "tags": {"admin_level": "10", "admin_type:PH": "barangay", "alt_name": "Barangay \u2162", "is_in:town": "Santa Maria", "name": "Barangay Tres", "old_ref": "043427021", "place": "neighbourhood", "population": "812", "population:2015": "855", "ref": "0403427021", "short_name": "Barangay 3", "source:population": "Philippine Statistics Authority"}}, {"type": "node", "id": 6350253082, "lat": 14.4696455, "lon": 121.4230174, "tags": {"admin_level": "10", "admin_type:PH": "barangay", "alt_name": "Barangay \u2161", "is_in:city": "Santa Maria", "name": "Barangay Dos", "old_ref": "043427020", "place": "neighbourhood", "population": "627", "population:2015": "621", "ref": "0403427020"}}, {"type": "node", "id": 6350253083, "lat": 14.4697286, "lon": 121.4219659, "tags": {"admin_level": "10", "admin_type:PH": "barangay", "alt_name": "Barangay \u2160", "is_in:town": "Santa Maria", "name": "Barangay Uno", "old_ref": "043427019", "place": "neighbourhood", "population": "1219", "population:2015": "973", "ref": "0403427019", "source:population": "Philippine Statistics Authority"}}, {"type": "node", "id": 6350253084, "lat": 14.4645837, "lon": 121.4231998, "tags": {"is_in:city": "Santa Maria", "name": "Jose Rizal", "place": "village"}}, {"type": "node", "id": 6350873483, "lat": 14.4522649, "lon": 121.4211237, "tags": {"is_in:city": "Mabitac", "name": "San Antonio", "place": "village", "population": "1548", "source:population": "Philippine Statistics Authority"}}, {"type": "node", "id": 6352772722, "lat": 14.5232886, "lon": 121.4196935, "tags": {"is_in:city": "Santa Maria", "is_in:village": "Pao-o", "name": "Kapatagan", "place": "neighbourhood"}}, {"type": "node", "id": 6417551199, "lat": 14.2809505, "lon": 121.3942976}, {"type": "node", "id": 6417551200, "lat": 14.2807711, "lon": 121.3966633}, {"type": "node", "id": 6417551201, "lat": 14.2806841, "lon": 121.3964662}, {"type": "node", "id": 6417551202, "lat": 14.2810759, "lon": 121.3962858}, {"type": "node", "id": 6417551203, "lat": 14.2811155, "lon": 121.3963656}, {"type": "node", "id": 6417551204, "lat": 14.2816718, "lon": 121.3961256}, {"type": "node", "id": 6417556428, "lat": 14.2734448, "lon": 121.3977697}, {"type": "node", "id": 6417556429, "lat": 14.2729509, "lon": 121.3980004}, {"type": "node", "id": 6417556430, "lat": 14.2732369, "lon": 121.3985288}, {"type": "node", "id": 6417556431, "lat": 14.273307, "lon": 121.3985744}, {"type": "node", "id": 6417556432, "lat": 14.273514, "lon": 121.3984891}, {"type": "node", "id": 6417556433, "lat": 14.2736876, "lon": 121.3990496}, {"type": "node", "id": 6417556434, "lat": 14.2735462, "lon": 121.3991001}, {"type": "node", "id": 6417556435, "lat": 14.2736554, "lon": 121.3993737}, {"type": "node", "id": 6417556436, "lat": 14.2730575, "lon": 121.3996688}, {"type": "node", "id": 6417556441, "lat": 14.2726546, "lon": 121.3987112}, {"type": "node", "id": 6417556442, "lat": 14.2727924, "lon": 121.3986254}, {"type": "node", "id": 6417556443, "lat": 14.2725558, "lon": 121.3981426}, {"type": "node", "id": 6417556444, "lat": 14.2722855, "lon": 121.3983008}, {"type": "node", "id": 6432819711, "lat": 14.2779177, "lon": 121.4096731}, {"type": "node", "id": 6488869837, "lat": 14.2264582, "lon": 121.4641289, "tags": {"admin_level": "10", "admin_type:PH": "barangay", "name": "Anibong", "place": "village", "population": "352", "postal_code": "4008"}}, {"type": "node", "id": 6488869838, "lat": 14.2483364, "lon": 121.4587012, "tags": {"admin_level": "10", "admin_type:PH": "barangay", "name": "Lambac", "place": "village", "postal_code": "4008"}}, {"type": "node", "id": 6488911400, "lat": 14.2532985, "lon": 121.3827166, "tags": {"name": "Duhat", "place": "village"}}, {"type": "node", "id": 6566230143, "lat": 14.3408586, "lon": 121.3770912, "tags": {"admin_level": "10", "designation": "barangay", "name": "Bagumbong", "old_ref": "045807001", "place": "village", "population": "3381", "population:date": "2020-05-01", "postal_code": "1990", "ref": "0405807001", "source:population": "Philippine Statistics Authority", "wikidata": "Q116621491"}}, {"type": "node", "id": 6566235400, "lat": 14.3543776, "lon": 121.3965209, "tags": {"admin_level": "10", "admin_type:PH": "barangay", "is_in:municipality": "Pakil", "name": "Casa Real", "official_name": "Barangay Casa Real", "place": "village", "population": "1505", "population:date": "2020-05-01", "postal_code": "4017", "related_law": "Republic Act No. 1025", "start_date": "1954-06-12"}}, {"type": "node", "id": 6566235401, "lat": 14.367618, "lon": 121.4013701, "tags": {"admin_level": "10", "admin_type:PH": "barangay", "is_in:municipality": "Pakil", "name": "Kabulusan", "official_name": "Barangay Kabulusan", "place": "village", "population": "3500", "postal_code": "4017", "related_law": "Republic Act No. 1027", "start_date": "1954-06-12"}}, {"type": "node", "id": 6566235443, "lat": 14.3451976, "lon": 121.3866676, "tags": {"admin_level": "10", "admin_type:PH": "barangay", "is_in:municipality": "Pakil", "name": "Casinsin", "official_name": "Barangay Casinsin", "old_ref": "043420005", "place": "village", "population": "2192", "postal_code": "4017", "ref": "0403420005", "related_law": "Republic Act No. 1026", "start_date": "1954-06-12"}}, {"type": "node", "id": 6566235636, "lat": 14.3851667, "lon": 121.4050676, "tags": {"name": "Mabato-Azufre", "place": "village", "population": "1654"}}, {"type": "node", "id": 6566235643, "lat": 14.3969995, "lon": 121.4067025, "tags": {"admin_level": "10", "designation": "barangay", "is_in:town": "Pangil", "name": "Dambo", "place": "village", "population": "2228"}}, {"type": "node", "id": 6566235644, "lat": 14.4163188, "lon": 121.4094654, "tags": {"admin_level": "10", "admin_type:PH": "barangay", "is_in:town": "Mabitac", "name": "Matalatala", "old_ref": "043414004", "place": "village", "population": "4352", "population:2015": "3818", "postal_code": "4020", "ref": "0403414004", "source:population": "Philippine Statistics Authority"}}, {"type": "node", "id": 6566235951, "lat": 14.4050818, "lon": 121.4645965, "tags": {"name": "Sulib", "place": "village", "population": "6546"}}, {"type": "node", "id": 6566235952, "lat": 14.3965459, "lon": 121.4735542, "tags": {"name": "Balian", "place": "village", "population": "6014"}}, {"type": "node", "id": 6566235953, "lat": 14.4050496, "lon": 121.4696594, "tags": {"name": "Natividad", "place": "village", "population": "2720"}}, {"type": "node", "id": 6566236030, "lat": 14.2655207, "lon": 121.5449678, "tags": {"admin_level": "10", "admin_type:PH": "barangay", "is_in:town": "?", "is_in:village": "?", "name": "Mahipon", "place": "village", "population": "2097", "source:name": "extrapolated from OSMaPaaralan"}}, {"type": "node", "id": 6566236031, "lat": 14.2614042, "lon": 121.5337652, "tags": {"admin_level": "10", "admin_type:PH": "barangay", "is_in:town": "Cavinti", "name": "Inao-awan", "place": "village", "population": "977", "source:name": "extrapolated from OSMaPaaralan, way/971051773"}}, {"type": "node", "id": 6568870984, "lat": 14.364334, "lon": 121.4832057}, {"type": "node", "id": 6568885101, "lat": 14.3653161, "lon": 121.4831293}, {"type": "node", "id": 6568926394, "lat": 14.3653211, "lon": 121.4833045}, {"type": "node", "id": 6569917420, "lat": 14.3643448, "lon": 121.4832942}, {"type": "node", "id": 6570180734, "lat": 14.357978, "lon": 121.485169, "tags": {"name": "Upper White Plains", "place": "neighbourhood"}}, {"type": "node", "id": 6570180735, "lat": 14.3592227, "lon": 121.4831243}, {"type": "node", "id": 6570180736, "lat": 14.3588977, "lon": 121.4832529}, {"type": "node", "id": 6570180737, "lat": 14.3589745, "lon": 121.4834596}, {"type": "node", "id": 6570180738, "lat": 14.3586477, "lon": 121.4835888}, {"type": "node", "id": 6570180739, "lat": 14.3587413, "lon": 121.483841}, {"type": "node", "id": 6570180740, "lat": 14.3587178, "lon": 121.483956}, {"type": "node", "id": 6570180741, "lat": 14.3590066, "lon": 121.4840191}, {"type": "node", "id": 6570180742, "lat": 14.359016, "lon": 121.4839735}, {"type": "node", "id": 6570180743, "lat": 14.3592619, "lon": 121.4838761}, {"type": "node", "id": 6570180744, "lat": 14.3591531, "lon": 121.4835835}, {"type": "node", "id": 6570180745, "lat": 14.3593625, "lon": 121.4835006}, {"type": "node", "id": 6570180753, "lat": 14.3717238, "lon": 121.4813943, "tags": {"admin_type:PH": "sitio", "alt_name": "Sitio Mabata", "name": "Mabata", "place": "neighbourhood"}}, {"type": "node", "id": 6572736550, "lat": 14.3653128, "lon": 121.4826271}, {"type": "node", "id": 6572736553, "lat": 14.3643699, "lon": 121.4822324}, {"type": "node", "id": 6572736554, "lat": 14.3643677, "lon": 121.4826569}, {"type": "node", "id": 6572736555, "lat": 14.3643221, "lon": 121.4832902}, {"type": "node", "id": 6572744302, "lat": 14.3670737, "lon": 121.483132, "tags": {"name": "Greenhills", "place": "neighbourhood"}}, {"type": "node", "id": 6572744303, "lat": 14.3657863, "lon": 121.4839673, "tags": {"name": "Beverly Hills", "place": "neighbourhood"}}, {"type": "node", "id": 6576100161, "lat": 14.3559866, "lon": 121.4837985, "tags": {"name": "Jorec's", "place": "neighbourhood"}}, {"type": "node", "id": 6576100162, "lat": 14.3551239, "lon": 121.4853167, "tags": {"name": "Bukal", "place": "neighbourhood"}}, {"type": "node", "id": 6583718512, "lat": 14.3650291, "lon": 121.4834982}, {"type": "node", "id": 6958374577, "lat": 14.3319576, "lon": 121.3539885, "tags": {"admin_level": "10", "designation": "barangay", "name": "Lubo", "old_ref": "045807007", "place": "village", "population": "1940", "population:date": "2020-05-01", "postal_code": "1990", "ref": "0405807007", "source:population": "Philippine Statistics Authority", "wikidata": "Q116621538"}}, {"type": "node", "id": 7099657162, "lat": 14.2155449, "lon": 121.3742955, "tags": {"admin_level": "10", "admin_type:PH": "barangay", "is_in:town": "Pila", "name": "Pansol", "place": "village", "postal_code": "4010", "ref": "043422011"}}, {"type": "node", "id": 7099657163, "lat": 14.21143, "lon": 121.3676941, "tags": {"admin_level": "10", "admin_type:PH": "barangay", "is_in:town": "Pila", "name": "Bukal", "place": "village", "postal_code": "4010", "ref": "043422003"}}, {"type": "node", "id": 7099657167, "lat": 14.2008232, "lon": 121.3767735, "tags": {"admin_level": "10", "admin_type:PH": "barangay", "is_in:town": "Pila", "name": "San Miguel", "place": "village", "postal_code": "4010", "ref": "043422015"}}, {"type": "node", "id": 7099657168, "lat": 14.2074945, "lon": 121.3802174, "tags": {"admin_level": "10", "admin_type:PH": "barangay", "is_in:town": "Pila", "name": "Masico", "place": "village", "postal_code": "4010", "ref": "043422009"}}, {"type": "node", "id": 7099657169, "lat": 14.2202078, "lon": 121.3810944, "tags": {"admin_level": "10", "admin_type:PH": "barangay", "is_in:town": "Pila", "name": "Mojon", "place": "village", "postal_code": "4010", "ref": "043422010"}}, {"type": "node", "id": 7099657170, "lat": 14.2285382, "lon": 121.3823304, "tags": {"admin_level": "10", "admin_type:PH": "barangay", "is_in:town": "Pila", "name": "Concepcion", "place": "village", "postal_code": "4010", "ref": "043422006"}}, {"type": "node", "id": 7099657172, "lat": 14.2500451, "lon": 121.359381, "tags": {"admin_level": "10", "admin_type:PH": "barangay", "is_in:town": "Pila", "name": "Pinagbayanan", "place": "village", "postal_code": "4010", "ref": "043422012"}}, {"type": "node", "id": 7099657173, "lat": 14.2552481, "lon": 121.3591803, "tags": {"admin_level": "10", "admin_type:PH": "barangay", "is_in:town": "Pila", "name": "Linga", "place": "village", "postal_code": "4010", "ref": "043422008"}}, {"type": "node", "id": 7099657174, "lat": 14.2584206, "lon": 121.3523647, "tags": {"admin_level": "10", "admin_type:PH": "barangay", "is_in:town": "Pila", "name": "Aplaya", "place": "village", "postal_code": "4010", "ref": "043422001"}}, {"type": "node", "id": 7099657175, "lat": 14.2558762, "lon": 121.3687065, "tags": {"admin_level": "10", "admin_type:PH": "barangay", "is_in:town": "Pila", "name": "Bagong Pook", "place": "village", "postal_code": "4010", "ref": "043422002"}}, {"type": "node", "id": 7175999870, "lat": 14.2849468, "lon": 121.415812}, {"type": "node", "id": 7403980799, "lat": 14.2033244, "lon": 121.4002204, "tags": {"name": "Calumpang", "place": "village", "postal_code": "4004"}}, {"type": "node", "id": 7650616311, "lat": 14.1938837, "lon": 121.5025127, "tags": {"name": "Pantay", "place": "neighbourhood"}}, {"type": "node", "id": 7650616313, "lat": 14.1947755, "lon": 121.5137404, "tags": {"name": "Tinglay", "place": "neighbourhood"}}, {"type": "node", "id": 7676346047, "lat": 14.2089962, "lon": 121.4919045, "tags": {"name": "Dapi", "place": "neighbourhood"}}, {"type": "node", "id": 7683246897, "lat": 14.2474552, "lon": 121.4528558, "tags": {"admin_level": "10", "admin_type:PH": "barangay", "name": "Dingin", "place": "village", "population": "1222", "postal_code": "4008"}}, {"type": "node", "id": 7683246901, "lat": 14.2248212, "lon": 121.4305335, "tags": {"admin_level": "10", "admin_type:PH": "barangay", "is_in:town": "Magdalena", "name": "Cigaras", "old_ref": "043415011", "place": "village", "population": "3593", "population:2015": "3106", "postal_code": "4007", "ref": "0403415011"}}, {"type": "node", "id": 7683246936, "lat": 14.1973148, "lon": 121.4334942, "tags": {"name": "Munting Ambling", "place": "village", "population": "1157", "postal_code": "4007"}}, {"type": "node", "id": 7683246937, "lat": 14.2054756, "lon": 121.4415246, "tags": {"name": "Bucal", "place": "village", "population": "983", "postal_code": "4007"}}, {"type": "node", "id": 7683246938, "lat": 14.2068427, "lon": 121.4308234, "tags": {"admin_level": "10", "admin_type:PH": "barangay", "is_in:town": "Magdalena", "name": "Salasad", "old_ref": "043415021", "place": "village", "population": "3047", "population:2015": "2477", "postal_code": "4007", "ref": "0403415021", "source:population": "Philippine Statistics Authority"}}, {"type": "node", "id": 7683246939, "lat": 14.2187124, "lon": 121.4436156, "tags": {"name": "Ilog", "place": "village", "population": "376", "postal_code": "4007"}}, {"type": "node", "id": 7683246953, "lat": 14.228108, "lon": 121.4566779, "tags": {"name": "Sabang", "place": "village", "population": "1308", "postal_code": "4007"}}, {"type": "node", "id": 7683247121, "lat": 14.2159408, "lon": 121.4524005, "tags": {"name": "Balanac", "place": "village", "population": "1120", "postal_code": "4007"}}, {"type": "node", "id": 7683247236, "lat": 14.2068121, "lon": 121.457076, "tags": {"name": "Buo", "place": "village", "population": "267", "postal_code": "4007"}}, {"type": "node", "id": 7683247264, "lat": 14.1954833, "lon": 121.4423807, "tags": {"name": "Ilayang Atingay", "place": "village", "population": "271", "postal_code": "4007"}}, {"type": "node", "id": 7683247274, "lat": 14.2043784, "lon": 121.4438366, "tags": {"name": "Ibabang Atingay", "place": "village", "population": "455", "postal_code": "4007"}}, {"type": "node", "id": 7683247688, "lat": 14.2308781, "lon": 121.6241669, "tags": {"admin_level": "10", "admin_type:PH": "barangay", "is_in:municipality": "Sampaloc", "name": "Caldong", "place": "hamlet", "population": "158", "source:name": "extrapolated from OSMaPaaralan"}}, {"type": "node", "id": 7683247699, "lat": 14.2457542, "lon": 121.524303, "tags": {"name": "Sisilmin", "place": "village", "population": "272"}}, {"type": "node", "id": 7683247730, "lat": 14.2405625, "lon": 121.4770933, "tags": {"name": "Bangco", "place": "village", "population": "159"}}, {"type": "node", "id": 7683247731, "lat": 14.231762, "lon": 121.510731, "tags": {"name": "Labayo", "place": "village", "population": "115"}}, {"type": "node", "id": 7683247762, "lat": 14.2405495, "lon": 121.5145343, "tags": {"name": "Udia", "place": "village", "population": "741"}}, {"type": "node", "id": 7683247765, "lat": 14.2312525, "lon": 121.5366679, "tags": {"name": "Layug", "place": "village", "population": "467"}}, {"type": "node", "id": 7683247766, "lat": 14.2472049, "lon": 121.5698147, "tags": {"name": "Paowin", "place": "village", "population": "820"}}, {"type": "node", "id": 7683247767, "lat": 14.2392912, "lon": 121.5446528, "tags": {"admin_level": "10", "admin_type:PH": "barangay", "is_in:town": "Cavinti", "name": "Bukal", "place": "village", "population": "1182", "postal_code": "4013", "source:name": "extrapolated from OSMaPaaralan, way/910017356"}}, {"type": "node", "id": 7683247773, "lat": 14.2368656, "lon": 121.5672155, "tags": {"admin_level": "10", "admin_type:PH": "barangay", "is_in:town": "Cavinti", "name": "Cansuso", "place": "village", "population": "1162", "source:name": "extrapolated from OSMaPaaralan, way/971049347"}}, {"type": "node", "id": 7683247774, "lat": 14.2139807, "lon": 121.5642813, "tags": {"admin_level": "10", "admin_type:PH": "barangay", "is_in:town": "Cavinti", "name": "Sumucab", "place": "village", "population": "392", "source:name": "extrapolated from OSMaPaaralan", "way": "971048213"}}, {"type": "node", "id": 7696863745, "lat": 14.2203534, "lon": 121.6059494, "tags": {"name": "Sitio Patola", "place": "neighbourhood"}}, {"type": "node", "id": 7696864292, "lat": 14.1965048, "lon": 121.5556365, "tags": {"name": "Purok II", "place": "neighbourhood"}}, {"type": "node", "id": 7696864293, "lat": 14.1958924, "lon": 121.5535015, "tags": {"name": "Purok I", "place": "neighbourhood"}}, {"type": "node", "id": 7830714537, "lat": 14.4702669, "lon": 121.4175764, "tags": {"admin_level": "10", "admin_type:PH": "barangay", "is_in:town": "Santa Maria", "name": "Kayhakat", "old_ref": "043427012", "place": "village", "population": "1387", "population:2015": "1231", "ref": "0403427012", "source:population": "Philippine Statistics Authority"}}, {"type": "node", "id": 7898834285, "lat": 14.2326603, "lon": 121.6132825, "tags": {"admin_level": "11", "admin_type:PH": "sitio", "is_in:quarter": "Cansuso", "is_in:town": "Cavinti", "name": "Calminue", "place": "neighbourhood", "source:name": "extrapolated from OSMaPaaralan, way/846579152"}}, {"type": "node", "id": 7899370648, "lat": 14.3518405, "lon": 121.3883352, "tags": {"admin_level": "10", "admin_type:PH": "barangay", "designation": "barangay", "is_in:town": "Pakil", "name": "Matikiw", "old_ref": "043420009", "place": "village", "population": "818", "population:2015": "697", "ref": "0403420009", "source:name": "extrapolated from OSMaPaaralan"}}, {"type": "node", "id": 7899370662, "lat": 14.3817747, "lon": 121.4013413, "tags": {"alt_name": "Sitio Balite", "is_in:barangay": "Banilan", "is_in:municipality": "Pakil", "name": "Balite", "place": "neighbourhood", "postal_code": "4017"}}, {"type": "node", "id": 7899464934, "lat": 14.4769668, "lon": 121.468698, "tags": {"name": "Mayatba", "place": "village"}}, {"type": "node", "id": 7899464935, "lat": 14.4537557, "lon": 121.4639801, "tags": {"name": "Macatad", "place": "village", "population": "2812"}}, {"type": "node", "id": 7935028739, "lat": 14.4065705, "lon": 121.537309, "tags": {"name": "Saray", "place": "village", "population": "269"}}, {"type": "node", "id": 7935049472, "lat": 14.3988023, "lon": 121.3878879, "tags": {"admin_level": "10", "admin_type:PH": "barangay", "ele": "460", "is_in:municipality": "Pakil", "name": "Dorado", "official_name": "Barangay Dorado", "place": "hamlet", "population": "265", "population:2010": "773", "population:date": "2020-05-01", "postal_code": "4017", "related_law": "Republic Act No. 1677", "start_date": "1957-06-20"}}, {"type": "node", "id": 8039470486, "lat": 14.2642039, "lon": 121.398527}, {"type": "node", "id": 8174031370, "lat": 14.3248682, "lon": 121.5307993, "tags": {"admin_level": "11", "admin_type:PH": "sitio", "is_in:quarter": "San Antonio", "is_in:town": "Kalayaan", "name": "Lunao", "place": "hamlet", "source:name": "extrapolated from OSMaPaaralan, way/219617889"}}, {"type": "node", "id": 8174031371, "lat": 14.3653671, "lon": 121.5511009, "tags": {"admin_level": "11", "admin_type:PH": "sitio", "is_in:town": "Paete", "name": "Papatahan", "place": "hamlet", "source:name": "extrapolated from OSMaPaaralan, relation/13065018"}}, {"type": "node", "id": 8174031377, "lat": 14.2068745, "lon": 121.7503381, "tags": {"admin_level": "11", "admin_type:PH": "sitio", "is_in": "San Lorenzo;Mauban", "name": "Malasur", "place": "neighbourhood"}}, {"type": "node", "id": 8174031393, "lat": 14.3452342, "lon": 121.7036945, "tags": {"place": "hamlet"}}, {"type": "node", "id": 8174031396, "lat": 14.3873636, "lon": 121.665355, "tags": {"place": "hamlet"}}, {"type": "node", "id": 8174031397, "lat": 14.372341, "lon": 121.6851014, "tags": {"place": "hamlet"}}, {"type": "node", "id": 8174031399, "lat": 14.4768863, "lon": 121.64, "tags": {"admin_level": "10", "designation": "barangay", "is_in:town": "Real", "name": "Pandan", "place": "village", "source:name": "extrapolated from OSMaPaaralan"}}, {"type": "node", "id": 8357376803, "lat": 14.2690544, "lon": 121.3914451, "tags": {"name": "Sitio 5", "place": "neighbourhood"}}, {"type": "node", "id": 8417268954, "lat": 14.3387741, "lon": 121.5285677, "tags": {"admin_level": "11", "admin_type:PH": "sitio", "designation": "sitio", "is_in:town": "Kalayaan", "is_in:village": "San Antonio", "name": "Kalayaan", "place": "neighbourhood", "source:name": "extrapolated from OSMaPaaralan, way/906448537"}}, {"type": "node", "id": 8430989919, "lat": 14.2026466, "lon": 121.5129183, "tags": {"name": "Limbon-limbon", "place": "neighbourhood"}}, {"type": "node", "id": 8433901730, "lat": 14.2633433, "lon": 121.4005177}, {"type": "node", "id": 8899580688, "lat": 14.5353029, "lon": 121.3604924, "tags": {"designation": "subdivision", "is_in:town": "Tanay", "is_in:village": "Sampaloc", "name": "Signal Village", "place": "neighbourhood", "source:name": "extrapolated from OSMaPaaralan, way/561939880"}}, {"type": "node", "id": 8910948265, "lat": 14.3535203, "lon": 121.3738746, "tags": {"admin_level": "11", "admin_type:PH": "purok", "alt_name": "Sitio Maulawin", "fixme": "review nearby municipal boundary", "is_in:barangay": "Casinsin", "is_in:municipality": "Pakil", "name": "Maulawin", "official_name": "Purok Maulawin", "place": "hamlet", "postal_code": "4017"}}, {"type": "node", "id": 8912945230, "lat": 14.5685429, "lon": 121.4213061, "tags": {"admin_level": "10", "alt_name": "Madilaydilay", "designation": "barangay", "is_in:town": "Tanay", "name": "Madilay-dilay", "note": "A separate barangay since 2018, and a former sitio of barangay Sampaloc, municipality of Tanay, RIZ.", "place": "hamlet", "ref": "045812021", "source:name": "extrapolated from OSMaPaaralan, way/963556196"}}, {"type": "node", "id": 8915404219, "lat": 14.6295372, "lon": 121.4748216, "tags": {"fixme": "name", "note": "Nearby farmland suggests that this is am active, settlement (sitio). Needs validation.", "place": "hamlet"}}, {"type": "node", "id": 8920899821, "lat": 14.5436981, "lon": 121.6059789, "tags": {"admin_level": "11", "designation": "sitio", "is_in:quarter": "Malapad", "is_in:town": "Real", "name": "Little Baguio", "place": "hamlet", "source:name": "extrapolated from OSMaPaaralan, way/964450431"}}, {"type": "node", "id": 8921092328, "lat": 14.4825373, "lon": 121.500967, "tags": {"admin_level": "10", "admin_type:PH": "barangay", "is_in:city": "Siniloan", "name": "Kapatalan", "place": "village", "source:name": "extrapolated from OSMaPaaralan"}}, {"type": "node", "id": 8921110487, "lat": 14.4992716, "lon": 121.5237933, "tags": {"admin_level": "10", "designation": "barangay", "is_in:city": "Siniloan", "name": "Magsaysay", "place": "village", "source:name": "extrapolated from OSMaPaaralan, way/791820284"}}, {"type": "node", "id": 8921164412, "lat": 14.5548215, "lon": 121.518559, "tags": {"admin_level": "10", "designation": "barangay", "is_in:town": "Real", "name": "Bagong Silang", "place": "hamlet", "source:name": "extrapolated from OSMaPaaralan"}}, {"type": "node", "id": 8921315475, "lat": 14.5567725, "lon": 121.5929259, "tags": {"admin_level": "10", "designation": "barangay", "is_in:town": "Real", "name": "Tanauan", "place": "village", "source:name": "extrapolated from OSMaPaaralan, way/786103411"}}, {"type": "node", "id": 8921359822, "lat": 14.6065005, "lon": 121.5835127, "tags": {"admin_level": "10", "designation": "barangay", "is_in:town": "Real", "name": "Tagumpay", "place": "hamlet", "source:name": "extrapolated from OSMaPaaralan"}}, {"type": "node", "id": 8921398463, "lat": 14.4811349, "lon": 121.5199873, "tags": {"admin_level": "10", "designation": "barangay", "is_in:town": "Real", "name": "Maunlad", "place": "hamlet", "source:name": "extrapolated from OSMaPaaralan"}}, {"type": "node", "id": 8921474460, "lat": 14.4435273, "lon": 121.5052244, "tags": {"admin_level": "10", "designation": "barangay", "is_in:town": "Pangil", "name": "Galalan", "place": "village", "source:name": "extrapolated from OSMaPaaralan"}}, {"type": "node", "id": 8945576108, "lat": 14.5194796, "lon": 121.6242536, "tags": {"admin_level": "10", "designation": "barangay", "is_in:town": "Real", "name": "Malapad", "place": "village", "source:name": "extrapolated from OSMaPaaralan, way/966900889"}}, {"type": "node", "id": 8952896784, "lat": 14.3451836, "lon": 121.7058476, "tags": {"admin_level": "10", "alt_name": "Cagsiay 3", "designation": "barangay", "is_in:municipality": "Mauban", "name": "Cagsiay III", "place": "village", "ref": "045627010", "source:name": "extrapolated from OSMaPaaralan"}}, {"type": "node", "id": 8952938219, "lat": 14.2574995, "lon": 121.7328018, "tags": {"admin_level": "12", "designation": "purok", "is_in:municipality": "Mauban", "is_in:quarter": "Cagsiay \u2162", "name": "Piapi", "place": "hamlet", "source:name": "extrapolated from OSMaPaaralan"}}, {"type": "node", "id": 8953024946, "lat": 14.1961771, "lon": 121.7409316, "tags": {"admin_level": "10", "designation": "barangay", "is_in:municipality": "Mauban", "name": "San Lorenzo", "place": "village", "source:name": "extrapolated from OSMaPaaralan, way/967738780"}}, {"type": "node", "id": 8984614547, "lat": 14.1944791, "lon": 121.7285344, "tags": {"admin_level": "10", "admin_type:PH": "barangay", "is_in:municipality": "Mauban", "name": "Soledad", "place": "neighbourhood", "source:name": "extrapolated from OSMaPaaralan, way/970782520"}}, {"type": "node", "id": 8987160501, "lat": 14.2790803, "lon": 121.53736, "tags": {"admin_level": "10", "admin_type:PH": "barangay", "is_in:town": "Cavinti", "name": "Silangan Talaongan", "place": "village", "source:name": "extrapolated from OSMaPaaralan, way/971059644"}}, {"type": "node", "id": 8987261539, "lat": 14.2958961, "lon": 121.4959171, "tags": {"admin_level": "10", "admin_type:PH": "barangay", "is_in:town": "Lumban", "name": "Lewin", "place": "village", "source:name": "extrapolated from OSMaPaaralan, way/971070216"}}, {"type": "node", "id": 8987277660, "lat": 14.3080819, "lon": 121.5427244, "tags": {"admin_level": "11", "admin_type:PH": "sitio", "is_in:quarter": "residential", "is_in:town": "?", "is_in:village": "?", "name": "Magalolon", "place": "village", "source:name": "extrapolated from OSMaPaaralan, way/971072853"}}, {"type": "node", "id": 9106990291, "lat": 14.4231949, "lon": 121.4001673, "tags": {"name": "Numero", "place": "village"}}, {"type": "node", "id": 9300303379, "lat": 14.1959431, "lon": 121.3806116, "tags": {"admin_level": "10", "name": "Daniw", "place": "village", "postal_code": "4004"}}, {"type": "node", "id": 9528629630, "lat": 14.2093254, "lon": 121.3992872, "tags": {"name": "Mojon", "place": "village"}}, {"type": "node", "id": 9528647361, "lat": 14.2027524, "lon": 121.3895319, "tags": {"name": "Dita", "place": "village"}}, {"type": "node", "id": 9528647362, "lat": 14.1988, "lon": 121.3928364, "tags": {"name": "San Isidro", "place": "village"}}, {"type": "node", "id": 9528647363, "lat": 14.1997985, "lon": 121.4071129, "tags": {"name": "Malabo-Kalantukan", "place": "village"}}, {"type": "node", "id": 9725722704, "lat": 14.2393481, "lon": 121.4373723, "tags": {"admin_level": "10", "admin_type:PH": "barangay", "name": "Layugan", "old_ref": "043419008", "place": "village", "population": "316", "population:2015": "296", "postal_code": "4008", "ref": "0403419008", "source:population": "Philippine Statistics Authority"}}, {"type": "node", "id": 9725773183, "lat": 14.2429449, "lon": 121.4338676, "tags": {"admin_level": "10", "admin_type:PH": "barangay", "name": "Cabanbanan", "old_ref": "043419004", "place": "village", "population": "5907", "population:2015": "5394", "postal_code": "4008", "ref": "0403419004", "source:name": "extrapolated from relation:14119231"}}, {"type": "node", "id": 9725773184, "lat": 14.242272, "lon": 121.4326528, "tags": {"name": "Liwag Subdivision", "place": "neighbourhood"}}, {"type": "node", "id": 9725787540, "lat": 14.4246808, "lon": 121.4452945, "tags": {"admin_level": "10", "admin_type:PH": "barangay", "name": "P. Burgos", "name:etymology": "Padre Burgos", "name:etymology:wikidata": "Q983553", "old_ref": "043429019", "place": "village", "population": "4805", "population:2015": "2884", "ref": "0403429019"}}, {"type": "node", "id": 9725787624, "lat": 14.428722, "lon": 121.4483582, "tags": {"admin_level": "10", "admin_type:PH": "barangay", "is_in:town": "Siniloan", "name": "Buhay", "old_ref": "043429005", "place": "village", "population": "1110", "population:2015": "1129", "ref": "043429005", "source:name": "extrapolated from way:212166370", "source:population": "Philippine Statistics Authority"}}, {"type": "node", "id": 10677480383, "lat": 14.534317, "lon": 121.5779934, "tags": {"admin_level": "10", "admin_type:PH": "barangay", "is_in:town": "Real", "name": "Maragondon", "old_ref": "045638008", "place": "village", "population": "2233", "population:2015": "2267", "ref": "0405638008", "source:population": "Philippine Statistics Authority"}}, {"type": "node", "id": 10679830025, "lat": 14.4253709, "lon": 121.4286219, "tags": {"admin_level": "10", "admin_type:PH": "barangay", "is_in:town": "Mabitac", "name": "Bayanihan", "official_name": "Barangay Bayanihan", "old_ref": "043414008", "place": "village", "population": "538", "population:2015": "520", "ref": "0403414008", "source:population": "Philippine Statistics Authority"}}, {"type": "node", "id": 10749577913, "lat": 14.2503574, "lon": 121.4007365, "tags": {"admin_level": "10", "admin_type:PH": "barangay", "is_in:town": "Santa Cruz", "name": "Labuin", "old_ref": "043426008", "place": "village", "population": "4588", "population:2015": "4741", "ref": "0403426008", "source:population": "Philippine Statistics Authority"}}, {"type": "node", "id": 10749599639, "lat": 14.2529059, "lon": 121.4019781, "tags": {"admin_level": "10", "admin_type:PH": "sitio", "name": "Sitio Yakal", "place": "neighbourhood"}}, {"type": "node", "id": 10885832325, "lat": 14.2435685, "lon": 121.4462114}, {"type": "node", "id": 10885832326, "lat": 14.2432947, "lon": 121.4461043}, {"type": "node", "id": 10885832327, "lat": 14.2432039, "lon": 121.4457679}, {"type": "node", "id": 10885832328, "lat": 14.2437238, "lon": 121.4456204}, {"type": "node", "id": 10885832329, "lat": 14.2437004, "lon": 121.4455157}, {"type": "node", "id": 10885832330, "lat": 14.2440904, "lon": 121.4454058}, {"type": "node", "id": 10885832348, "lat": 14.2436321, "lon": 121.4465465}, {"type": "node", "id": 10885832349, "lat": 14.2433439, "lon": 121.4460916}, {"type": "node", "id": 10885832350, "lat": 14.2435376, "lon": 121.4460517}, {"type": "node", "id": 10885832359, "lat": 14.2454448, "lon": 121.4446199}, {"type": "node", "id": 10885832360, "lat": 14.2457386, "lon": 121.4458913}, {"type": "node", "id": 10885832361, "lat": 14.2450471, "lon": 121.4459261}, {"type": "node", "id": 10885832362, "lat": 14.245671, "lon": 121.4445502}, {"type": "node", "id": 10885832363, "lat": 14.2438629, "lon": 121.4465202}, {"type": "node", "id": 10885832379, "lat": 14.2433936, "lon": 121.4465826}, {"type": "node", "id": 10885832382, "lat": 14.2432805, "lon": 121.4460321}, {"type": "node", "id": 11274689320, "lat": 14.4239885, "lon": 121.4163816, "tags": {"admin_level": "11", "admin_type:PH": "sitio", "name": "Binakuran", "official_name": "Sitio Binakuran", "place": "neighbourhood", "postal_code": "4020"}}, {"type": "node", "id": 11548241077, "lat": 14.2575625, "lon": 121.418978, "tags": {"admin_level": "10", "admin_type:PH": "barangay", "is_in:town": "Santa Cruz", "name": "Palasan", "old_ref": "043426012", "place": "village", "population": "3620", "ref": "0403426012", "source:population": "Philippine Statistics Authority"}}, {"type": "node", "id": 11556619719, "lat": 14.2701853, "lon": 121.4182901, "tags": {"admin_level": "10", "admin_type:PH": "barangay", "is_in:town": "Santa Cruz", "name": "Patimbao", "old_ref": "043426012", "place": "village", "population": "3620", "ref": "0403426012", "source:population": "Philippine Statistics Authority"}}, {"type": "node", "id": 11556619721, "lat": 14.2747526, "lon": 121.4048705, "tags": {"admin_level": "10", "admin_type:PH": "barangay", "is_in:town": "Santa Cruz", "name": "Calios", "old_ref": "043426012", "place": "village", "population": "3620", "ref": "0403426012", "source:population": "Philippine Statistics Authority"}}, {"type": "node", "id": 11556619722, "lat": 14.2657906, "lon": 121.4265403, "tags": {"admin_level": "10", "admin_type:PH": "barangay", "is_in:town": "Santa Cruz", "name": "Pagsawitan", "old_ref": "043426012", "place": "village", "population": "3620", "ref": "0403426012", "source:population": "Philippine Statistics Authority"}}, {"type": "node", "id": 11556619723, "lat": 14.2263504, "lon": 121.4004829, "tags": {"admin_level": "10", "admin_type:PH": "barangay", "is_in:town": "Santa Cruz", "name": "Oogong", "old_ref": "043426012", "place": "village", "population": "3620", "ref": "0403426012", "source:population": "Philippine Statistics Authority"}}, {"type": "node", "id": 11556619724, "lat": 14.223653, "lon": 121.3946862, "tags": {"admin_level": "10", "admin_type:PH": "barangay", "is_in:town": "Santa Cruz", "name": "Jasaan", "old_ref": "043426012", "place": "village", "population": "3620", "ref": "0403426012", "source:population": "Philippine Statistics Authority"}}, {"type": "node", "id": 11556619725, "lat": 14.2328929, "lon": 121.396881, "tags": {"admin_level": "10", "admin_type:PH": "barangay", "is_in:town": "Santa Cruz", "name": "Malinao", "old_ref": "043426012", "place": "village", "population": "3620", "ref": "0403426012", "source:population": "Philippine Statistics Authority"}}, {"type": "node", "id": 11637641941, "lat": 14.2239907, "lon": 121.405115, "tags": {"is_in:town": "Santa Cruz", "name": "Alipit", "place": "village", "postal_code": "4009"}}, {"type": "node", "id": 11637961151, "lat": 14.2843448, "lon": 121.4182492}, {"type": "node", "id": 11645370805, "lat": 14.2340672, "lon": 121.3678271}, {"type": "node", "id": 11645370806, "lat": 14.2347578, "lon": 121.3689554}, {"type": "node", "id": 11701040592, "lat": 14.2589353, "lon": 121.4475598, "tags": {"admin_level": "10", "admin_type:PH": "barangay", "name": "Calusiche", "place": "village", "postal_code": "4008"}}, {"type": "node", "id": 11704092699, "lat": 14.2534504, "lon": 121.4356784, "tags": {"admin_level": "10", "admin_type:PH": "barangay", "name": "Sabang", "place": "village", "postal_code": "4008"}}, {"type": "node", "id": 11704092735, "lat": 14.2336246, "lon": 121.4322512, "tags": {"admin_level": "10", "admin_type:PH": "barangay", "name": "Buboy", "old_ref": "043419003", "place": "village", "population": "1804", "population:2015": "1649", "postal_code": "4008", "ref": "0403419003", "source:population": "Philippine Statistics Authority"}}, {"type": "node", "id": 11708172971, "lat": 14.2760817, "lon": 121.4311502, "tags": {"admin_level": "10", "admin_level:PH": "barangay", "name": "Maytalang II", "place": "village", "postal_code": "4014"}}, {"type": "node", "id": 11708172984, "lat": 14.3057887, "lon": 121.4593545, "tags": {"admin_level": "10", "admin_level:PH": "barangay", "name": "Wawa", "place": "village", "postal_code": "4014"}}, {"type": "node", "id": 11749244444, "lat": 14.2511384, "lon": 121.3707059}, {"type": "node", "id": 11749603708, "lat": 14.2490958, "lon": 121.3715402}, {"type": "node", "id": 11749603727, "lat": 14.2504895, "lon": 121.3726934}, {"type": "node", "id": 11749603745, "lat": 14.2511635, "lon": 121.3708809}, {"type": "node", "id": 11749603746, "lat": 14.2511801, "lon": 121.3709964}, {"type": "node", "id": 11749603749, "lat": 14.2513603, "lon": 121.3722514}, {"type": "node", "id": 11750062326, "lat": 14.2487426, "lon": 121.3717215}, {"type": "node", "id": 11750062340, "lat": 14.2513711, "lon": 121.3723262}, {"type": "node", "id": 11888145556, "lat": 14.277779, "lon": 121.4094871}, {"type": "node", "id": 11888145557, "lat": 14.2776461, "lon": 121.409366}, {"type": "node", "id": 11888145558, "lat": 14.2778949, "lon": 121.4090965}, {"type": "node", "id": 11947838167, "lat": 14.2632641, "lon": 121.400117}, {"type": "node", "id": 11947838168, "lat": 14.2638625, "lon": 121.3993624}, {"type": "node", "id": 11947838172, "lat": 14.2635699, "lon": 121.4008478}, {"type": "node", "id": 11947838302, "lat": 14.2716658, "lon": 121.3985929}, {"type": "node", "id": 11968404923, "lat": 14.3396284, "lon": 121.3608944, "tags": {"alt_name": "Sitio Lumang Nayon", "is_in:barangay": "Lubo", "is_in:municipality": "Jalajala", "name": "Lumang Nayon", "place": "neighbourhood", "postal_code": "1990"}}, {"type": "node", "id": 11968404924, "lat": 14.3447667, "lon": 121.3791188, "tags": {"alt_name": "Sitio Pulong Monico", "is_in:barangay": "Bagumbong", "is_in:municipality": "Jalajala", "name": "Pulong Monico", "place": "neighbourhood", "postal_code": "1990"}}, {"type": "node", "id": 11968418836, "lat": 14.3568047, "lon": 121.3948879, "tags": {"alt_name": "Sitio Acueza", "is_in:barangay": "Casa Real", "is_in:municipality": "Pakil", "name": "Acueza", "place": "neighbourhood", "postal_code": "4017"}}, {"type": "node", "id": 12000063903, "lat": 14.2037569, "lon": 121.7461887, "tags": {"admin_level": "11", "admin_type:PH": "sitio", "is_in": "San Lorenzo;Mauban", "name": "Malapia", "place": "neighbourhood"}}, {"type": "node", "id": 12030944459, "lat": 14.1946625, "lon": 121.4288367, "tags": {"name": "Tipunan", "place": "village"}}, {"type": "node", "id": 12031081513, "lat": 14.2057651, "lon": 121.4189456, "tags": {"name": "Maravilla", "place": "village"}}, {"type": "node", "id": 12041561427, "lat": 14.2812821, "lon": 121.3950189}, {"type": "node", "id": 12041561436, "lat": 14.281596, "lon": 121.3961583}, {"type": "node", "id": 12041712732, "lat": 14.2712652, "lon": 121.3967564}, {"type": "node", "id": 12186733216, "lat": 14.2995102, "lon": 121.5489256, "tags": {"admin_level": "11", "admin_type:PH": "sitio", "name": "Lunao", "place": "hamlet"}}, {"type": "node", "id": 12237511608, "lat": 14.2490584, "lon": 121.3733342}, {"type": "node", "id": 12237511609, "lat": 14.2494869, "lon": 121.3731126}, {"type": "node", "id": 12361974744, "lat": 14.423737, "lon": 121.430783, "tags": {"admin_level": "10", "admin_type:PH": "barangay", "name": "Masikap", "official_name": "Barangay Masikap", "place": "village", "population": "454", "ref": "0403414011", "source:population": "Philippine Statistics Authority"}}, {"type": "node", "id": 12361974745, "lat": 14.4238749, "lon": 121.432877, "tags": {"admin_level": "10", "admin_type:PH": "barangay", "name": "Lucong", "official_name": "Barangay Lucong", "place": "village", "population": "1181", "ref": "0403414003", "source:population": "Philippine Statistics Authority"}}, {"type": "node", "id": 12361974746, "lat": 14.422994, "lon": 121.4278892, "tags": {"admin_level": "10", "admin_type:PH": "barangay", "name": "Pag-asa", "place": "village", "population": "946", "ref": "0403414012", "source:population": "Philippine Statistics Authority"}}, {"type": "node", "id": 12361974747, "lat": 14.4258197, "lon": 121.4305787, "tags": {"admin_level": "10", "admin_type:PH": "barangay", "name": "Maligaya", "official_name": "Barangay Maligaya", "place": "village", "population": "330", "ref": "0403414010", "source:population": "Philippine Statistics Authority"}}, {"type": "node", "id": 12361974748, "lat": 14.4257962, "lon": 121.4279554, "tags": {"admin_level": "10", "admin_type:PH": "barangay", "name": "Lambac", "official_name": "Barangay Lambac", "place": "village", "population": "1064", "ref": "0403414002", "source:population": "Philippine Statistics Authority"}}, {"type": "node", "id": 12361974749, "lat": 14.4273464, "lon": 121.4279163, "tags": {"admin_level": "10", "admin_type:PH": "barangay", "name": "Sinagtala", "official_name": "Barangay Sinagtala", "place": "village", "population": "883", "ref": "043414013", "source:population": "Philippine Statistics Authority"}}, {"type": "node", "id": 12361974750, "lat": 14.4233271, "lon": 121.4005021, "tags": {"admin_level": "10", "admin_type:PH": "barangay", "name": "Numero", "official_name": "Barangay Numero", "place": "village", "population": "580", "ref": "043414006", "source:population": "Philippine Statistics Ayuthority"}}, {"type": "node", "id": 12363067505, "lat": 14.4284387, "lon": 121.4297396, "tags": {"admin_level": "10", "admin_type:PH": "barangay", "name": "Libis ng Nayon", "place": "village", "population": "1106", "source:population": "Philippine Statistics Authority"}}, {"type": "way", "id": 30974070, "nodes": [1368557955, 6432819711, 11888145556, 11888145557, 11888145558, 1368558098, 1368557980, 1368557989, 1368558077, 1809699746, 1809699643, 1368558104, 1809699637, 1809699633, 1809699627, 1504861249, 1368558078]}, {"type": "way", "id": 169827010, "nodes": [1333125313, 1809849582, 1809849529, 1809849517, 1809849534, 365488000, 1809849483, 1809849472, 1809849446, 371314222, 1809849440]}, {"type": "way", "id": 169827011, "nodes": [1809849480, 1333125258, 1333125222, 1333125345, 1333125259, 1333125248, 1809849603, 1809849583, 1809849582, 1809849529, 11637961151, 1809849442, 571654197, 1809849480], "tags": {"landuse": "residential", "name": "Green Village Subdivision", "place": "neighbourhood", "source": "Bing"}}, {"type": "way", "id": 169827016, "nodes": [1809849326, 1809849328, 1809849325, 1809849327, 1809849382, 1809849391, 1809849413, 1809849427, 1809849431, 1809849434, 1809849435, 1809849438, 1809849436, 1809849439, 1809849441, 1809849454, 1809849447, 1809849453, 1809849472, 1809849446, 1809849437, 571654472, 366193832, 366193833, 1809849326], "tags": {"landuse": "residential", "name": "Villa Silangan Subdivision", "place": "neighbourhood", "source": "Bing"}}, {"type": "way", "id": 187888541, "nodes": [1301680176, 1985258872, 1985258871, 11645370806, 360474012, 1985258851, 1985258849, 1985258846, 1985258845, 1985258844, 1985258843, 1985258841, 1985258842, 1985258838, 1985258834, 1985258833, 1736131074, 1353170261, 1353170345, 1353170284, 1353170280, 1353170249, 1353170290, 1985258835, 1985258836, 1985258847, 1985258848, 11645370805, 1985258852, 1985258876, 1985258875, 1985258874, 1985258873, 1985258877, 1985258878, 1985258879, 1985258880, 1985258882, 1985258883, 1281193115, 1281193129, 1344010498, 1301680180, 1301680161, 1301680164, 1301680171, 1301680176], "tags": {"landuse": "residential", "name": "Grand Riviera Subdivision", "place": "neighbourhood", "source": "Bing"}}, {"type": "way", "id": 187888611, "nodes": [1370717020, 11947838172, 1985259372, 8433901730, 1985259371, 11947838167, 1985259374, 1985259373, 1985259376, 11947838168, 1985259375, 1985259379, 1985259377, 8039470486, 1985259380, 1985259383, 366842271, 1370717011, 1370717015, 1370717020], "tags": {"landuse": "residential", "name": "Trade Village", "place": "neighbourhood", "source": "Bing"}}, {"type": "way", "id": 371843845, "nodes": [1370717017, 3753922649, 3753922647, 3753922650, 3753922648, 3753922646, 3753922645, 3753922644, 3753922643, 3753922642, 3753922641, 3753922639, 364921465, 3753922640, 1370717014, 1370717017], "tags": {"landuse": "residential", "name": "Sheilanger Orly Palacol Compound", "place": "neighbourhood", "previously": "node:364921465"}}, {"type": "way", "id": 550193973, "nodes": [5314302115, 5417864332, 5417864331, 5314302116, 5314302117, 5314302119, 5314302120, 5417864327, 5417864329, 5417864326, 5417864328, 6347835769, 5417864330, 6347835770, 6347835771, 6347835772, 6347835773, 6347835774, 5314302521, 6347835775, 5314302522, 5417864418, 5314302523, 5417864419, 5314302524, 6347836663, 5314302525, 5417864396, 5314302526, 5314302527, 5314302528, 6347836667, 6347911114, 6347836677, 6347836678, 5314302531, 6347836669, 6347836668, 5314302532, 5314302533, 6347836682, 5314302535, 5314302536, 5417864726, 5314302537, 5417864729, 5314302097, 6347836683, 5417864727, 5417864728, 5417864719, 5314302098, 5417864721, 5314302099, 5417864720, 5314302100, 5314302101, 5314302103, 5314302104, 5417864344, 5314302105]}, {"type": "way", "id": 684929729, "nodes": [1345484043, 1368557947, 1368557916, 1368557925, 6417551199, 1368557931, 12041561427, 1368557986, 1368557921, 1368558038, 1368557983, 6417551204, 12041561436, 6417551203, 6417551202, 6417551201, 6417551200, 1368558085, 1368558120, 1345484043], "tags": {"landuse": "residential", "name": "Lynville Subdivision Phases 1 and 2", "place": "neighbourhood", "previously": "node:1345484043"}}, {"type": "way", "id": 684930079, "nodes": [1368557885, 1368558031, 1368558086, 1368558093, 12041712732, 1368558045, 1368557972, 1368557941, 1368558060, 11947838302, 3753922686, 3753922688, 3753922689, 3753922690, 6417556444, 6417556443, 6417556442, 6417556441, 6417556436, 6417556435, 6417556434, 6417556433, 6417556432, 6417556431, 6417556430, 6417556429, 6417556428, 1368557885], "tags": {"landuse": "residential", "name": "Minorka Ville Subdivision", "place": "neighbourhood"}},