{"version": 0.6, "generator": "Overpass API 0.7.62.5 1bd436f1", "osm3s": {"timestamp_osm_base": "2025-05-24T18:05:35Z", "copyright": "The data included in this document is from www.openstreetmap.org. The data is made available under ODbL."}, "elements": [{"type": "node", "id": 198492704, "lat": 8.2130815, "lon": 126.3156173, "tags": {"admin_level": "6", "admin_subdivisions": "24 barangays", "admin_type:PH": "component_city", "alt_name": "Bislig City", "contact:website": "https://bislig.gov.ph", "is_in:state": "Surigao del Sur", "name": "Bislig", "name:en": "Bislig", "name:ja": "\u30d3\u30b9\u30ea\u30b0", "official_name": "City of Bislig", "old_official_name": "Municipality of Bislig", "place": "city", "population": "99290", "population:date": "2020-05-01", "postal_code": "8311", "related_law": "Republic Act No. 8804", "start_date": "1921-01-01", "wikidata": "Q866414", "wikimedia_commons": "Category:Bislig", "wikipedia": "en:Bislig"}}, {"type": "node", "id": 198495019, "lat": 8.1787968, "lon": 125.9942065, "tags": {"admin_level": "6", "gns_classification": "ADM2", "gns_uni": "-3333807", "is_in:province": "Agusan del Sur", "name": "Bunawan", "place": "town", "place:PH": "municipality", "population": "45151", "population:date": "2015-08-01", "source": "GNS", "source:population": "Philippine Statistics Authority", "wikidata": "Q627049", "wikimedia_commons": "Category:Bunawan", "wikipedia": "en:Bunawan"}}, {"type": "node", "id": 198505670, "lat": 8.043508, "lon": 126.0633157, "tags": {"admin_level": "6", "gns_classification": "ADM2", "gns_uni": "-3384786", "is_in:province": "Agusan del Sur", "name": "Trento", "place": "town", "place:PH": "municipality", "population": "51565", "population:date": "2015-08-01", "source": "GNS", "source:population": "Philippine Statistics Authority", "wikidata": "Q627320", "wikimedia_commons": "Category:Trento, Agusan del Sur", "wikipedia": "en:Trento, Agusan del Sur"}}, {"type": "node", "id": 198525124, "lat": 8.3656147, "lon": 126.3358067, "tags": {"admin_level": "6", "gns_classification": "ADM2", "gns_uni": "-3347606", "is_in:province": "Surigao del Sur", "name": "Hinatuan", "place": "town", "place:PH": "municipality", "population": "39842", "population:date": "2015-08-01", "postal_code": "8310", "source": "GNS", "source:population": "Philippine Statistics Authority", "website": "http://www.hinatuan.gov.ph/", "wikidata": "Q155576", "wikimedia_commons": "Category:Hinatuan", "wikipedia": "en:Hinatuan, Surigao del Sur"}}, {"type": "node", "id": 198527050, "lat": 8.3814612, "lon": 126.0018294, "tags": {"admin_level": "6", "gns_classification": "ADM2", "gns_uni": "-3372619", "is_in:province": "Agusan del Sur", "name": "Rosario", "place": "town", "place:PH": "municipality", "population": "46683", "population:date": "2015-08-01", "source": "GNS", "source:population": "Philippine Statistics Authority", "wikidata": "Q627167", "wikimedia_commons": "Category:Rosario, Agusan del Sur", "wikipedia": "en:Rosario, Agusan del Sur"}}, {"type": "node", "id": 2069324053, "lat": 8.1864201, "lon": 126.355302, "tags": {"admin_level": "10", "admin_type:PH": "barangay", "ele": "10", "is_in:city": "Bislig", "is_in:province": "Surigao del Sur", "name": "Mangagoy", "official_name": "Barangay Mangagoy", "place": "town", "population": "30541", "population:date": "2020-05-01", "postal_code": "8311", "ref": "166803009"}}, {"type": "node", "id": 2069356031, "lat": 8.1731758, "lon": 126.3009596, "tags": {"admin_level": "10", "admin_type:PH": "barangay", "is_in:state": "Surigao del Sur", "is_in:town": "Bislig", "name": "San Isidro", "old_ref": "166803015", "place": "village", "population": "2163", "ref": "1606803015", "source:population": "Philippine Statistics Authority"}}, {"type": "node", "id": 2069356035, "lat": 8.1502486, "lon": 126.2559361, "tags": {"place": "hamlet"}}, {"type": "node", "id": 2069365858, "lat": 8.2213176, "lon": 126.3055778, "tags": {"name": "San Fernando", "name:es": "San Fernando", "place": "village"}}, {"type": "node", "id": 2069522069, "lat": 8.1409478, "lon": 126.3376022, "tags": {"place": "hamlet"}}, {"type": "node", "id": 2071052542, "lat": 8.2792683, "lon": 126.2522583, "tags": {"note": "place name", "place": "village"}}, {"type": "node", "id": 2071052543, "lat": 8.3404552, "lon": 126.186479, "tags": {"admin_level": "10", "designation": "barangay", "is_in:town": "Tagbina", "name": "Do\u00f1a Carmen", "place": "village", "postal_code": "8308"}}, {"type": "node", "id": 2071052545, "lat": 8.3610666, "lon": 126.1682039, "tags": {"name": "Santa Cruz", "place": "village"}}, {"type": "node", "id": 2071052580, "lat": 8.36955, "lon": 126.2113061, "tags": {"name": "Santa Maria", "note": "place name", "place": "village"}}, {"type": "node", "id": 2071058284, "lat": 8.3488785, "lon": 126.2989744, "tags": {"is_in:city": "Hinatuan", "is_in:province": "Surigao del Sur", "name": "Tarusan", "place": "village"}}, {"type": "node", "id": 2071062146, "lat": 8.3134922, "lon": 126.3302785, "tags": {"note": "place name", "place": "hamlet"}}, {"type": "node", "id": 2071068709, "lat": 8.243289, "lon": 126.281562, "tags": {"admin_level": "10", "admin_type:PH": "barangay", "is_in:city": "Bislig", "name": "San Roque", "official_name": "Barangay San Roque", "old_name": "Cadanglasan", "place": "village"}}, {"type": "node", "id": 2071092358, "lat": 8.317934, "lon": 126.2753632, "tags": {"admin_level": "10", "name": "Bigaan", "place": "village", "place:PH": "barangay"}}, {"type": "node", "id": 2071781924, "lat": 8.0345162, "lon": 126.1623209, "tags": {"name": "San Roque", "place": "village"}}, {"type": "node", "id": 2071781927, "lat": 8.0571308, "lon": 126.1438528, "tags": {"name": "San Isidro", "place": "village"}}, {"type": "node", "id": 2824488290, "lat": 8.0310529, "lon": 126.1375807, "tags": {"admin_level": "10", "name": "Cebolin", "place": "village", "place:PH": "barangay", "source": "docsam"}}, {"type": "node", "id": 2824535649, "lat": 8.104234, "lon": 126.2547824, "tags": {"admin_level": "11", "admin_type:PH": "purok", "is_in:barangay": "Santa Maria", "is_in:municipality": "Trento", "name": "California", "official_name": "Purok California", "place": "hamlet", "postal_code": "8505"}}, {"type": "node", "id": 2824535650, "lat": 8.0978321, "lon": 126.2367703, "tags": {"admin_level": "11", "admin_type:PH": "purok", "is_in:barangay": "Santa Maria", "is_in:municipality": "Trento", "name": "Gazza", "official_name": "Purok Gazza", "place": "hamlet", "postal_code": "8505"}}, {"type": "node", "id": 2824616193, "lat": 8.175719, "lon": 126.2746704, "tags": {"admin_level": "10", "name": "Mone", "place": "village", "place:PH": "barangay", "source": "docsam"}}, {"type": "node", "id": 2826049493, "lat": 8.2411069, "lon": 126.2817912, "tags": {"name": "Forest Drive Village", "place": "neighbourhood", "source": "docsam"}}, {"type": "node", "id": 2826054550, "lat": 8.2813771, "lon": 126.2908804, "tags": {"admin_level": "10", "is_in:city": "Bislig", "name": "San Vicente", "place": "village", "place:PH": "barangay", "postal_code": "8311"}}, {"type": "node", "id": 3354887810, "lat": 8.3699193, "lon": 126.3112044, "tags": {"admin_level": "10", "is_in:town": "Hinatuan", "name": "Sasa", "place": "village", "place:PH": "barangay", "postal_code": "8310"}}, {"type": "node", "id": 3354926663, "lat": 8.3717441, "lon": 126.3287411, "tags": {"admin_level": "10", "is_in:town": "Hinatuan", "name": "Banakod", "place": "village", "place:PH": "barangay", "postal_code": "8310"}}, {"type": "node", "id": 3388626551, "lat": 8.1825926, "lon": 126.2566249, "tags": {"admin_level": "10", "name": "Burboanan", "place": "village", "place:PH": "barangay", "source": "Schadow1 Expeditions"}}, {"type": "node", "id": 3388762981, "lat": 8.2391175, "lon": 126.2867648, "tags": {"addr:city": "Bislig", "addr:postcode": "8311", "addr:street": "Pan-Philippine Highway", "name": "Denverland Residences", "place": "neighbourhood"}}, {"type": "node", "id": 3388762992, "lat": 8.361518, "lon": 126.2800763, "tags": {"admin_level": "10", "is_in:town": "Hinatuan", "name": "Tagasaka", "place": "village", "place:PH": "barangay", "postal_code": "8310", "source": "Schadow1 Expeditions"}}, {"type": "node", "id": 3388811249, "lat": 8.2590119, "lon": 126.3329121, "tags": {"is_in:state": "Surigao del Sur", "is_in:town": "Bislig", "name": "Bucto", "place": "village"}}, {"type": "node", "id": 3388811250, "lat": 8.2284269, "lon": 126.2742746, "tags": {"is_in:state": "Surigao del Sur", "is_in:town": "Bislig", "name": "Coleto", "place": "village"}}, {"type": "node", "id": 3388811251, "lat": 8.1839717, "lon": 126.3373614, "tags": {"admin_level": "10", "alt_name": "Cumawas", "is_in:city": "Bislig", "is_in:province": "Surigao del Sur", "name": "Comawas", "place": "village", "place:PH": "barangay"}}, {"type": "node", "id": 3388811252, "lat": 8.2330811, "lon": 126.2919999, "tags": {"is_in:state": "Surigao del Sur", "is_in:town": "Bislig", "name": "Kahayag", "place": "village"}}, {"type": "node", "id": 3388811256, "lat": 8.2453042, "lon": 126.2802845, "tags": {"admin_level": "10", "admin_type:PH": "barangay", "is_in:city": "Bislig", "name": "Maharlika", "official_name": "Barangay Maharlika", "place": "village"}}, {"type": "node", "id": 3388811257, "lat": 8.2080078, "lon": 126.2692178, "tags": {"is_in:state": "Surigao del Sur", "is_in:town": "Bislig", "name": "Pamanlinan", "place": "village"}}, {"type": "node", "id": 3388811258, "lat": 8.0971126, "lon": 126.2925421, "tags": {"fixme": "confirm location", "is_in:state": "Surigao del Sur", "is_in:town": "Bislig", "name": "Pamaypayan", "place": "village"}}, {"type": "node", "id": 3388811259, "lat": 8.1552855, "lon": 126.3119471, "tags": {"is_in:state": "Surigao del Sur", "is_in:town": "Bislig", "name": "San Antonio", "place": "village"}}, {"type": "node", "id": 3388811260, "lat": 8.1186825, "lon": 126.2946111, "tags": {"admin_level": "10", "is_in:province": "Surigao del Sur", "is_in:town": "Bislig", "name": "San Jose", "place": "village", "place:PH": "barangay"}}, {"type": "node", "id": 3388811261, "lat": 8.2563535, "lon": 126.3003246, "tags": {"is_in:state": "Surigao del Sur", "is_in:town": "Bislig", "name": "Santa Cruz", "place": "village"}}, {"type": "node", "id": 3388811262, "lat": 8.2491756, "lon": 126.3233861, "tags": {"is_in:state": "Surigao del Sur", "is_in:town": "Bislig", "name": "Sibaroy", "place": "village"}}, {"type": "node", "id": 3388811263, "lat": 8.2680691, "lon": 126.3468195, "tags": {"is_in:state": "Surigao del Sur", "is_in:town": "Bislig", "name": "Tumanan", "place": "village"}}, {"type": "node", "id": 3389137231, "lat": 8.333354, "lon": 126.3325347, "tags": {"admin_level": "10", "is_in:town": "Hinatuan", "name": "Loyola", "place": "village", "place:PH": "barangay", "source": "Schadow1 Expeditions"}}, {"type": "node", "id": 3389137243, "lat": 8.380953, "lon": 126.3120843, "tags": {"admin_level": "10", "is_in:town": "Hinatuan", "name": "Bitoon", "place": "village", "place:PH": "barangay", "postal_code": "8310", "source": "Schadow1 Expeditions"}}, {"type": "node", "id": 3389137245, "lat": 8.3701506, "lon": 126.3397906, "tags": {"admin_level": "10", "admin_type:PH": "barangay", "is_in:municipality": "Hinatuan", "name": "Tiwi", "official_name": "Barangay Tiwi", "place": "village", "population": "616", "population:date": "2020-05-01", "postal_code": "8310", "source": "Schadow1 Expeditions"}}, {"type": "node", "id": 3638260606, "lat": 8.0694171, "lon": 125.9552937, "tags": {"admin_level": "6", "gns_classification": "ADM2", "is_in:province": "Agusan del Sur", "name": "Veruela", "place": "town", "place:PH": "municipality", "population": "43706", "population:date": "2015-08-01", "source:population": "Philippine Statistics Authority", "wikidata": "Q627349", "wikimedia_commons": "Category:Veruela", "wikipedia": "en:Veruela"}}, {"type": "node", "id": 3844247493, "lat": 8.1908956, "lon": 125.9137909, "tags": {"name": "Lake Mihaba Floating Village", "place": "neighbourhood"}}, {"type": "node", "id": 3844285577, "lat": 8.2145611, "lon": 125.9276963, "tags": {"admin_level": "10", "admin_type:PH": "barangay", "is_in:municipality": "Bunawan", "name": "San Marcos", "official_name": "Barangay San Marcos", "place": "village"}}, {"type": "node", "id": 4033073257, "lat": 8.0214483, "lon": 125.9943365, "tags": {"admin_level": "10", "designation": "barangay", "name": "Tapaz", "official_name": "Barangay Tapaz", "place": "village", "postal_code": "8512"}}, {"type": "node", "id": 4033076256, "lat": 8.0033578, "lon": 126.0011333, "tags": {"admin_level": "10", "designation": "barangay", "is_in:town": "Santa Josefa", "name": "San Jose", "official_name": "Barangay San Jose", "place": "village"}}, {"type": "node", "id": 4033083131, "lat": 8.0757269, "lon": 126.0017264, "tags": {"admin_level": "10", "name": "Pag-asa", "official_name": "Barangay Pag-asa", "place": "village", "place:PH": "barangay"}}, {"type": "node", "id": 4034409882, "lat": 8.0086578, "lon": 126.0194766, "tags": {"admin_level": "10", "designation": "barangay", "is_in:town": "Santa Josefa", "name": "Aurora", "place": "village", "postal_code": "8512"}}, {"type": "node", "id": 4034669850, "lat": 7.977905, "lon": 126.0506509, "tags": {"admin_level": "10", "designation": "barangay", "is_in:province": "Agusan del Sur", "is_in:town": "Santa Josefa", "name": "Patrocinio", "official_name": "Barangay Patrocinio", "old_ref": "160310005", "place": "village", "population": "2869", "population:date": "2020-05-01", "postal_code": "8512", "ref": "1600310005"}}, {"type": "node", "id": 4034731547, "lat": 7.9858617, "lon": 126.0090499, "tags": {"admin_level": "10", "designation": "barangay", "name": "Concepcion", "official_name": "Barangay Concepcion", "place": "village"}}, {"type": "node", "id": 4034745612, "lat": 7.9578589, "lon": 126.0274497, "tags": {"admin_level": "10", "name": "Angas", "place": "village", "place:PH": "barangay"}}, {"type": "node", "id": 4035987689, "lat": 8.0206149, "lon": 125.9511132, "tags": {"admin_level": "10", "admin_type:PH": "barangay", "is_in:municipality": "Veruela", "name": "Sampaguita", "place": "village", "postal_code": "8509"}}, {"type": "node", "id": 4036147660, "lat": 7.9751802, "lon": 126.0275011, "tags": {"admin_level": "11", "designation": "sitio", "name": "Nahalinan", "official_name": "Sitio Nahalinan", "place": "neighbourhood"}}, {"type": "node", "id": 4036150279, "lat": 7.9654165, "lon": 126.0414209, "tags": {"alt_name": "Sitio Baclise", "is_in:barangay": "Patrocinio", "is_in:municipality": "Santa Josefa", "name": "Baclise", "place": "hamlet"}}, {"type": "node", "id": 4036151170, "lat": 7.9532577, "lon": 126.0570691, "tags": {"admin_level": "11", "designation": "sitio", "name": "Lilo", "official_name": "Sitio Lilo", "place": "neighbourhood"}}, {"type": "node", "id": 4036367324, "lat": 7.9552502, "lon": 126.0329862, "tags": {"admin_level": "11", "designation": "sitio", "name": "Cebuli", "official_name": "Sitio Cebuli", "place": "neighbourhood"}}, {"type": "node", "id": 4036383491, "lat": 7.9608004, "lon": 126.0224717, "tags": {"admin_level": "11", "designation": "sitio", "name": "Durian", "official_name": "Sitio Durian", "place": "neighbourhood"}}, {"type": "node", "id": 4036471505, "lat": 7.9701632, "lon": 126.0344651, "tags": {"name": "Lower Angas", "place": "neighbourhood"}}, {"type": "node", "id": 4036559271, "lat": 8.0528552, "lon": 126.0311819, "tags": {"alt_name": "Sitio Kaangayan 2", "is_in:barangay": "Aurora", "is_in:municipality": "Santa Josefa", "name": "Kaangayan 2", "place": "hamlet", "postal_code": "8512"}}, {"type": "node", "id": 4036559553, "lat": 8.0341833, "lon": 126.0405074, "tags": {"admin_level": "10", "designation": "barangay", "name": "Upper Lucad", "place": "hamlet"}}, {"type": "node", "id": 4036560576, "lat": 8.048927, "lon": 126.0115738, "tags": {"alt_name": "Sitio Kaangayan 1", "is_in:barangay": "Aurora", "is_in:municipality": "Santa Josefa", "name": "Kaangayan 1", "place": "hamlet", "postal_code": "8512"}}, {"type": "node", "id": 4036561281, "lat": 8.0678554, "lon": 126.0149435, "tags": {"admin_level": "11", "designation": "sitio", "is_in:town": "Santa Josefa", "name": "Malipayon", "official_name": "Sitio Malipayon", "place": "village", "postal_code": "8512"}}, {"type": "node", "id": 4087581110, "lat": 7.9636647, "lon": 125.9286176}, {"type": "node", "id": 4087581117, "lat": 7.9637815, "lon": 125.9287892}, {"type": "node", "id": 4087581132, "lat": 7.9641029, "lon": 125.9261473}, {"type": "node", "id": 4087581144, "lat": 7.96435, "lon": 125.9274481}, {"type": "node", "id": 4087581151, "lat": 7.9645173, "lon": 125.9259112}, {"type": "node", "id": 4087581154, "lat": 7.9646448, "lon": 125.9264504}, {"type": "node", "id": 4087581155, "lat": 7.9646475, "lon": 125.9262385}, {"type": "node", "id": 4087581161, "lat": 7.9648308, "lon": 125.9274481}, {"type": "node", "id": 4087581167, "lat": 7.9649902, "lon": 125.9278075}, {"type": "node", "id": 4087581170, "lat": 7.9650858, "lon": 125.9271906}, {"type": "node", "id": 4087581171, "lat": 7.965115, "lon": 125.9281321}, {"type": "node", "id": 4087581178, "lat": 7.965293, "lon": 125.9270807}, {"type": "node", "id": 4087581181, "lat": 7.9654258, "lon": 125.9274937}, {"type": "node", "id": 4087581200, "lat": 7.9658482, "lon": 125.9280811}, {"type": "node", "id": 4087581213, "lat": 7.9661935, "lon": 125.9271102}, {"type": "node", "id": 4087581217, "lat": 7.9663874, "lon": 125.9284325}, {"type": "node", "id": 4087581230, "lat": 7.9666796, "lon": 125.9280168}, {"type": "node", "id": 4087581238, "lat": 7.9667832, "lon": 125.927475}, {"type": "node", "id": 4087581254, "lat": 7.9671816, "lon": 125.9275796}, {"type": "node", "id": 4087581259, "lat": 7.9672348, "lon": 125.9270458}, {"type": "node", "id": 4087581267, "lat": 7.9673437, "lon": 125.9286632}, {"type": "node", "id": 4087581270, "lat": 7.9674127, "lon": 125.9282582}, {"type": "node", "id": 4087581280, "lat": 7.9675084, "lon": 125.9274106}, {"type": "node", "id": 4175169911, "lat": 8.0079433, "lon": 126.001475, "tags": {"admin_level": "11", "admin_type:PH": "purok", "is_in:barangay": "San Jose", "is_in:municipality": "Santa Josefa", "name": "Purok 4", "place": "neighbourhood"}}, {"type": "node", "id": 4175175489, "lat": 8.0097143, "lon": 125.9928142, "tags": {"admin_level": "11", "admin_type:PH": "purok", "is_in:barangay": "San Jose", "is_in:municipality": "Santa Josefa", "name": "Purok 5", "place": "neighbourhood"}}, {"type": "node", "id": 4175175490, "lat": 8.0120489, "lon": 125.9856661, "tags": {"admin_type:PH": "purok", "is_in:barangay": "San Jose", "is_in:municipality": "Santa Josefa", "name": "Purok 6", "place": "neighbourhood"}}, {"type": "node", "id": 4175178916, "lat": 8.0231328, "lon": 125.9927669, "tags": {"admin_level": "11", "admin_type:PH": "purok", "is_in:barangay": "Tapaz", "name": "Purok 1", "place": "neighbourhood"}}, {"type": "node", "id": 4409777069, "lat": 7.9835439, "lon": 125.9877401, "tags": {"admin_level": "10", "designation": "barangay", "is_in:town": "Santa Josefa", "name": "Sayon", "place": "village"}}, {"type": "node", "id": 4411100754, "lat": 7.9541185, "lon": 125.9819612, "tags": {"admin_type:PH": "sitio", "is_in:province": "Agusan del Sur", "is_in:town": "Santa Josefa", "is_in:village": "Awao", "name": "Tagbayog", "place": "hamlet"}}, {"type": "node", "id": 4412607564, "lat": 7.965042, "lon": 126.0070419, "tags": {"admin_level": "11", "designation": "sitio", "is_in:province": "Agusan del Sur", "is_in:town": "Santa Josefa", "is_in:village": "Awao", "name": "Primo", "official_name": "Sitio Primo", "place": "neighbourhood"}}, {"type": "node", "id": 4412717660, "lat": 7.9487164, "lon": 125.9872751, "tags": {"is_in:province": "Agusan del Sur", "is_in:town": "Santa Josefa", "is_in:village": "Awao", "name": "Purok 11", "place": "neighbourhood"}}, {"type": "node", "id": 4412738268, "lat": 7.9594899, "lon": 125.9878959, "tags": {"is_in:province": "Agusan del Sur", "is_in:town": "Santa Josefa", "is_in:village": "Awao", "name": "Purok 7", "place": "neighbourhood"}}, {"type": "node", "id": 4424610317, "lat": 7.9712962, "lon": 126.006331, "tags": {"is_in:province": "Agusan del Sur", "is_in:town": "Santa Josefa", "is_in:village": "Awao", "name": "Purok 5", "place": "neighbourhood"}}, {"type": "node", "id": 4464208675, "lat": 8.0206391, "lon": 125.9952162, "tags": {"admin_level": "11", "admin_type:PH": "purok", "is_in:barangay": "Tapaz", "name": "Purok 3", "place": "neighbourhood"}}, {"type": "node", "id": 4464208909, "lat": 8.0227178, "lon": 125.9971751, "tags": {"admin_level": "11", "admin_type:PH": "purok", "is_in:barangay": "Tapaz", "name": "Purok 4", "place": "neighbourhood"}}, {"type": "node", "id": 4464211202, "lat": 8.0204744, "lon": 125.994087, "tags": {"admin_level": "11", "admin_type:PH": "purok", "is_in:barangay": "Tapaz", "name": "Purok 2", "place": "neighbourhood"}}, {"type": "node", "id": 4464211482, "lat": 8.0234162, "lon": 126.0024591, "tags": {"admin_level": "11", "admin_type:PH": "purok", "is_in:barangay": "Tapaz", "name": "Purok 5", "place": "neighbourhood"}}, {"type": "node", "id": 4464234890, "lat": 7.9816723, "lon": 125.9874281, "tags": {"admin_type:PH": "purok", "is_in:barangay": "Sayon", "is_in:municipality": "Santa Josefa", "name": "Purok 3", "place": "neighbourhood"}}, {"type": "node", "id": 4464234891, "lat": 7.9830593, "lon": 125.9871476, "tags": {"is_in:village": "Sayon", "name": "Purok 4", "place": "neighbourhood"}}, {"type": "node", "id": 4464250642, "lat": 7.9669192, "lon": 126.0017245, "tags": {"admin_type:PH": "purok", "is_in:barangay": "Awao", "is_in:municipality": "Santa Josefa", "name": "Purok 1", "place": "neighbourhood"}}, {"type": "node", "id": 4810759130, "lat": 8.3830809, "lon": 125.9998814}, {"type": "node", "id": 4810759131, "lat": 8.3820407, "lon": 125.9987656}, {"type": "node", "id": 4810759132, "lat": 8.3812765, "lon": 125.9995006}, {"type": "node", "id": 4810759133, "lat": 8.3824228, "lon": 126.0006378}, {"type": "node", "id": 4812552445, "lat": 8.382397, "lon": 125.9991452}, {"type": "node", "id": 4812552448, "lat": 8.3822403, "lon": 125.9989849}, {"type": "node", "id": 5102414624, "lat": 7.9518597, "lon": 125.9666272, "tags": {"is_in:state": "Agusan Del Sur", "is_in:town": "Santa Josefa", "is_in:village": "Awao", "name": "Agda", "place": "hamlet"}}, {"type": "node", "id": 5331500811, "lat": 7.9844761, "lon": 126.0288095, "tags": {"admin_level": "6", "gns_classification": "ADM2", "is_in:province": "Agusan del Sur", "name": "Santa Josefa", "place": "town", "place:PH": "municipality", "population": "26729", "population:date": "2015-08-01", "source:population": "Philippine Statistics Authority", "wikidata": "Q627231", "wikimedia_commons": "Category:Santa Josefa", "wikipedia": "en:Santa Josefa"}}, {"type": "node", "id": 6134020947, "lat": 7.9639084, "lon": 125.9215882, "tags": {"admin_level": "10", "admin_type:PH": "barangay", "alt_name": "Sinubong", "is_in:municipality": "Veruela", "name": "Sinobong", "place": "village", "postal_code": "8509"}}, {"type": "node", "id": 6149022749, "lat": 7.9513188, "lon": 125.9666151, "tags": {"is_in:state": "Agusan Del Sur", "is_in:town": "Santa Josefa", "is_in:village": "Awao", "name": "Purok 9", "place": "neighbourhood"}}, {"type": "node", "id": 6149022750, "lat": 7.9538025, "lon": 125.981964, "tags": {"is_in:state": "Agusan Del Sur", "is_in:town": "Santa Josefa", "is_in:village": "Awao", "name": "Purok 13", "place": "neighbourhood"}}, {"type": "node", "id": 6150903577, "lat": 8.3906978, "lon": 126.0102555, "tags": {"name": "Libuac", "place": "village"}}, {"type": "node", "id": 6150905256, "lat": 8.3856573, "lon": 126.001595, "tags": {"admin_level": "10", "name": "Poblacion", "place": "village", "place:PH": "barangay"}}, {"type": "node", "id": 6150957680, "lat": 8.3611493, "lon": 126.0161289, "tags": {"admin_level": "10", "is_in:town": "Rosario", "name": "Santa Cruz", "place": "village", "place:PH": "barangay", "source:name": "extrapolated from OSMaPaaralan"}}, {"type": "node", "id": 6150958804, "lat": 8.357681, "lon": 125.9986149, "tags": {"admin_level": "10", "is_in:town": "Rosario", "is_in:village": "Cabawan", "name": "Cabawan", "place": "village", "place:PH": "barangay"}}, {"type": "node", "id": 6150958861, "lat": 8.3686631, "lon": 125.9694777, "tags": {"name": "Tagbayagan", "place": "village"}}, {"type": "node", "id": 6150958881, "lat": 8.3553068, "lon": 125.9267327, "tags": {"name": "Buenasuerte", "place": "village"}}, {"type": "node", "id": 6150959316, "lat": 8.3231482, "lon": 126.0085959, "tags": {"admin_level": "10", "admin_type:PH": "barangay", "alt_name": "Wasi-an", "is_in:municipality": "Rosario", "name": "Wasian", "nat_name": "Barangay Wasi-an", "official_name": "Barangay Wasian", "place": "village", "postal_code": "8504"}}, {"type": "node", "id": 6150959317, "lat": 8.3009199, "lon": 126.0045805, "tags": {"admin_level": "10", "admin_type:PH": "barangay", "alt_name": "Bayugan Tres", "is_in:municipality": "Rosario", "name": "Bayugan 3", "official_name": "Barangay Bayugan 3", "old_ref": "160307001", "place": "village", "population": "14848", "population:date": "2020-05-01", "postal_code": "8504", "ref": "1600307001"}}, {"type": "node", "id": 6191183062, "lat": 7.9832233, "lon": 126.0309717, "tags": {"admin_level": "11", "admin_type:PH": "purok", "is_in:barangay": "Poblacion", "name": "Purok 9", "place": "neighbourhood"}}, {"type": "node", "id": 6191183065, "lat": 7.9825401, "lon": 126.0285779, "tags": {"admin_level": "11", "admin_type:PH": "purok", "is_in:barangay": "Poblacion", "name": "Purok 10", "place": "neighbourhood"}}, {"type": "node", "id": 6191183067, "lat": 7.9827959, "lon": 126.0274112, "tags": {"admin_level": "11", "admin_type:PH": "purok", "is_in:barangay": "Poblacion", "name": "Purok 11", "place": "neighbourhood"}}, {"type": "node", "id": 6191183070, "lat": 7.9853388, "lon": 126.0296923, "tags": {"admin_level": "11", "admin_type:PH": "purok", "is_in:barangay": "Poblacion", "name": "Purok 8", "place": "neighbourhood"}}, {"type": "node", "id": 6191195840, "lat": 7.9865366, "lon": 126.0304988, "tags": {"admin_level": "11", "admin_type:PH": "purok", "is_in:barangay": "Poblacion", "name": "Purok 4", "place": "neighbourhood"}}, {"type": "node", "id": 6191195849, "lat": 7.9883413, "lon": 126.0291802, "tags": {"admin_level": "11", "admin_type:PH": "purok", "name": "Purok 3", "place": "neighbourhood"}}, {"type": "node", "id": 6191195851, "lat": 7.9873161, "lon": 126.0282251, "tags": {"admin_level": "11", "admin_type:PH": "purok", "is_in:barangay": "Poblacion", "name": "Purok 5", "place": "neighbourhood"}}, {"type": "node", "id": 6191195857, "lat": 7.9889515, "lon": 126.0283915, "tags": {"admin_level": "11", "admin_type:PH": "purok", "name": "Purok 2", "place": "neighbourhood"}}, {"type": "node", "id": 6191195862, "lat": 7.9872595, "lon": 126.0259306, "tags": {"admin_level": "11", "admin_type:PH": "purok", "is_in:barangay": "Poblacion", "name": "Purok 7", "place": "neighbourhood"}}, {"type": "node", "id": 6191200288, "lat": 7.9879041, "lon": 126.0236954, "tags": {"admin_level": "11", "admin_type:PH": "purok", "name": "Purok 7-B", "place": "neighbourhood"}}, {"type": "node", "id": 6191200289, "lat": 7.9902664, "lon": 126.0278858, "tags": {"admin_level": "11", "admin_type:PH": "purok", "name": "Purok 1", "place": "neighbourhood"}}, {"type": "node", "id": 6191200291, "lat": 7.9888995, "lon": 126.0269585, "tags": {"admin_level": "11", "admin_type:PH": "purok", "name": "Purok 6", "place": "neighbourhood"}}, {"type": "node", "id": 6191200294, "lat": 7.9890748, "lon": 126.0230088, "tags": {"admin_level": "11", "admin_type:PH": "purok", "name": "Purok 7-A", "place": "neighbourhood"}}, {"type": "node", "id": 6191204834, "lat": 8.0089496, "lon": 126.0168716, "tags": {"admin_level": "11", "admin_type:PH": "purok", "is_in:barangay": "Aurora", "name": "Purok 2", "place": "neighbourhood"}}, {"type": "node", "id": 6191214506, "lat": 8.0085792, "lon": 126.020807, "tags": {"admin_level": "11", "admin_type:PH": "purok", "is_in:barangay": "Aurora", "is_in:municipality": "Santa Josefa", "name": "Purok 3", "place": "neighbourhood"}}, {"type": "node", "id": 6191244167, "lat": 7.9752397, "lon": 126.032826, "tags": {"admin_type:PH": "purok", "is_in:barangay": "Angas", "name": "Purok 1", "place": "neighbourhood"}}, {"type": "node", "id": 6191244168, "lat": 7.9735994, "lon": 126.03427, "tags": {"admin_type:PH": "purok", "is_in:barangay": "Angas", "name": "Purok 2", "place": "neighbourhood"}}, {"type": "node", "id": 6191244169, "lat": 7.9696317, "lon": 126.0345107, "tags": {"admin_type:PH": "purok", "is_in:barangay": "Angas", "name": "Purok 3", "place": "neighbourhood"}}, {"type": "node", "id": 6191244170, "lat": 7.9682858, "lon": 126.0338594, "tags": {"admin_type:PH": "purok", "is_in:barangay": "Angas", "name": "Purok 4", "place": "neighbourhood"}}, {"type": "node", "id": 6191244174, "lat": 7.9743565, "lon": 126.0281294, "tags": {"admin_type:PH": "purok", "is_in:barangay": "Angas", "name": "Purok 19", "place": "neighbourhood"}}, {"type": "node", "id": 6191244181, "lat": 7.962776, "lon": 126.0108657, "tags": {"is_in:quarter": "Angas", "is_in:town": "Santa Josefa", "name": "Purok 16", "place": "neighbourhood"}}, {"type": "node", "id": 6191248219, "lat": 7.9597483, "lon": 125.9849951, "tags": {"is_in:quarter": "Awao", "is_in:town": "Santa Josefa", "name": "Purok 8", "place": "neighbourhood"}}, {"type": "node", "id": 6191248220, "lat": 7.9658207, "lon": 125.9936747, "tags": {"is_in:quarter": "Awao", "is_in:town": "Santa Josefa", "name": "Purok 6", "place": "neighbourhood"}}, {"type": "node", "id": 6191248221, "lat": 7.9669842, "lon": 125.9907243, "tags": {"is_in:quarter": "Awao", "is_in:town": "Santa Josefa", "name": "Purok 6", "place": "neighbourhood"}}, {"type": "node", "id": 6191248225, "lat": 7.9778377, "lon": 125.9894744, "tags": {"admin_level": "11", "admin_type:PH": "purok", "is_in:barangay": "Sayon", "is_in:municipality": "Santa Josefa", "name": "Purok 5", "place": "neighbourhood"}}, {"type": "node", "id": 6191248232, "lat": 7.9839419, "lon": 125.988207, "tags": {"admin_level": "11", "admin_type:PH": "purok", "is_in:barangay": "Sayon", "is_in:municipality": "Santa Josefa", "name": "Purok 2", "place": "neighbourhood"}}, {"type": "node", "id": 6191248990, "lat": 7.9683548, "lon": 126.0014531, "tags": {"admin_type:PH": "purok", "is_in:barangay": "Awao", "is_in:municipality": "Santa Josefa", "name": "2", "place": "neighbourhood"}}, {"type": "node", "id": 6191248992, "lat": 7.9645085, "lon": 125.9977409, "tags": {"is_in:quarter": "Awao", "is_in:town": "Santa Josefa", "name": "Purok 3", "place": "neighbourhood"}}, {"type": "node", "id": 6191266567, "lat": 7.9821537, "lon": 126.0096667, "tags": {"admin_level": "11", "admin_type:PH": "purok", "is_in:barangay": "Concepcion", "is_in:municipality": "Santa Josefa", "name": "Purok 4", "place": "neighbourhood"}}, {"type": "node", "id": 6191266568, "lat": 7.9833768, "lon": 126.0098816, "tags": {"admin_level": "11", "admin_type:PH": "purok", "is_in:barangay": "Concepcion", "is_in:municipality": "Santa Josefa", "name": "Purok 3", "place": "neighbourhood"}}, {"type": "node", "id": 6191266569, "lat": 7.9849285, "lon": 126.0089475, "tags": {"admin_level": "11", "admin_type:PH": "purok", "is_in:barangay": "Concepcion", "is_in:municipality": "Santa Josefa", "name": "Purok 2", "place": "neighbourhood"}}, {"type": "node", "id": 6191266570, "lat": 7.9857332, "lon": 126.0090409, "tags": {"admin_level": "11", "admin_type:PH": "purok", "is_in:barangay": "Concepcion", "is_in:municipality": "Santa Josefa", "name": "Purok 1", "place": "neighbourhood"}}, {"type": "node", "id": 6191266572, "lat": 7.986477, "lon": 126.0149443, "tags": {"admin_level": "11", "admin_type:PH": "purok", "is_in:barangay": "Concepcion", "is_in:municipality": "Santa Josefa", "name": "Purok 5", "place": "neighbourhood"}}, {"type": "node", "id": 6191266579, "lat": 8.0031511, "lon": 125.999137, "tags": {"admin_level": "11", "admin_type:PH": "purok", "is_in:barangay": "San Jose", "is_in:municipality": "Santa Josefa", "name": "Purok 3", "place": "neighbourhood"}}, {"type": "node", "id": 6191266581, "lat": 8.0031655, "lon": 126.0008826, "tags": {"admin_level": "11", "admin_type:PH": "purok", "is_in:barangay": "San Jose", "is_in:municipality": "Santa Josefa", "name": "Purok 2", "place": "neighbourhood"}}, {"type": "node", "id": 6199015629, "lat": 8.0922572, "lon": 125.9190801, "tags": {"admin_level": "10", "admin_type:PH": "barangay", "ele": "20", "is_in:municipality": "Veruela", "name": "San Gabriel", "official_name": "Barangay San Gabriel", "place": "village", "postal_code": "8509"}}, {"type": "node", "id": 6322820923, "lat": 8.3703477, "lon": 126.2387874, "tags": {"name": "Tagbobonga", "place": "village"}}, {"type": "node", "id": 6322820925, "lat": 8.3431435, "lon": 126.2179414, "tags": {"name": "Santa Juana", "place": "village"}}, {"type": "node", "id": 6322820941, "lat": 8.3371342, "lon": 126.1713563, "tags": {"name": "Ugoban", "place": "village"}}, {"type": "node", "id": 6322820946, "lat": 8.3745801, "lon": 126.1517566, "tags": {"name": "San Vicente", "place": "village"}}, {"type": "node", "id": 6483043463, "lat": 8.275315, "lon": 126.0556161, "tags": {"place": "hamlet"}}, {"type": "node", "id": 6483043464, "lat": 8.2552375, "lon": 126.0432565, "tags": {"place": "village"}}, {"type": "node", "id": 6483953121, "lat": 8.0187266, "lon": 126.0924335, "tags": {"admin_level": "10", "admin_type:PH": "barangay", "is_in:municipality": "Trento", "name": "Cuevas", "official_name": "Barangay Cuevas", "place": "village", "postal_code": "8505"}}, {"type": "node", "id": 6484555227, "lat": 8.0261592, "lon": 125.9134926, "tags": {"admin_level": "10", "admin_type:PH": "barangay", "is_in:municipality": "Veruela", "name": "La Fortuna", "place": "village", "postal_code": "8509"}}, {"type": "node", "id": 6612636602, "lat": 8.2378514, "lon": 125.9833023, "tags": {"name": "Consuelo", "place": "village"}}, {"type": "node", "id": 6641044780, "lat": 8.0066483, "lon": 126.3419044, "tags": {"admin_level": "10", "admin_type:PH": "barangay", "is_in:municipality": "Lingig", "name": "Bogak", "old_ref": "166812004", "place": "village", "population": "1664", "population:date": "2020-05-01", "ref": "1606812004"}}, {"type": "node", "id": 6641044872, "lat": 7.9784306, "lon": 126.2544791, "tags": {"admin_level": "10", "admin_type:PH": "barangay", "alt_name": "Rajah Cabungsuan", "is_in:town": "Lingig", "name": "Rajah Cabungso-an", "old_ref": "112503008", "place": "village", "population": "1166", "ref": "1102503008", "source:population": "Philippine Statistics Authority"}}, {"type": "node", "id": 6641045010, "lat": 8.1936078, "lon": 126.3307571, "tags": {"admin_level": "10", "is_in:city": "Bislig", "is_in:province": "Surigao del Sur", "name": "Mancarago", "place": "village", "place:PH": "barangay"}}, {"type": "node", "id": 6872604193, "lat": 8.1662384, "lon": 125.9915037, "tags": {"admin_level": "10", "admin_type:PH": "barangay", "is_in:municipality": "Bunawan", "name": "West Bunawan", "place": "village", "postal_code": "8506"}}, {"type": "node", "id": 6960293581, "lat": 8.008587, "lon": 126.0344351, "tags": {"admin_level": "10", "designation": "barangay", "is_in:town": "Santa Josefa", "name": "Santa Isabel", "place": "village"}}, {"type": "node", "id": 8146885953, "lat": 8.1265199, "lon": 125.9462571, "tags": {"admin_level": "10", "admin_type:PH": "barangay", "ele": "25", "is_in:municipality": "Bunawan", "name": "Nueva Era", "official_name": "Barangay Nueva Era", "place": "village", "postal_code": "8506"}}, {"type": "node", "id": 8146885954, "lat": 8.146981, "lon": 126.0172874, "tags": {"place": "hamlet"}}, {"type": "node", "id": 8146885955, "lat": 8.107136, "lon": 126.0251972, "tags": {"admin_level": "10", "is_in:town": "Bunawan", "name": "Libertad", "place": "village", "place:PH": "barangay"}}, {"type": "node", "id": 8146885956, "lat": 8.0676641, "lon": 126.0504126, "tags": {"place": "village"}}, {"type": "node", "id": 8146885957, "lat": 8.0968262, "lon": 125.9955454, "tags": {"admin_level": "11", "admin_type:PH": "sitio", "name": "Antioquia", "place": "neighbourhood", "source:name": "extrapolated from OSMaPaaralan, way/1031883468"}}, {"type": "node", "id": 8146885958, "lat": 8.0868761, "lon": 126.0146133, "tags": {"admin_level": "10", "designation": "barangay", "is_in:town": "?", "is_in:village": "?", "name": "Cahian", "place": "village", "source:name": "extrapolated from OSMaPaaralan"}}, {"type": "node", "id": 8146885959, "lat": 8.0803871, "lon": 126.0357972, "tags": {"admin_level": "10", "admin_type:PH": "barangay", "is_in:municipality": "Trento", "name": "Kapatungan", "official_name": "Barangay Kapatungan", "place": "village", "postal_code": "8505"}}, {"type": "node", "id": 8146885960, "lat": 8.1274809, "lon": 126.0244521, "tags": {"alt_name": "Sitio Babadan", "is_in:barangay": "Libertad", "is_in:municipality": "Bunawan", "name": "Babadan", "place": "hamlet", "postal_code": "8506"}}, {"type": "node", "id": 8146885961, "lat": 8.1437543, "lon": 125.9989887, "tags": {"place": "village"}}, {"type": "node", "id": 8146885962, "lat": 8.1602989, "lon": 126.0104907, "tags": {"admin_level": "10", "admin_type:PH": "barangay", "is_in:municipality": "Bunawan", "name": "Bunawan Brook", "place": "village", "postal_code": "8506", "short_name": "Brook"}}, {"type": "node", "id": 8146885963, "lat": 8.1827043, "lon": 126.0270667, "tags": {"alt_name": "Sitio Tagbayangbang", "is_in:barangay": "Bunawan Brook", "is_in:municipality": "Bunawan", "name": "Tagbayangbang", "place": "hamlet", "postal_code": "8506"}}, {"type": "node", "id": 8146886396, "lat": 8.0449894, "lon": 126.2608695, "tags": {"place": "hamlet"}}, {"type": "node", "id": 8146887220, "lat": 8.0850052, "lon": 126.2955317, "tags": {"place": "hamlet"}}, {"type": "node", "id": 8146887380, "lat": 8.0887136, "lon": 126.3128573, "tags": {"place": "hamlet"}}, {"type": "node", "id": 8146887511, "lat": 8.053472, "lon": 126.3456917, "tags": {"place": "village"}}, {"type": "node", "id": 8146887518, "lat": 8.0839908, "lon": 126.3452384, "tags": {"place": "hamlet"}}, {"type": "node", "id": 8146887592, "lat": 8.0805917, "lon": 126.3392115, "tags": {"place": "hamlet"}}, {"type": "node", "id": 8146887997, "lat": 8.0692522, "lon": 126.298804, "tags": {"name": "Mendezona", "place": "hamlet"}}, {"type": "node", "id": 8146888051, "lat": 8.0727736, "lon": 126.3209161, "tags": {"place": "hamlet"}}, {"type": "node", "id": 8146888160, "lat": 8.0792851, "lon": 126.3198137, "tags": {"place": "hamlet"}}, {"type": "node", "id": 8146888302, "lat": 8.0370139, "lon": 126.326597, "tags": {"place": "hamlet"}}, {"type": "node", "id": 8146888667, "lat": 8.0092141, "lon": 126.3231826, "tags": {"place": "hamlet"}}, {"type": "node", "id": 8148386871, "lat": 8.2276041, "lon": 126.0045093, "tags": {"place": "hamlet"}}, {"type": "node", "id": 8148387037, "lat": 8.2253291, "lon": 126.0338017, "tags": {"place": "hamlet"}}, {"type": "node", "id": 8148387582, "lat": 8.3415232, "lon": 126.1304337, "tags": {"place": "hamlet"}}, {"type": "node", "id": 8148388588, "lat": 8.3820716, "lon": 126.1513174, "tags": {"place": "hamlet"}}, {"type": "node", "id": 8148388620, "lat": 8.3710061, "lon": 126.1374932, "tags": {"place": "hamlet"}}, {"type": "node", "id": 8148388689, "lat": 8.3656962, "lon": 126.0432646, "tags": {"place": "hamlet"}}, {"type": "node", "id": 8148388820, "lat": 8.3478764, "lon": 126.0561258, "tags": {"place": "hamlet"}}, {"type": "node", "id": 8148388960, "lat": 8.347327, "lon": 126.0495651, "tags": {"place": "hamlet"}}, {"type": "node", "id": 8148389008, "lat": 8.3531362, "lon": 126.0446083, "tags": {"place": "hamlet"}}, {"type": "node", "id": 8148389201, "lat": 8.3474093, "lon": 126.0383856, "tags": {"place": "hamlet"}}, {"type": "node", "id": 8148389311, "lat": 8.2636201, "lon": 126.1257774, "tags": {"place": "hamlet"}}, {"type": "node", "id": 8148389536, "lat": 8.2465256, "lon": 126.1311257, "tags": {"place": "hamlet"}}, {"type": "node", "id": 8148389606, "lat": 8.2559065, "lon": 126.1417258, "tags": {"place": "hamlet"}}, {"type": "node", "id": 8148389993, "lat": 8.2298393, "lon": 126.0543716, "tags": {"place": "hamlet"}}, {"type": "node", "id": 8148390293, "lat": 8.2950146, "lon": 126.0388094, "tags": {"place": "hamlet"}}, {"type": "node", "id": 8148390294, "lat": 8.2947904, "lon": 126.0526255, "tags": {"is_in": "Bayugan 3;Rosario", "name": "Masabong", "place": "hamlet", "source:name": "extrapolated from OSMaPaaralan, way/1031942070"}}, {"type": "node", "id": 8148390295, "lat": 8.2997761, "lon": 126.0759902, "tags": {"name": "Kusip", "place": "hamlet"}}, {"type": "node", "id": 8148391621, "lat": 8.2937353, "lon": 126.0295933, "tags": {"place": "hamlet"}}, {"type": "node", "id": 8148391622, "lat": 8.274067, "lon": 126.0274348, "tags": {"admin_level": "11", "admin_type:PH": "sitio", "is_in": "Bayugan 3;Rosario", "name": "Lademora", "place": "village"}}, {"type": "node", "id": 8148391623, "lat": 8.2865584, "lon": 125.9973425, "tags": {"place": "hamlet"}}, {"type": "node", "id": 8148391644, "lat": 8.2788399, "lon": 125.9918708, "tags": {"place": "hamlet"}}, {"type": "node", "id": 8148391985, "lat": 8.2959276, "lon": 126.0747778, "tags": {"place": "hamlet"}}, {"type": "node", "id": 8150451917, "lat": 8.3513529, "lon": 125.976963, "tags": {"admin_level": "10", "is_in:town": "Rosario", "name": "Novele", "place": "village", "place:PH": "barangay", "source:name": "extrapolated from OSMaPaaralan, way/656648890"}}, {"type": "node", "id": 8160561971, "lat": 8.091028, "lon": 126.35575, "tags": {"place": "hamlet"}}, {"type": "node", "id": 8160565066, "lat": 7.9791651, "lon": 126.3256127, "tags": {"place": "hamlet"}}, {"type": "node", "id": 8160565122, "lat": 7.9706066, "lon": 126.3312265, "tags": {"place": "hamlet"}}, {"type": "node", "id": 8163898940, "lat": 8.2103905, "lon": 126.1756212, "tags": {"admin_level": "11", "admin_type:PH": "sitio", "alt_name": "Sitio Mabog", "is_in:barangay": "San Roque", "is_in:city": "Bislig", "is_in:village": "San Roque", "name": "Mabog", "place": "village", "postal_code": "8311"}}, {"type": "node", "id": 8163898941, "lat": 8.184953, "lon": 126.2166345, "tags": {"place": "hamlet"}}, {"type": "node", "id": 8163899047, "lat": 8.1872999, "lon": 126.2036768, "tags": {"place": "hamlet"}}, {"type": "node", "id": 8163899097, "lat": 8.120742, "lon": 126.1245435, "tags": {"admin_level": "11", "designation": "sitio", "is_in:quarter": "Manat", "is_in:town": "Trento", "is_in:village": "?", "name": "Upper Manat", "place": "hamlet", "source:name": "extrapolated from OSMaPaaralan"}}, {"type": "node", "id": 8163899646, "lat": 8.1627867, "lon": 126.1659488, "tags": {"place": "hamlet"}}, {"type": "node", "id": 8163900905, "lat": 8.1265093, "lon": 126.3357568, "tags": {"admin_level": "11", "admin_type:PH": "purok", "alt_name": "Purok 2-A-1;Purok Toog", "is_in:barangay": "San Jose", "is_in:city": "Bislig", "name": "Toog", "official_name": "Purok 2-A-1 Toog", "place": "hamlet", "postal_code": "8311"}}, {"type": "node", "id": 8163900906, "lat": 8.1396793, "lon": 126.354264, "tags": {"place": "neighbourhood"}}, {"type": "node", "id": 8163900907, "lat": 8.1287533, "lon": 126.3512129, "tags": {"place": "village"}}, {"type": "node", "id": 8163903063, "lat": 8.0986043, "lon": 126.3296624, "tags": {"name": "Sikahoy", "place": "village"}}, {"type": "node", "id": 8163903477, "lat": 8.148728, "lon": 126.3105923, "tags": {"place": "hamlet"}}, {"type": "node", "id": 8163903506, "lat": 8.1663125, "lon": 126.3523114, "tags": {"admin_level": "11", "admin_type:PH": "purok", "is_in:barangay": "Tabon", "is_in:city": "Bislig", "name": "Purok 8-A", "place": "neighbourhood", "postal_code": "8311"}}, {"type": "node", "id": 8163903707, "lat": 8.1103076, "lon": 126.3553068, "tags": {"place": "village"}}, {"type": "node", "id": 8163903708, "lat": 8.1163209, "lon": 126.2246114, "tags": {"place": "hamlet"}}, {"type": "node", "id": 8163903709, "lat": 8.1171387, "lon": 126.2128848, "tags": {"place": "hamlet"}}, {"type": "node", "id": 8163903710, "lat": 8.1051019, "lon": 126.2612504, "tags": {"place": "hamlet"}}, {"type": "node", "id": 8163903730, "lat": 8.0995202, "lon": 126.281257, "tags": {"place": "hamlet"}}, {"type": "node", "id": 8163903731, "lat": 8.0979933, "lon": 126.2527907, "tags": {"place": "village"}}, {"type": "node", "id": 8165317107, "lat": 8.3308387, "lon": 126.2412035, "tags": {"admin_level": "11", "designation": "sitio", "is_in:city": "Bislig", "is_in:village": "Bigaan", "name": "Urabangon", "place": "hamlet", "postal_code": "8311"}}, {"type": "node", "id": 8165317201, "lat": 8.325783, "lon": 126.3563615, "tags": {"place": "hamlet"}}, {"type": "node", "id": 8165317212, "lat": 8.2967743, "lon": 126.3243198, "tags": {"place": "hamlet"}}, {"type": "node", "id": 8165317213, "lat": 8.3117964, "lon": 126.34, "tags": {"place": "hamlet"}}, {"type": "node", "id": 8165317214, "lat": 8.3118946, "lon": 126.2835985, "tags": {"place": "hamlet"}}, {"type": "node", "id": 8165317471, "lat": 8.3591495, "lon": 126.2147114, "tags": {"place": "hamlet"}}, {"type": "node", "id": 8165317550, "lat": 8.3245595, "lon": 126.1857623, "tags": {"place": "hamlet"}}, {"type": "node", "id": 8165317595, "lat": 8.3349389, "lon": 126.2078691, "tags": {"place": "hamlet"}}, {"type": "node", "id": 8165317603, "lat": 8.3277283, "lon": 126.2199175, "tags": {"place": "hamlet"}}, {"type": "node", "id": 8165317628, "lat": 8.3153661, "lon": 126.2459886, "tags": {"place": "village"}}, {"type": "node", "id": 8165317803, "lat": 8.2973848, "lon": 126.2300482, "tags": {"place": "village"}}, {"type": "node", "id": 8165317948, "lat": 8.3014907, "lon": 126.2245175, "tags": {"place": "hamlet"}}, {"type": "node", "id": 8165317949, "lat": 8.3134393, "lon": 126.2122303, "tags": {"admin_level": "11", "alt_name": "Sitio Maputi", "designation": "sitio", "is_in:town": "Tagbina", "is_in:village": "Do\u00f1a Carmen", "name": "Maputi", "place": "village", "postal_code": "8308"}}, {"type": "node", "id": 8165317980, "lat": 8.2971751, "lon": 126.1876371, "tags": {"place": "hamlet"}}, {"type": "node", "id": 8165318028, "lat": 8.3025709, "lon": 126.1739284, "tags": {"place": "hamlet"}}, {"type": "node", "id": 8165318133, "lat": 8.299378, "lon": 126.1977839, "tags": {"place": "village"}}, {"type": "node", "id": 8165318237, "lat": 8.2151432, "lon": 126.2092558, "tags": {"place": "hamlet"}}, {"type": "node", "id": 8165318238, "lat": 8.2143043, "lon": 126.2177114, "tags": {"admin_level": "11", "admin_type:PH": "sitio", "is_in:town": "Rosario", "is_in:village": "San Roque", "name": "Mamparasan", "place": "neighbourhood", "source:population": "Philippine Statistics Authority"}}, {"type": "node", "id": 8165318239, "lat": 8.2262449, "lon": 126.2337738, "tags": {"place": "village"}}, {"type": "node", "id": 8165318240, "lat": 8.2449383, "lon": 126.2620336, "tags": {"place": "hamlet"}}, {"type": "node", "id": 8165318241, "lat": 8.2440809, "lon": 126.2698442, "tags": {"place": "village"}}, {"type": "node", "id": 8165318322, "lat": 8.259179, "lon": 126.2593683, "tags": {"place": "hamlet"}}, {"type": "node", "id": 8165318323, "lat": 8.2707921, "lon": 126.271593, "tags": {"name": "Mantaban", "place": "village"}}, {"type": "node", "id": 8165318324, "lat": 8.2601588, "lon": 126.2783039, "tags": {"place": "hamlet"}}, {"type": "node", "id": 8165318325, "lat": 8.2516618, "lon": 126.2483342, "tags": {"name": "Sanyata", "place": "hamlet"}}, {"type": "node", "id": 8165318326, "lat": 8.245878, "lon": 126.2278783, "tags": {"place": "hamlet"}}, {"type": "node", "id": 8165318334, "lat": 8.2891754, "lon": 126.2355548, "tags": {"place": "hamlet"}}, {"type": "node", "id": 8165318602, "lat": 8.2543297, "lon": 126.217989, "tags": {"place": "hamlet"}}, {"type": "node", "id": 8165318620, "lat": 8.2746037, "lon": 126.2206203, "tags": {"place": "hamlet"}}, {"type": "node", "id": 8165318621, "lat": 8.2788505, "lon": 126.2031645, "tags": {"place": "hamlet"}}, {"type": "node", "id": 8165318648, "lat": 8.2764776, "lon": 126.1936694, "tags": {"place": "village"}}, {"type": "node", "id": 8165318909, "lat": 8.2272271, "lon": 126.1331963, "tags": {"place": "hamlet"}}, {"type": "node", "id": 8165319255, "lat": 8.2232611, "lon": 126.1600292, "tags": {"place": "hamlet"}}, {"type": "node", "id": 8165319616, "lat": 8.2373304, "lon": 126.2018931, "tags": {"place": "hamlet"}}, {"type": "node", "id": 8165319630, "lat": 8.2309648, "lon": 126.1990043, "tags": {"place": "village"}}, {"type": "node", "id": 8168353948, "lat": 8.380705, "lon": 126.2395915, "tags": {"place": "hamlet"}}, {"type": "node", "id": 8168763300, "lat": 8.1918928, "lon": 126.2782422, "tags": {"place": "hamlet"}}, {"type": "node", "id": 8246212210, "lat": 8.2149759, "lon": 125.9271035, "tags": {"admin_level": "11", "admin_type:PH": "purok", "is_in:barangay": "San Marcos", "is_in:municipality": "Bunawan", "name": "Purok 2", "place": "neighbourhood"}}, {"type": "node", "id": 8246246069, "lat": 8.3776773, "lon": 126.0187384, "tags": {"admin_level": "11", "admin_type:PH": "purok", "is_in:barangay": "Poblacion", "is_in:municipality": "Rosario", "name": "Purok 7", "place": "neighbourhood"}}, {"type": "node", "id": 8246260340, "lat": 8.3509946, "lon": 125.9758928, "tags": {"admin_level": "11", "admin_type:PH": "purok", "is_in:barangay": "Novele", "is_in:municipality": "Rosario", "name": "Purok 2", "place": "neighbourhood"}}, {"type": "node", "id": 8246273280, "lat": 8.3571322, "lon": 126.0160434, "tags": {"admin_level": "11", "admin_type:PH": "purok", "is_in:barangay": "Santa Cruz", "is_in:municipality": "Rosario", "name": "Santan", "official_name": "Purok Santan", "place": "neighbourhood", "postal_code": "8504"}}, {"type": "node", "id": 8497675864, "lat": 8.11746, "lon": 125.9297079, "tags": {"place": "hamlet"}}, {"type": "node", "id": 8497675865, "lat": 8.1450852, "lon": 125.944798, "tags": {"fixme": "name", "place": "hamlet"}}, {"type": "node", "id": 8497675866, "lat": 8.1543867, "lon": 125.9827036, "tags": {"admin_level": "11", "is_in:town": "Bunawan", "is_in:village": "Poblacion", "name": "Mandagao", "place": "hamlet", "place:PH": "sitio"}}, {"type": "node", "id": 8498126578, "lat": 8.0457463, "lon": 125.9612587, "tags": {"place": "hamlet"}}, {"type": "node", "id": 8498126579, "lat": 8.0496052, "lon": 125.9544969, "tags": {"place": "hamlet"}}, {"type": "node", "id": 8498126580, "lat": 8.0536154, "lon": 125.9687126, "tags": {"place": "hamlet"}}, {"type": "node", "id": 8498126581, "lat": 8.0581036, "lon": 125.9761798, "tags": {"place": "hamlet"}}, {"type": "node", "id": 8791135437, "lat": 7.965464, "lon": 125.9213917, "tags": {"admin_level": "11", "admin_type:PH": "purok", "is_in:barangay": "Sinobong", "is_in:municipality": "Veruela", "name": "Purok 1-C", "place": "neighbourhood", "postal_code": "8509"}}, {"type": "node", "id": 8791290763, "lat": 7.9677312, "lon": 126.0016032, "tags": {"admin_level": "10", "admin_type:PH": "barangay", "is_in:municipality": "Santa Josefa", "name": "Awao", "official_name": "Barangay Awao", "place": "village"}}, {"type": "node", "id": 8793987961, "lat": 8.0013924, "lon": 125.9497398, "tags": {"alt_name": "Sitio Anilao", "is_in:barangay": "Sampaguita", "is_in:municipality": "Veruela", "name": "Anilao", "place": "village", "postal_code": "8509"}}, {"type": "node", "id": 8794248345, "lat": 8.0171728, "lon": 125.9692329, "tags": {"admin_level": "10", "designation": "barangay", "is_in:town": "Veruela", "name": "Binongan", "place": "village", "source:name": "extrapolated from OSMaPaaralan, way/949942470"}}, {"type": "node", "id": 8794637324, "lat": 8.0180719, "lon": 126.054613, "tags": {"designation": "sitio", "name": "Isdaon", "place": "neighbourhood"}}, {"type": "node", "id": 8794676549, "lat": 8.0694275, "lon": 126.0599023, "tags": {"admin_level": "10", "designation": "barangay", "is_in:town": "Trento", "name": "Basa", "place": "village", "source:name": "extrapolated from OSMaPaaralan, way/771550193"}}, {"type": "node", "id": 8794676613, "lat": 8.068089, "lon": 126.1034077, "tags": {"admin_level": "10", "designation": "barangay", "is_in:town": "Trento", "is_in:village": "?", "name": "Tudela", "place": "village", "source:name": "extrapolated from OSMaPaaralan"}}, {"type": "node", "id": 8794699467, "lat": 8.005971, "lon": 126.0768002, "tags": {"admin_level": "10", "admin_type:PH": "barangay", "alt_name": "Pulang-lupa", "is_in:municipality": "Trento", "name": "Pulanglupa", "nat_name": "Barangay Pulang-lupa", "official_name": "Barangay Pulanglupa", "place": "village", "postal_code": "8505"}}, {"type": "node", "id": 8794717412, "lat": 7.9701922, "lon": 126.0900838, "tags": {"admin_level": "10", "admin_type:PH": "barangay", "designation": "barangay", "is_in:town": "Trento", "name": "Langkila-an", "old_ref": "160312004", "place": "village", "population": "2295", "ref": "1600312004", "source:name": "extrapolated from OSMaPaaralan, way/794285259", "source:population": "Philippine Statistics Authority"}}, {"type": "node", "id": 8796667184, "lat": 7.9617451, "lon": 126.1235672, "tags": {"is_in:quarter": "New Visayas", "is_in:town": "Trento", "name": "Upper New Visayas", "place": "hamlet", "source:name": "extrapolated from OSMaPaaralan, way/950211356"}}, {"type": "node", "id": 8796693604, "lat": 8.0104093, "lon": 126.1223039, "tags": {"admin_level": "10", "admin_type:PH": "barangay", "is_in:municipality": "Trento", "name": "Salvacion", "official_name": "Barangay Salvacion", "place": "village", "postal_code": "8505"}}, {"type": "node", "id": 8796696930, "lat": 7.9897714, "lon": 126.1135894, "tags": {"admin_level": "10", "admin_type:PH": "barangay", "is_in:municipality": "Trento", "name": "New Visayas", "official_name": "Barangay New Visayas", "place": "village", "postal_code": "8505"}}, {"type": "node", "id": 8797060296, "lat": 8.0939928, "lon": 126.0854745, "tags": {"admin_level": "10", "admin_type:PH": "barangay", "ele": "40", "is_in:municipality": "Trento", "name": "Manat", "official_name": "Barangay Manat", "place": "village", "postal_code": "8505"}}, {"type": "node", "id": 8797060297, "lat": 8.0939968, "lon": 126.0871026, "tags": {"admin_level": "11", "admin_type:PH": "purok", "is_in:barangay": "Manat", "is_in:municipality": "Trento", "name": "Purok 3", "place": "neighbourhood"}}, {"type": "node", "id": 8797237949, "lat": 8.0476958, "lon": 126.0623527, "tags": {"admin_level": "11", "admin_type:PH": "purok", "is_in:barangay": "Poblacion", "is_in:municipality": "Trento", "name": "Purok 2", "place": "neighbourhood", "postal_code": "8505"}}, {"type": "node", "id": 8797238125, "lat": 8.0431122, "lon": 126.0601798, "tags": {"admin_level": "11", "admin_type:PH": "purok", "is_in:barangay": "Poblacion", "is_in:municipality": "Trento", "name": "Purok 6", "place": "neighbourhood", "postal_code": "8505"}}, {"type": "node", "id": 8805590736, "lat": 8.0867257, "lon": 126.0152454, "tags": {"admin_level": "11", "admin_type:PH": "purok", "is_in:barangay": "Cahian", "is_in:municipality": "Trento", "name": "Purok 3", "place": "neighbourhood"}}, {"type": "node", "id": 8805596615, "lat": 8.1251011, "lon": 125.9461065, "tags": {"admin_level": "11", "designation": "sitio", "is_in:quarter": "Nueva Era", "is_in:town": "Bunawan", "name": "Campo 4", "place": "neighbourhood", "source:name": "extrapolated from OSMaPaaralan, way/951326868"}}, {"type": "node", "id": 8940310742, "lat": 8.2066763, "lon": 125.9946437, "tags": {"admin_level": "10", "admin_type:PH": "barangay", "is_in:municipality": "Bunawan", "name": "San Andres", "place": "village", "postal_code": "8506"}}, {"type": "node", "id": 8952735582, "lat": 8.0019916, "lon": 126.1481246, "tags": {"name": "San Ignacio", "place": "village"}}, {"type": "node", "id": 8952754909, "lat": 8.0201456, "lon": 126.1596794, "tags": {"name": "Santa Maria", "place": "village"}}, {"type": "node", "id": 8952792983, "lat": 8.1979604, "lon": 125.9702481, "tags": {"name": "Mambalili", "place": "village"}}, {"type": "node", "id": 8952792988, "lat": 8.2194454, "lon": 125.9621868, "tags": {"alt_name": "Sitio Hagnaya", "is_in:barangay": "Mambalili", "is_in:municipality": "Bunawan", "name": "Hagnaya", "place": "hamlet"}}, {"type": "node", "id": 8973511297, "lat": 7.9481347, "lon": 126.340031, "tags": {"name": "Tamsian", "place": "hamlet"}}, {"type": "node", "id": 9039623044, "lat": 8.0247888, "lon": 125.9145668, "tags": {"admin_level": "11", "admin_type:PH": "purok", "is_in:barangay": "La Fortuna", "is_in:municipality": "Prosperidad", "name": "Purok 9", "place": "neighbourhood"}}, {"type": "node", "id": 9039658940, "lat": 8.0223692, "lon": 125.9138118, "tags": {"admin_level": "11", "admin_type:PH": "purok", "is_in:barangay": "La Fortuna", "is_in:municipality": "Veruela", "name": "Purok 1", "place": "neighbourhood"}}, {"type": "node", "id": 9203152381, "lat": 7.9676342, "lon": 126.300644, "tags": {"place": "hamlet"}}, {"type": "node", "id": 10649347388, "lat": 8.1769869, "lon": 126.3565452, "tags": {"alt_name": "Cacayan Village", "is_in:barangay": "Mangagoy", "is_in:city": "Bislig", "name": "Cacayan", "place": "neighbourhood"}}, {"type": "node", "id": 10649413527, "lat": 8.1774024, "lon": 126.3589116, "tags": {"alt_name": "Maraville Village", "name": "Maraville", "place": "neighbourhood"}}, {"type": "node", "id": 10655472071, "lat": 8.0759577, "lon": 126.2350962, "tags": {"alt_name": "Sitio Balite", "is_in:barangay": "San Jose", "is_in:city": "Bislig", "name": "Balite", "place": "hamlet", "postal_code": "8311"}}, {"type": "node", "id": 10655476592, "lat": 8.0218035, "lon": 126.1596027, "tags": {"admin_level": "11", "admin_type:PH": "purok", "is_in:barangay": "Santa Maria", "is_in:municipality": "Trento", "name": "America", "official_name": "Purok America", "place": "neighbourhood", "postal_code": "8505"}}, {"type": "node", "id": 10655495261, "lat": 8.1053595, "lon": 126.2626451, "tags": {"alt_name": "Purok 8;Purok New Jerusalem;Sitio New Jerusalem", "is_in:barangay": "San Jose", "is_in:city": "Bislig", "name": "New Jerusalem", "official_name": "Purok 8 New Jerusalem", "place": "hamlet", "postal_code": "8311"}}, {"type": "node", "id": 10655495262, "lat": 8.1057127, "lon": 126.2601802, "tags": {"alt_name": "Purok 3;Purok Mahayahay", "is_in:barangay": "San Jose", "is_in:city": "Bislig", "name": "Mahayahay", "official_name": "Purok 3 Mahayahay", "place": "hamlet", "postal_code": "8311"}}, {"type": "node", "id": 10655500663, "lat": 8.0735158, "lon": 126.2299865, "tags": {"admin_level": "11", "admin_type:PH": "purok", "is_in:barangay": "Santa Maria", "is_in:municipality": "Trento", "name": "Singapore", "official_name": "Purok Singapore", "place": "hamlet", "postal_code": "8505"}}, {"type": "node", "id": 10655514299, "lat": 8.083469, "lon": 126.2358002, "tags": {"admin_level": "11", "admin_type:PH": "purok", "alt_name": "Purok 9;Purok Danap;Sitio Danao", "is_in:barangay": "San Jose", "is_in:city": "Bislig", "name": "Danao", "official_name": "Purok 9 Danao", "place": "hamlet", "postal_code": "8311"}}, {"type": "node", "id": 10655514767, "lat": 8.0434623, "lon": 126.2101006, "tags": {"admin_level": "11", "admin_type:PH": "purok", "is_in:barangay": "Santa Maria", "is_in:municipality": "Trento", "name": "China", "official_name": "Purok China", "place": "neighbourhood", "postal_code": "8505"}}, {"type": "node", "id": 10655517647, "lat": 8.0896803, "lon": 126.238123, "tags": {"admin_level": "11", "admin_type:PH": "purok", "alt_name": "Purok 7-A;Purok Crossing Mangga", "is_in:barangay": "San Jose", "is_in:city": "Bislig", "name": "Crossing Mangga", "official_name": "Purok 7-A Crossing Mangga", "place": "hamlet", "postal_code": "8311"}}, {"type": "node", "id": 10655570360, "lat": 8.1744182, "lon": 126.3550821, "tags": {"admin_level": "11", "admin_type:PH": "purok", "is_in:city": "Bislig", "name": "Purok 7", "place": "neighbourhood", "postal_code": "8311"}}, {"type": "node", "id": 10655570361, "lat": 8.1799113, "lon": 126.3582927, "tags": {"admin_level": "11", "admin_type:PH": "purok", "is_in:barangay": "Mangagoy", "is_in:city": "Bislig", "is_in:district": "John Bosco", "name": "Purok 3", "place": "neighbourhood", "postal_code": "8311"}}, {"type": "node", "id": 10655570362, "lat": 8.182622, "lon": 126.3560128, "tags": {"admin_level": "11", "admin_type:PH": "purok", "is_in:barangay": "Mangagoy", "is_in:city": "Bislig", "is_in:district": "John Bosco", "name": "Purok 2", "place": "neighbourhood", "postal_code": "8311"}}, {"type": "node", "id": 10655642480, "lat": 8.1923494, "lon": 126.3316798, "tags": {"admin_level": "11", "admin_type:PH": "purok", "alt_name": "Purok 13;Purok Bliss", "is_in:barangay": "Mancarago", "is_in:city": "Bislig", "name": "Bliss", "official_name": "Purok 13 Bliss", "place": "neighbourhood", "postal_code": "8311"}}, {"type": "node", "id": 10655645116, "lat": 8.1900623, "lon": 126.3309368}, {"type": "node", "id": 10655645117, "lat": 8.190864, "lon": 126.3320379}, {"type": "node", "id": 10655645118, "lat": 8.190483, "lon": 126.3322994}, {"type": "node", "id": 10655645119, "lat": 8.1906981, "lon": 126.3326347}, {"type": "node", "id": 10655645120, "lat": 8.1904379, "lon": 126.3327634}, {"type": "node", "id": 10655645121, "lat": 8.1905534, "lon": 126.3329606}, {"type": "node", "id": 10655645122, "lat": 8.1897847, "lon": 126.3331512}, {"type": "node", "id": 10655645123, "lat": 8.1896231, "lon": 126.3328611}, {"type": "node", "id": 10655645124, "lat": 8.1897596, "lon": 126.3327835}, {"type": "node", "id": 10655645125, "lat": 8.1890879, "lon": 126.3315189}, {"type": "node", "id": 10655652785, "lat": 8.0490236, "lon": 126.0594571, "tags": {"admin_level": "11", "admin_type:PH": "purok", "is_in:barangay": "Poblacion", "is_in:municipality": "Trento", "name": "Purok 8-B", "place": "neighbourhood", "postal_code": "8505"}}, {"type": "node", "id": 10703173613, "lat": 7.9966189, "lon": 125.9072417, "tags": {"alt_name": "Sitio Basilica", "is_in:barangay": "La Fortuna", "is_in:municipality": "Veruela", "name": "Basilica", "place": "hamlet", "postal_code": "8509"}}, {"type": "node", "id": 10703194144, "lat": 7.9801997, "lon": 125.9402785, "tags": {"alt_name": "Purok 3;Purok Tugpan;Sitio Tugpan", "is_in:barangay": "Sinobong", "is_in:municipality": "Veruela", "name": "Tugpan", "official_name": "Purok 3 Tugpan", "place": "hamlet", "postal_code": "8509"}}, {"type": "node", "id": 10703194145, "lat": 8.0186721, "lon": 125.9512192, "tags": {"admin_level": "11", "admin_type:PH": "purok", "is_in:barangay": "Sampaguita", "is_in:municipality": "Veruela", "name": "Purok 6", "place": "neighbourhood", "postal_code": "8509"}}, {"type": "node", "id": 10703202659, "lat": 7.9695627, "lon": 125.9298313, "tags": {"admin_level": "11", "admin_type:PH": "purok", "is_in:barangay": "Sinobong", "is_in:municipality": "Veruela", "name": "Purok 2-A", "place": "neighbourhood", "postal_code": "8509"}}, {"type": "node", "id": 10703202660, "lat": 7.9732549, "lon": 125.9225088, "tags": {"admin_level": "11", "admin_type:PH": "purok", "is_in:barangay": "Sinobong", "is_in:municipality": "Veruela", "name": "Purok 4", "place": "neighbourhood", "postal_code": "8509"}}, {"type": "node", "id": 10703215020, "lat": 7.980194, "lon": 126.0892186, "tags": {"admin_level": "11", "admin_type:PH": "purok", "alt_name": "Purok 4;Purok Divisoria;Sitio Divisoria", "is_in:barangay": "Langkila-an", "is_in:municipality": "Trento", "name": "Divisoria", "official_name": "Purok 4 Divisoria", "place": "hamlet", "postal_code": "8505"}}, {"type": "node", "id": 10703217100, "lat": 7.9764106, "lon": 125.9164068, "tags": {"admin_level": "11", "admin_type:PH": "purok", "alt_name": "Purok 6;Purok Fatima", "is_in:barangay": "Sinobong", "is_in:municipality": "Veruela", "name": "Fatima", "official_name": "Purok 6 Fatima", "place": "neighbourhood", "postal_code": "8509"}}, {"type": "node", "id": 10703227393, "lat": 7.9597012, "lon": 126.0818329, "tags": {"alt_name": "Sitio Maitum", "is_in:barangay": "Langkila-an", "is_in:municipality": "Trento", "name": "Maitum", "place": "hamlet", "postal_code": "8505"}}, {"type": "node", "id": 10703231022, "lat": 8.0200944, "lon": 125.9550802, "tags": {"admin_level": "11", "admin_type:PH": "purok", "alt_name": "Purok 11;Purok Talisay", "is_in:barangay": "Sampaguita", "is_in:municipality": "Veruela", "name": "Talisay", "official_name": "Purok 11 Talisay", "place": "neighbourhood", "postal_code": "8509"}}, {"type": "node", "id": 10845280208, "lat": 8.1394988, "lon": 126.0213652, "tags": {"admin_level": "11", "admin_type:PH": "purok", "alt_name": "Purok 8;Purok Simulao", "is_in:barangay": "Bunawan Brook", "is_in:municipality": "Bunawan", "name": "Simulao", "official_name": "Purok 8 Simulao", "place": "hamlet"}}, {"type": "node", "id": 10923609687, "lat": 8.0303556, "lon": 126.3013467, "tags": {"admin_level": "11", "admin_type:PH": "sitio", "is_in:town": "Rajah Cabungso-an", "name": "Napanpanan", "place": "hamlet"}}, {"type": "node", "id": 10923636632, "lat": 8.0315455, "lon": 126.3207351, "tags": {"is_in": "Bogak;Lingig", "name": "Pinapatan", "place": "hamlet"}}, {"type": "node", "id": 10923658328, "lat": 8.0498548, "lon": 126.2734973, "tags": {"place": "hamlet"}}, {"type": "node", "id": 10923663231, "lat": 7.9932881, "lon": 126.2455434, "tags": {"fixme": "name", "place": "hamlet"}}, {"type": "node", "id": 11014766712, "lat": 8.1827525, "lon": 126.3509419, "tags": {"admin_level": "11", "admin_type:PH": "purok", "is_in:city": "Bislig", "is_in:quarter": "Castillo Village", "name": "Purok 5", "place": "neighbourhood"}}, {"type": "node", "id": 11014766713, "lat": 8.1831571, "lon": 126.352413, "tags": {"admin_level": "11", "admin_type:PH": "purok", "is_in:city": "Bislig", "is_in:quarter": "Castillo Village", "name": "Purok 1", "place": "neighbourhood"}}, {"type": "node", "id": 11014766714, "lat": 8.181073, "lon": 126.3521765, "tags": {"admin_level": "11", "admin_type:PH": "purok", "is_in:city": "Bislig", "is_in:quarter": "Castillo Village", "name": "Purok 4-A", "place": "neighbourhood"}}, {"type": "node", "id": 11141472840, "lat": 8.3527415, "lon": 126.014602, "tags": {"admin_level": "11", "admin_type:PH": "purok", "is_in:barangay": "Santa Cruz", "is_in:municipality": "Rosario", "name": "Gumamela", "official_name": "Purok Gumamela", "place": "neighbourhood", "postal_code": "8504"}}, {"type": "node", "id": 11142936299, "lat": 8.348439, "lon": 126.01313, "tags": {"admin_level": "11", "admin_type:PH": "purok", "is_in:barangay": "Santa Cruz", "is_in:municipality": "Rosario", "name": "Kaimito", "official_name": "Purok Kaimito", "place": "neighbourhood", "postal_code": "8504"}}, {"type": "node", "id": 11143749746, "lat": 8.2692983, "lon": 125.9870985, "tags": {"admin_level": "10", "admin_type:PH": "barangay", "is_in:municipality": "Bunawan", "name": "Kalingayan", "official_name": "Barangay Kalingayan", "place": "village", "postal_code": "8506"}}, {"type": "node", "id": 11144207575, "lat": 8.1600464, "lon": 126.0101448, "tags": {"admin_level": "11", "admin_type:PH": "purok", "is_in:barangay": "Bunawan Brook", "is_in:municipality": "Bunawan", "name": "Purok 2", "place": "neighbourhood", "postal_code": "8506"}}, {"type": "node", "id": 11144217434, "lat": 8.0519154, "lon": 126.0599289, "tags": {"admin_level": "11", "admin_type:PH": "purok", "is_in:barangay": "Poblacion", "is_in:municipality": "Trento", "name": "Purok 1", "place": "neighbourhood", "postal_code": "8505"}}, {"type": "node", "id": 11144260466, "lat": 8.0405023, "lon": 126.0653847, "tags": {"admin_level": "11", "admin_type:PH": "purok", "is_in:barangay": "Poblacion", "is_in:municipality": "Trento", "name": "Purok 4", "place": "neighbourhood", "postal_code": "8505"}}, {"type": "node", "id": 11144279456, "lat": 8.0488538, "lon": 126.0630527, "tags": {"admin_level": "11", "admin_type:PH": "purok", "is_in:barangay": "Poblacion", "is_in:municipality": "Trento", "name": "Purok 3", "place": "neighbourhood", "postal_code": "8505"}}, {"type": "node", "id": 11145871197, "lat": 7.9866244, "lon": 126.08012, "tags": {"admin_level": "11", "admin_type:PH": "purok", "alt_name": "Purok 8;Purok Onoman;Sitio Onoman", "is_in:barangay": "Pulanglupa", "is_in:municipality": "Trento", "name": "Onoman", "official_name": "Purok 8 Onoman", "place": "hamlet", "postal_code": "8505"}}, {"type": "node", "id": 12157167102, "lat": 8.1761612, "lon": 126.2744831, "tags": {"admin_level": "11", "admin_type:PH": "purok", "is_in:barangay": "Mone", "is_in:municipality": "Rosario", "name": "Purok 1", "place": "neighbourhood"}}, {"type": "node", "id": 12157327577, "lat": 7.9958141, "lon": 126.1368991, "tags": {"admin_type:PH": "purok", "is_in:town": "Trento", "is_in:village": "Salvacion", "name": "Purok 8", "place": "neighbourhood"}}, {"type": "node", "id": 12157368736, "lat": 7.9738127, "lon": 126.1695953, "tags": {"admin_level": "11", "admin_type:PH": "sitio", "is_in:town": "Boston", "is_in:village": "Simulao", "name": "Pangyan", "place": "neighbourhood"}}, {"type": "node", "id": 12167303490, "lat": 8.1713902, "lon": 125.9984985, "tags": {"admin_level": "10", "admin_type:PH": "barangay", "alt_name": "East Bunawan", "is_in:municipality": "Bunawan", "name": "San Teodoro", "place": "village", "postal_code": "8506"}}, {"type": "node", "id": 12621614368, "lat": 8.3010475, "lon": 126.0054669, "tags": {"admin_level": "11", "admin_type:PH": "purok", "is_in:barangay": "Bayugan 3", "is_in:municipality": "Rosario", "name": "Purok 4", "place": "neighbourhood", "postal_code": "8504"}}, {"type": "node", "id": 12637993864, "lat": 8.2670256, "lon": 126.0879475, "tags": {"admin_level": "11", "admin_type:PH": "sitio", "is_in:town": "Rosario", "is_in:village": "Bayugan 3", "name": "Mahunok", "place": "hamlet"}}, {"type": "way", "id": 406718030, "nodes": [4087581259, 4087581213, 4087581181, 4087581178, 4087581170, 4087581154, 4087581155, 4087581151, 4087581132, 4087581144, 4087581161, 4087581167, 4087581110, 4087581117, 4087581171, 4087581200, 4087581217, 4087581267, 4087581270, 4087581230, 4087581238, 4087581254, 4087581280, 4087581259], "tags": {"landuse": "residential", "place": "neighbourhood"}}, {"type": "way", "id": 488785556, "nodes": [4810759130, 4812552445, 4812552448, 4810759131, 4810759132, 4810759133, 4810759130], "tags": {"landuse": "residential", "name": "Bermudez Compound", "place": "neighbourhood"}}, {"type": "way", "id": 1144872356, "nodes": [10655645116, 10655645125, 10655645124, 10655645123, 10655645122, 10655645121, 10655645120, 10655645119, 10655645118, 10655645117, 10655645116], "tags": {"is_in:barangay": "Mancarago", "is_in:city": "Bislig", "landuse": "residential", "name": "Ericson Subdivision", "place": "neighbourhood", "residential": "rural"}}]}