{"version": 0.6, "generator": "Overpass API 0.7.62.5 1bd436f1", "osm3s": {"timestamp_osm_base": "2025-05-24T17:54:15Z", "copyright": "The data included in this document is from www.openstreetmap.org. The data is made available under ODbL."}, "elements": [{"type": "node", "id": 198501629, "lat": 20.3495326, "lon": 121.9380527, "tags": {"admin_level": "6", "admin_type:PH": "municipality", "name": "Uyugan", "old_ref": "020906000", "place": "town", "population": "1380", "population:date": "2020-05-01", "ref": "0200906000", "source:population": "Philippine Statistics Authority", "wikidata": "Q43469", "wikimedia_commons": "Category:Uyugan", "wikipedia": "en:Uyugan"}}, {"type": "node", "id": 198515009, "lat": 20.4164659, "lon": 121.948428, "tags": {"admin_level": "6", "admin_type:PH": "municipality", "name": "Mahatao", "old_ref": "020904000", "place": "town", "population": "1703", "population:date": "2020-05-01", "ref": "0200904000", "source:population": "Philippine Statistics Authority", "wikidata": "Q43458", "wikimedia_commons": "Category:Mahatao", "wikipedia": "en:Mahatao"}}, {"type": "node", "id": 198521598, "lat": 20.3709221, "lon": 121.9145002, "tags": {"admin_level": "6", "admin_type:PH": "municipality", "name": "Ivana", "old_ref": "020903000", "place": "town", "population": "1407", "population:date": "2020-05-01", "ref": "0200903000", "source:population": "Philippine Statistics Authority", "wikidata": "Q43454", "wikimedia_commons": "Category:Ivana, Batanes", "wikipedia": "en:Ivana, Batanes"}}, {"type": "node", "id": 654679310, "lat": 20.3347734, "lon": 121.8722738, "tags": {"admin_level": "6", "admin_type:PH": "municipality", "name": "Sabtang", "old_ref": "020905000", "place": "town", "population": "1696", "population:date": "2020-05-01", "ref": "0200905000", "source:population": "Philippine Statistics Authority", "wikidata": "Q43460", "wikimedia_commons": "Category:Sabtang", "wikipedia": "en:Sabtang"}}, {"type": "node", "id": 1779228478, "lat": 20.3680585, "lon": 121.9630244, "tags": {"admin_level": "10", "admin_type:PH": "barangay", "name": "Itbud", "place": "village", "population": "530", "ref": "020906003", "source": "Schadow1 Expeditions", "source:population": "PSA, 2020 Census", "source:ref": "PSA"}}, {"type": "node", "id": 2638666463, "lat": 20.2846973, "lon": 121.8718932, "tags": {"admin_level": "10", "admin_type:PH": "barangay", "name": "Chavayan", "old_ref": "020905001", "place": "hamlet", "population": "161", "population:date": "2020-05-01", "ref": "0200905001", "source:population": "Philippine Statistics Authority", "wikidata": "Q107203331"}}, {"type": "node", "id": 2638666474, "lat": 20.3249641, "lon": 121.838346, "tags": {"admin_level": "10", "admin_type:PH": "barangay", "name": "Nakanmuan", "old_ref": "020905003", "place": "hamlet", "population": "134", "population:date": "2020-05-01", "ref": "0200905003", "source:population": "Philippine Statistics Authority", "wikidata": "Q107203334"}}, {"type": "node", "id": 2638666480, "lat": 20.310337, "lon": 121.8875341, "tags": {"admin_level": "10", "admin_type:PH": "barangay", "name": "Savidug", "old_ref": "020905004", "place": "hamlet", "population": "201", "population:date": "2020-05-01", "ref": "0200905004", "source:population": "Philippine Statistics Authority", "wikidata": "Q107203336"}}, {"type": "node", "id": 2638666500, "lat": 20.2999032, "lon": 121.8433219, "tags": {"admin_level": "10", "admin_type:PH": "barangay", "name": "Sumnanga", "old_ref": "020905006", "place": "hamlet", "population": "360", "population:date": "2020-05-01", "ref": "0200905006", "source:population": "Philippine Statistics Authority", "wikidata": "Q107203338"}}, {"type": "node", "id": 2997127012, "lat": 20.4003327, "lon": 121.9631031, "tags": {"name": "Diura", "place": "village"}}, {"type": "node", "id": 6112638058, "lat": 20.4294024, "lon": 121.9713904, "tags": {"name": "Tukon", "place": "hamlet"}}, {"type": "node", "id": 6112638061, "lat": 20.419849, "lon": 121.9540025, "tags": {"name": "Kaumbakan", "place": "village"}}, {"type": "node", "id": 6112638074, "lat": 20.4064098, "lon": 121.9352754, "tags": {"name": "Ha\u00f1ib", "place": "village"}}, {"type": "node", "id": 6112640489, "lat": 20.4069705, "lon": 121.9452777, "tags": {"name": "Panatayan", "place": "village"}}, {"type": "node", "id": 6112640491, "lat": 20.3805445, "lon": 121.9206623, "tags": {"admin_level": "10", "admin_type:PH": "barangay", "alt_name": "Igang", "name": "San Vicente", "old_name": "Igang", "place": "village", "population": "267", "population:date": "2020-05-01", "ref": "020903003", "source:population": "Philippine Statistics Authority", "wikidata": "Q107203323"}}, {"type": "node", "id": 6112640495, "lat": 20.3503797, "lon": 121.9366499, "tags": {"name": "Kayuganan", "place": "village"}}, {"type": "node", "id": 6112640496, "lat": 20.3495103, "lon": 121.9411872, "tags": {"name": "Kayvaluganan", "place": "village"}}, {"type": "node", "id": 6112640594, "lat": 20.3788658, "lon": 121.9694225, "tags": {"name": "Imnajbu", "place": "village"}}]}