{"version": 0.6, "generator": "Overpass API 0.7.62.5 1bd436f1", "osm3s": {"timestamp_osm_base": "2025-05-24T18:02:29Z", "copyright": "The data included in this document is from www.openstreetmap.org. The data is made available under ODbL."}, "elements": [{"type": "node", "id": 198491234, "lat": 10.6459183, "lon": 124.3817679, "tags": {"admin_level": "6", "designation": "municipality", "is_in:province": "Cebu", "name": "San Francisco", "place": "town", "population": "59236", "population:date": "2020-05-01", "ref": "0702242000", "source:population": "Philippine Statistics Authority", "wikidata": "Q316332", "wikimedia_commons": "Category:San Francisco, Cebu", "wikipedia": "en:San Francisco, Cebu"}}, {"type": "node", "id": 198512857, "lat": 10.6362844, "lon": 124.4700002, "tags": {"admin_level": "6", "designation": "municipality", "name": "Tudela", "old_ref": "072253000", "place": "town", "population": "11304", "population:date": "2020-05-01", "ref": "0702253000", "source:population": "Philippine Statistics Authority", "wikidata": "Q316564", "wikimedia_commons": "Category:Tudela, Cebu", "wikipedia": "en:Tudela, Cebu"}}, {"type": "node", "id": 198519632, "lat": 10.9081163, "lon": 124.5383375, "tags": {"admin_level": "6", "designation": "municipality", "name": "Merida", "old_ref": "083736000", "place": "town", "population": "31574", "population:date": "2020-05-01", "ref": "0803736000", "source:population": "Philippine Statistics Authority", "wikidata": "Q213261", "wikimedia_commons": "Category:Merida, Leyte", "wikipedia": "en:Merida, Leyte"}}, {"type": "node", "id": 198529457, "lat": 11.0483792, "lon": 124.3825547, "tags": {"admin_level": "6", "designation": "municipality", "name": "Palompon", "old_ref": "083740000", "place": "town", "population": "58313", "population:date": "2020-05-01", "ref": "0803740000", "source:population": "Philippine Statistics Authority", "wikidata": "Q213303", "wikimedia_commons": "Category:Palompon", "wikipedia": "en:Palompon"}}, {"type": "node", "id": 278509771, "lat": 10.7309201, "lon": 124.5010784, "tags": {"admin_level": "10", "admin_type:PH": "barangay", "alt_name": "Kawit", "is_in:town": "Pilar", "name": "Cawit", "place": "village", "population": "2251", "population:2015": "1925", "population:date": "2020-05-01", "ref": "072236002", "source:population": "Philippine Statistics Authority", "wikidata": "Q28936812"}}, {"type": "node", "id": 298930233, "lat": 10.6346482, "lon": 124.3007967, "tags": {"admin_level": "10", "designation": "barangay", "is_in:state": "Cebu", "is_in:town": "San Francisco", "name": "Consuelo", "place": "village", "population": "6260", "population:date": "2020-05-01", "ref": "0702242004", "source": "NGA-GNS-07142010", "source:population": "Philippine Statistics Authority"}}, {"type": "node", "id": 679163082, "lat": 10.6715829, "lon": 124.3109504, "tags": {"admin_level": "11", "designation": "sitio", "is_in:village": "Union", "name": "Nonok", "place": "hamlet"}}, {"type": "node", "id": 679164790, "lat": 10.7018427, "lon": 124.317141, "tags": {"admin_level": "10", "designation": "barangay", "is_in:town": "San Francisco", "name": "Esperanza", "place": "village", "population": "6544", "population:date": "2020-05-01", "ref": "0702242006", "source:population": "Philippine Statistics Authority"}}, {"type": "node", "id": 745814039, "lat": 11.0723061, "lon": 124.5371575, "tags": {"admin_level": "10", "designation": "barangay", "is_in:city": "Ormoc City", "name": "Sabang Bao", "official_name": "Barangay Sabang Bao", "old_ref": "083738079", "place": "village", "population": "2302", "population:date": "2020-05-01", "postal_code": "6541", "ref": "0803738079", "short_name": "Bao"}}, {"type": "node", "id": 779463043, "lat": 10.680662, "lon": 124.4904913, "tags": {"admin_level": "10", "designation": "barangay", "is_in:town": "Tudela", "name": "Puertobello", "place": "village", "population": "2702", "population:date": "2020-05-01", "ref": "0702253007", "source:population": "Philippine Statistics Authority", "wikidata": "Q28975193"}}, {"type": "node", "id": 827767552, "lat": 10.9989441, "lon": 124.5385109, "tags": {"admin_level": "10", "admin_type:PH": "barangay", "is_in:city": "Ormoc", "name": "San Juan", "nga:ufi": "-2424127", "old_ref": "083738084", "place": "village", "population": "2405", "ref": "0803738084", "source": "Bing; USGS, 2013-10-11; NGA", "source:population": "Philippine Statistics Authority"}}, {"type": "node", "id": 869220263, "lat": 11.0614178, "lon": 124.5016307, "tags": {"admin_level": "10", "is_in:town": "Ormoc City", "name": "Green Valley", "place": "village", "place:PH": "barangay", "population": "902", "source:population": "psgc"}}, {"type": "node", "id": 869221152, "lat": 11.0727003, "lon": 124.4918009, "tags": {"admin_level": "10", "is_in:town": "Ormoc City", "name": "Esperanza", "place": "village", "place:PH": "barangay", "population": "673", "source:population": "psgc"}}, {"type": "node", "id": 869222322, "lat": 11.0628605, "lon": 124.5153276, "tags": {"admin_level": "10", "alt_name": "Masin", "is_in:town": "Ormoc City", "name": "Mas-in", "nga:ufi": "-2438892", "place": "village", "place:PH": "barangay", "population": "1719", "source": "Bing;USGS, 2013-10-11;NGA", "source:population": "psgc"}}, {"type": "node", "id": 869819877, "lat": 11.051531, "lon": 124.5216953, "tags": {"admin_level": "10", "is_in:town": "Ormoc City", "name": "San Vicente", "place": "village", "place:PH": "barangay", "population": "1040", "source:population": "psgc"}}, {"type": "node", "id": 911880494, "lat": 10.6444087, "lon": 124.4885107, "tags": {"admin_level": "10", "designation": "barangay", "is_in:town": "Tudela", "name": "Calmante", "place": "village", "population": "1426", "population:date": "2020-05-01", "ref": "0702253002", "source:population": "Philippine Statistics Authority", "wikidata": "Q28975173"}}, {"type": "node", "id": 911880495, "lat": 10.6771752, "lon": 124.3678797, "tags": {"admin_level": "10", "designation": "barangay", "is_in:town": "San Francisco", "name": "Santa Cruz", "place": "village", "population": "6035", "population:date": "2020-05-01", "ref": "0702242010", "source": "NGA-GNS-07142010", "source:population": "Philippine Statistics Authority"}}, {"type": "node", "id": 911880497, "lat": 10.6566242, "lon": 124.509841, "tags": {"admin_level": "10", "designation": "barangay", "is_in:town": "Tudela", "name": "McArthur", "place": "village", "population": "1533", "population:date": "2020-05-01", "ref": "0702253005", "source:population": "Philippine Statistics Authority", "wikidata": "Q28975190"}}, {"type": "node", "id": 911880498, "lat": 10.6350276, "lon": 124.3538629, "tags": {"admin_level": "10", "designation": "barangay", "is_in:town": "San Francisco", "name": "Montealegre", "place": "village", "population": "1517", "population:date": "2020-05-01", "ref": "0702242001", "source": "NGA-GNS-07142010", "source:population": "Philippine Statistics Authority"}}, {"type": "node", "id": 911880501, "lat": 10.7042245, "lon": 124.334825, "tags": {"admin_level": "10", "designation": "barangay", "is_in:town": "San Francisco", "name": "Sonog", "place": "village", "population": "4004", "population:date": "2020-05-01", "ref": "0702242012", "source": "NGA-GNS-07142010", "source:population": "Philippine Statistics Authority"}}, {"type": "node", "id": 911880503, "lat": 10.6885778, "lon": 124.3424069, "tags": {"admin_level": "10", "alt_name": "Cabunga-an", "designation": "barangay", "is_in:town": "San Francisco", "name": "Cabonga-an", "place": "village", "population": "2334", "population:date": "2020-05-01", "ref": "0702242002", "source": "NGA-GNS-07142010", "source:population": "Philippine Statistics Authority"}}, {"type": "node", "id": 911880508, "lat": 10.641912, "lon": 124.3721491, "tags": {"admin_level": "10", "designation": "barangay", "is_in:town": "San Francisco", "name": "Western Poblacion", "place": "village", "population": "2992", "population:date": "2020-05-01", "ref": "0702242016", "source": "NGA-GNS-07142010", "source:population": "Philippine Statistics Authority"}}, {"type": "node", "id": 911880511, "lat": 10.6518051, "lon": 124.3388976, "tags": {"admin_level": "10", "designation": "barangay", "is_in:town": "San Francisco", "name": "Campo", "place": "village", "population": "3207", "population:date": "2020-05-01", "ref": "0702242003", "source": "NGA-GNS-07142010", "source:population": "Philippine Statistics Authority"}}, {"type": "node", "id": 911880517, "lat": 10.6523649, "lon": 124.4732702, "tags": {"admin_level": "10", "designation": "barangay", "is_in:town": "Tudela", "name": "Santander", "place": "village", "population": "602", "population:date": "2020-05-01", "ref": "0702253008", "source:population": "Philippine Statistics Authority", "wikidata": "Q28975194"}}, {"type": "node", "id": 911880518, "lat": 10.6598858, "lon": 124.4887611, "tags": {"admin_level": "10", "designation": "barangay", "is_in:town": "Tudela", "name": "Daan Secante", "place": "village", "population": "441", "population:date": "2020-05-01", "ref": "0702253003", "source:population": "Philippine Statistics Authority", "wikidata": "Q28975175"}}, {"type": "node", "id": 911880521, "lat": 10.6694953, "lon": 124.3251602, "tags": {"admin_level": "10", "designation": "barangay", "is_in:town": "San Francisco", "name": "Union", "place": "village", "population": "6083", "population:date": "2020-05-01", "ref": "0702242015", "source": "NGA-GNS-07142010", "source:population": "Philippine Statistics Authority"}}, {"type": "node", "id": 911880527, "lat": 10.6453219, "lon": 124.4587925, "tags": {"admin_level": "10", "designation": "barangay", "is_in:town": "Tudela", "name": "General", "place": "village", "population": "1249", "population:date": "2020-05-01", "ref": "0702253004", "source:population": "Philippine Statistics Authority", "wikidata": "Q28975176"}}, {"type": "node", "id": 911973835, "lat": 11.0577651, "lon": 124.5640373, "tags": {"admin_level": "10", "admin_type:PH": "barangay", "is_in:city": "Ormoc", "name": "Airport", "official_name": "Barangay Airport", "place": "village", "population": "879", "population:date": "2020-05-01", "postal_code": "6541"}}, {"type": "node", "id": 1037512413, "lat": 10.6805442, "lon": 124.4366469, "tags": {"admin_level": "10", "designation": "barangay", "is_in:town": "Poro", "name": "Adela", "place": "village", "population": "1749", "population:2015": "1737", "population:date": "2020-05-01", "ref": "0702238001", "source:population": "Philippine Statistics Authority"}}, {"type": "node", "id": 1037512431, "lat": 10.7009724, "lon": 124.4134462, "tags": {"admin_level": "10", "designation": "barangay", "gns:uni": "-3344887", "is_in:town": "Poro", "name": "Esperanza", "place": "village", "population": "3488", "population:date": "2020-05-01", "ref": "0702238007", "source": "GNS;PSGC", "source:population": "Philippine Statistics Authority"}}, {"type": "node", "id": 1037512435, "lat": 10.6843218, "lon": 124.455438, "tags": {"admin_level": "10", "designation": "barangay", "gns:uni": "-3374876", "is_in:town": "Poro", "name": "San Jose", "place": "village", "population": "1375", "population:date": "2020-05-01", "ref": "0702238015", "source": "GNS;PSGC", "source:population": "Philippine Statistics Authority"}}, {"type": "node", "id": 1037512441, "lat": 10.685026, "lon": 124.4690149, "tags": {"admin_level": "10", "designation": "barangay", "is_in:town": "Poro", "name": "Rizal", "place": "village", "population": "786", "population:date": "2020-05-01", "ref": "0702238014", "source": "GNS;PSGC", "source:population": "Philippine Statistics Authority"}}, {"type": "node", "id": 1037512442, "lat": 10.6698354, "lon": 124.4792228, "tags": {"admin_level": "10", "designation": "barangay", "is_in:town": "Tudela", "name": "Secante Bag-o", "place": "village", "population": "646", "population:date": "2020-05-01", "ref": "0702253009", "source:population": "Philippine Statistics Authority", "wikidata": "Q28975197"}}, {"type": "node", "id": 1037512444, "lat": 10.7049245, "lon": 124.4318174, "tags": {"admin_level": "10", "designation": "barangay", "gns:uni": "11861070", "is_in:town": "Poro", "name": "Cagcagan", "place": "village", "population": "3351", "population:date": "2020-05-01", "ref": "0702238003", "source": "GNS;PSGC", "source:population": "Philippine Statistics Authority"}}, {"type": "node", "id": 1037512450, "lat": 10.6753203, "lon": 124.5115683, "tags": {"admin_level": "10", "designation": "barangay", "is_in:town": "Tudela", "name": "Villahermosa", "old_ref": "072253011", "place": "village", "population": "1086", "population:2015": "1124", "population:date": "2020-05-01", "ref": "0702253011", "source:population": "Philippine Statistics Authority", "wikidata": "Q28975199"}}, {"type": "node", "id": 1037512452, "lat": 10.6698733, "lon": 124.4021885, "tags": {"admin_level": "10", "designation": "barangay", "gns:uni": "-3362293", "is_in:town": "Poro", "name": "Mercedes", "place": "village", "population": "2973", "population:date": "2020-05-01", "ref": "0702238011", "source": "GNS;PSGC", "source:population": "Philippine Statistics Authority"}}, {"type": "node", "id": 1037512453, "lat": 10.667025, "lon": 124.455241, "tags": {"admin_level": "10", "designation": "barangay", "is_in:town": "Poro", "name": "Cansabusab", "place": "village", "population": "574", "population:2015": "577", "population:date": "2020-05-01", "ref": "072238004", "source:population": "Philippine Statistics Authority"}}, {"type": "node", "id": 1037512454, "lat": 10.650244, "lon": 124.439777, "tags": {"admin_level": "10", "designation": "barangay", "gns:uni": "-3323193", "is_in:town": "Poro", "name": "Altavista", "place": "village", "population": "1019", "population:date": "2020-05-01", "ref": "0702238002", "source": "GNS;PSGC", "source:population": "Philippine Statistics Authority"}}, {"type": "node", "id": 1122053638, "lat": 10.9261456, "lon": 124.5082578, "tags": {"admin_level": "10", "is_in:town": "Merida", "name": "Lundag", "place": "village", "place:PH": "barangay", "population": "643", "source:population": "psgc"}}, {"type": "node", "id": 1122482307, "lat": 10.9465032, "lon": 124.4605075, "tags": {"admin_level": "10", "fixme": "Location approximate.", "is_in:town": "Isabel", "name": "Consolacion", "place": "village", "place:PH": "barangay", "population": "430", "source:population": "psgc"}}, {"type": "node", "id": 1122482317, "lat": 10.9612323, "lon": 124.5064576, "tags": {"admin_level": "10", "is_in:town": "Merida", "name": "San Isidro", "place": "village", "place:PH": "barangay", "population": "756", "source:population": "psgc"}}, {"type": "node", "id": 1122482348, "lat": 10.9465794, "lon": 124.4773595, "tags": {"admin_level": "10", "admin_type:PH": "barangay", "is_in:town": "Isabel", "name": "Puting Bato", "place": "village", "place:PH": "barangay", "population": "643", "source:name": "extrapolated from OSMaPaaralan, way/932252131", "source:population": "psgc"}}, {"type": "node", "id": 1123917342, "lat": 10.9113667, "lon": 124.4778374, "tags": {"admin_level": "10", "is_in:town": "Isabel", "name": "Honan", "place": "village", "place:PH": "barangay", "population": "914", "source:population": "psgc"}}, {"type": "node", "id": 1123917421, "lat": 10.9605421, "lon": 124.5489416, "tags": {"admin_level": "10", "is_in:town": "Merida", "name": "Can-unzo", "place": "village", "place:PH": "barangay", "population": "893", "source:population": "psgc"}}, {"type": "node", "id": 1123917620, "lat": 10.9394352, "lon": 124.5461752, "tags": {"admin_level": "10", "is_in:town": "Merida", "name": "Libas", "place": "village", "place:PH": "barangay", "population": "2101", "source:population": "psgc"}}, {"type": "node", "id": 1123917860, "lat": 10.9310088, "lon": 124.4941734, "tags": {"admin_level": "10", "is_in:town": "Merida", "name": "San Jose", "place": "village", "place:PH": "barangay", "population": "461", "source:population": "psgc"}}, {"type": "node", "id": 1123917875, "lat": 10.9248517, "lon": 124.5457692, "tags": {"admin_level": "10", "is_in:town": "Merida", "name": "Lamanoc", "place": "village", "place:PH": "barangay", "population": "1800", "source:population": "psgc"}}, {"type": "node", "id": 1123917959, "lat": 10.9745687, "lon": 124.5345405, "tags": {"admin_level": "10", "is_in:town": "Merida", "name": "Puerto Bello", "place": "village", "place:PH": "barangay", "population": "3160", "source:population": "psgc"}}, {"type": "node", "id": 1123918162, "lat": 10.9690793, "lon": 124.5375869, "tags": {"admin_level": "10", "is_in:town": "Merida", "name": "Casilda", "place": "village", "place:PH": "barangay", "population": "1765", "source:population": "psgc"}}, {"type": "node", "id": 1123918367, "lat": 10.9827544, "lon": 124.5065331, "tags": {"admin_level": "10", "designation": "barangay", "is_in:town": "Merida", "name": "Canbantug", "place": "village"}}, {"type": "node", "id": 1125095546, "lat": 10.9692722, "lon": 124.4159466, "tags": {"admin_level": "10", "fixme": "Location approximate.", "is_in:town": "Palompon", "name": "Tabunok", "place": "village", "place:PH": "barangay", "population": "1794", "source:population": "psgc"}}, {"type": "node", "id": 1125095977, "lat": 10.9762289, "lon": 124.4062811, "tags": {"admin_level": "10", "is_in:town": "Palompon", "name": "Cruz", "place": "village", "place:PH": "barangay", "population": "830", "source:population": "psgc"}}, {"type": "node", "id": 2528346318, "lat": 11.0579525, "lon": 124.5624346, "tags": {"name": "Santo Ni\u00f1o", "nga:ufi": "-2452012", "place": "hamlet", "source": "Bing; USGS, 2013-10-11; NGA"}}, {"type": "node", "id": 2528410325, "lat": 11.0186634, "lon": 124.5601543, "tags": {"admin_level": "10", "admin_type:PH": "barangay", "is_in:city": "Ormoc", "name": "Lao", "official_name": "Barangay Lao", "place": "village", "postal_code": "6541"}}, {"type": "node", "id": 2528441884, "lat": 11.0393, "lon": 124.5347, "tags": {"name": "So-ong", "nga:ufi": "-2412430", "place": "hamlet", "source": "Bing; USGS, 2013-10-11; NGA"}}, {"type": "node", "id": 2528441885, "lat": 11.0, "lon": 124.483333, "tags": {"fixme": "Location approximate.", "name": "Bilaran", "nga:ufi": "-2414040", "place": "hamlet", "source": "Bing; USGS, 2013-10-11; NGA"}}, {"type": "node", "id": 2528441889, "lat": 11.0513, "lon": 124.5219, "tags": {"fixme": "confirm name and position", "name": "Kapangi-an", "nga:ufi": "-2417532", "place": "hamlet", "source": "Bing; USGS, 2013-10-11; NGA"}}, {"type": "node", "id": 2528441890, "lat": 10.992778, "lon": 124.480556, "tags": {"fixme": "confirm name and position.", "name": "Catambuan", "nga:ufi": "-2421418", "place": "hamlet", "source": "Bing; USGS, 2013-10-11; NGA"}}, {"type": "node", "id": 2528441891, "lat": 11.0284285, "lon": 124.5515372, "tags": {"name": "Jica", "nga:ufi": "-2421690", "place": "hamlet", "source": "Bing; USGS, 2013-10-11; NGA"}}, {"type": "node", "id": 2528441892, "lat": 11.0001, "lon": 124.5212, "tags": {"name": "Ipil", "nga:ufi": "-2428859", "place": "hamlet", "source": "Bing; USGS, 2013-10-11; NGA"}}, {"type": "node", "id": 2528441896, "lat": 11.0405941, "lon": 124.5501517, "tags": {"alt_name": "Lilo-an", "name": "Liloan", "nga:ufi": "-2433114", "place": "village", "source": "Bing;USGS, 2013-10-11;NGA"}}, {"type": "node", "id": 2528441899, "lat": 11.0568, "lon": 124.5323, "tags": {"name": "Pongol", "nga:ufi": "-2446606", "place": "hamlet", "source": "Bing; USGS, 2013-10-11; NGA"}}, {"type": "node", "id": 2528441900, "lat": 11.0477602, "lon": 124.5201511, "tags": {"name": "Bugo", "nga:ufi": "-2452327", "place": "hamlet", "source": "Bing; USGS, 2013-10-11; NGA"}}, {"type": "node", "id": 2528448221, "lat": 11.0231, "lon": 124.4888, "tags": {"fixme": "Location approximate.", "name": "Agubay", "nga:ufi": "-2407386", "place": "hamlet", "source": "Bing; USGS, 2013-10-11; NGA"}}, {"type": "node", "id": 2528448222, "lat": 11.0139, "lon": 124.4592, "tags": {"fixme": "Location approximate.", "name": "Cang Atong", "nga:ufi": "-2420181", "place": "hamlet", "source": "Bing; USGS, 2013-10-11; NGA"}}, {"type": "node", "id": 2528448224, "lat": 11.0178612, "lon": 124.4699009, "tags": {"name": "Hinagbuan", "nga:ufi": "10845563", "place": "village", "source": "Bing;USGS, 2013-10-11;NGA"}}, {"type": "node", "id": 2528448229, "lat": 11.0227594, "lon": 124.4409095, "tags": {"name": "Taberna", "nga:ufi": "-2454679", "place": "village", "source": "Bing;USGS, 2013-10-11;NGA;local knowledge"}}, {"type": "node", "id": 2528577201, "lat": 10.9513084, "lon": 124.391347, "tags": {"fixme": "Location approximate.", "name": "Cantuhaon", "nga:ufi": "-2420546", "place": "village", "source": "Bing;USGS, 2013-10-11;NGA"}}, {"type": "node", "id": 2528577209, "lat": 10.9367012, "lon": 124.3829633, "tags": {"name": "Duljugan", "nga:ufi": "-2441181", "place": "village", "source": "Bing;USGS, 2013-10-11;NGA"}}, {"type": "node", "id": 2528585752, "lat": 10.8800837, "lon": 124.5190609, "tags": {"name": "Libjo", "nga:ufi": "-2427123", "place": "village", "source": "Bing; USGS, 2013-10-11; NGA"}}, {"type": "node", "id": 2528585753, "lat": 10.8974552, "lon": 124.5314108, "tags": {"name": "Guinobatan", "nga:ufi": "-2427124", "place": "hamlet", "source": "Bing; USGS, 2013-10-11; NGA"}}, {"type": "node", "id": 2528585754, "lat": 11.0365751, "lon": 124.4366696, "tags": {"name": "Tambis", "nga:ufi": "-2427782", "place": "village", "source": "Bing;USGS, 2013-10-11;NGA"}}, {"type": "node", "id": 2528585755, "lat": 10.9141222, "lon": 124.5364193, "tags": {"name": "Junan", "nga:ufi": "-2429434", "place": "hamlet", "source": "Bing; USGS, 2013-10-11; NGA"}}, {"type": "node", "id": 2528585756, "lat": 11.0366, "lon": 124.3964, "tags": {"name": "Palawan", "nga:ufi": "-2443437", "place": "hamlet", "source": "Bing; USGS, 2013-10-11; NGA"}}, {"type": "node", "id": 2528663678, "lat": 11.0637, "lon": 124.4224, "tags": {"name": "Benaguhan", "nga:ufi": "10845559", "place": "hamlet", "source": "Bing; USGS, 2013-10-11; NGA"}}, {"type": "node", "id": 2528663679, "lat": 11.058, "lon": 124.3894, "tags": {"name": "Bito", "nga:ufi": "-2414654", "place": "hamlet", "source": "Bing; USGS, 2013-10-11; NGA"}}, {"type": "node", "id": 2528663681, "lat": 11.0627, "lon": 124.4003, "tags": {"name": "Bosey", "nga:ufi": "10845560", "place": "hamlet", "source": "Bing; USGS, 2013-10-11; NGA"}}, {"type": "node", "id": 2528663683, "lat": 11.0718, "lon": 124.3827, "tags": {"name": "Buaya", "nga:ufi": "-2415658", "place": "hamlet", "source": "Bing; USGS, 2013-10-11; NGA"}}, {"type": "node", "id": 2528663709, "lat": 11.0601, "lon": 124.3859, "tags": {"name": "Look", "nga:ufi": "-2433913", "place": "hamlet", "source": "Bing; USGS, 2013-10-11; NGA"}}, {"type": "node", "id": 2528663711, "lat": 11.0531, "lon": 124.4878, "tags": {"fixme": "confirm name and position", "name": "Malilahon", "nga:ufi": "-2436780", "place": "hamlet", "source": "Bing; USGS, 2013-10-11; NGA"}}, {"type": "node", "id": 2528663722, "lat": 11.0626, "lon": 124.3811, "tags": {"name": "Pacoce", "nga:ufi": "10845561", "place": "hamlet", "source": "Bing; USGS, 2013-10-11; NGA"}}, {"type": "node", "id": 2528664791, "lat": 11.0680874, "lon": 124.3779874, "tags": {"name": "San Juan", "nga:ufi": "-2450336", "place": "village", "place:PH": "barangay", "source": "Bing;USGS, 2013-10-11;NGA"}}, {"type": "node", "id": 2528664832, "lat": 11.0734, "lon": 124.4072, "tags": {"name": "Suba", "nga:ufi": "-2454085", "place": "hamlet", "source": "Bing; USGS, 2013-10-11; NGA"}}, {"type": "node", "id": 2528664853, "lat": 11.0659, "lon": 124.5066, "tags": {"name": "Tabugnapa", "nga:ufi": "-2454889", "place": "hamlet", "source": "Bing; USGS, 2013-10-11; NGA"}}, {"type": "node", "id": 2528664876, "lat": 11.054565, "lon": 124.4174878, "tags": {"fixme": "Location approximate.", "name": "Tinago", "nga:ufi": "-2457744", "place": "hamlet", "source": "Bing; USGS, 2013-10-11; NGA"}}, {"type": "node", "id": 2528664892, "lat": 11.073501, "lon": 124.4247559, "tags": {"name": "Tinubdan", "nga:ufi": "-2457928", "place": "village", "source": "Bing;USGS, 2013-10-11;NGA"}}, {"type": "node", "id": 2532343217, "lat": 10.896707, "lon": 124.4307999, "tags": {"fixme": "Copied from topo map, please add name and correct location, then remove this fixme.", "place": "hamlet", "source": "US Army Topo Map"}}, {"type": "node", "id": 2532343225, "lat": 10.9109264, "lon": 124.4610933, "tags": {"fixme": "Copied from topo map, please add name and correct location, then remove this fixme.", "place": "hamlet", "source": "US Army Topo Map"}}, {"type": "node", "id": 2532343231, "lat": 10.9234456, "lon": 124.4454829, "tags": {"fixme": "Copied from topo map, please add name and correct location, then remove this fixme.", "place": "hamlet", "source": "US Army Topo Map"}}, {"type": "node", "id": 2532343242, "lat": 10.9361194, "lon": 124.456302, "tags": {"fixme": "Copied from topo map, please add name and correct location, then remove this fixme.", "place": "hamlet", "source": "US Army Topo Map"}}, {"type": "node", "id": 2532343247, "lat": 10.9373559, "lon": 124.4015883, "tags": {"fixme": "Copied from topo map, please add name and correct location, then remove this fixme.", "place": "hamlet", "source": "US Army Topo Map"}}, {"type": "node", "id": 2532343248, "lat": 10.9482406, "lon": 124.4314006, "tags": {"name": "Hombayon", "place": "hamlet", "place:PH": "sitio", "source": "US Army Topo Map;local knowledge"}}, {"type": "node", "id": 2532343249, "lat": 10.960153, "lon": 124.4083318, "tags": {"fixme": "Copied from topo map, please add name and correct location, then remove this fixme.", "name": "Canipaan", "place": "hamlet", "source": "US Army Topo Map"}}, {"type": "node", "id": 2532343255, "lat": 10.9727692, "lon": 124.4182818, "tags": {"fixme": "Copied from topo map, please add name and correct location, then remove this fixme.", "place": "hamlet", "source": "US Army Topo Map"}}, {"type": "node", "id": 2532343259, "lat": 10.9769684, "lon": 124.4251117, "tags": {"name": "Magsaysay", "place": "village", "source": "US Army Topo Map"}}, {"type": "node", "id": 2532343267, "lat": 10.9908332, "lon": 124.4300271, "tags": {"fixme": "Copied from topo map, please add name and correct location, then remove this fixme.", "place": "hamlet", "source": "US Army Topo Map"}}, {"type": "node", "id": 2532343273, "lat": 11.0046861, "lon": 124.4035008, "tags": {"name": "Cangcosme", "place": "village", "source": "US Army Topo Map"}}, {"type": "node", "id": 2532343291, "lat": 11.0158317, "lon": 124.5295647, "tags": {"is_in:city": "Ormoc", "name": "Margen", "place": "village"}}, {"type": "node", "id": 2532343303, "lat": 11.0251052, "lon": 124.5272463, "tags": {"fixme": "Copied from topo map, please add name and correct location, then remove this fixme.", "place": "hamlet", "source": "US Army Topo Map"}}, {"type": "node", "id": 2532343320, "lat": 11.0319076, "lon": 124.5239952, "tags": {"name": "Curva", "place": "village"}}, {"type": "node", "id": 2532343343, "lat": 11.041643, "lon": 124.5451751, "tags": {"fixme": "Copied from topo map, please add name and correct location, then remove this fixme.", "place": "hamlet", "source": "US Army Topo Map"}}, {"type": "node", "id": 2532343352, "lat": 11.0478565, "lon": 124.5526644, "tags": {"fixme": "Copied from topo map, please add name and correct location, then remove this fixme.", "place": "hamlet", "source": "US Army Topo Map"}}, {"type": "node", "id": 2532343357, "lat": 11.0483434, "lon": 124.5633835, "tags": {"fixme": "Copied from topo map, please add name and correct location, then remove this fixme.", "place": "hamlet", "source": "US Army Topo Map"}}, {"type": "node", "id": 2532343381, "lat": 11.0602444, "lon": 124.5463821, "tags": {"fixme": "Copied from topo map, please add name and correct location, then remove this fixme.", "place": "hamlet", "source": "US Army Topo Map"}}, {"type": "node", "id": 2532343432, "lat": 11.0644175, "lon": 124.5633835, "tags": {"fixme": "Copied from topo map, please add name and correct location, then remove this fixme.", "place": "hamlet", "source": "US Army Topo Map"}}, {"type": "node", "id": 2532483083, "lat": 10.9417855, "lon": 124.5272531, "tags": {"fixme": "Copied from topo map, please add name and correct location, then remove this fixme.", "place": "hamlet", "source": "US Army Topo Map"}}, {"type": "node", "id": 2532483084, "lat": 10.943097, "lon": 124.4844116, "tags": {"fixme": "Copied from topo map, please add name and correct location, then remove this fixme.", "place": "hamlet", "source": "US Army Topo Map"}}, {"type": "node", "id": 2532483085, "lat": 10.9452552, "lon": 124.5132159, "tags": {"name": "Calunasan", "place": "village", "source": "US Army Topo Map"}}, {"type": "node", "id": 2532483088, "lat": 10.9531516, "lon": 124.4495483, "tags": {"fixme": "Copied from topo map, please add name and correct location, then remove this fixme.", "place": "hamlet", "source": "US Army Topo Map"}}, {"type": "node", "id": 2532483092, "lat": 10.964627, "lon": 124.4649581, "tags": {"fixme": "Copied from topo map, please add name and correct location, then remove this fixme.", "place": "hamlet", "source": "US Army Topo Map"}}, {"type": "node", "id": 2532483093, "lat": 10.9667035, "lon": 124.5248487, "tags": {"fixme": "Copied from topo map, please add name and correct location, then remove this fixme.", "place": "hamlet", "source": "US Army Topo Map"}}, {"type": "node", "id": 2532483094, "lat": 10.9711844, "lon": 124.4613516, "tags": {"fixme": "Copied from topo map, please add name and correct location, then remove this fixme.", "place": "hamlet", "source": "US Army Topo Map"}}, {"type": "node", "id": 2532483095, "lat": 10.9722203, "lon": 124.4887746, "tags": {"fixme": "Copied from topo map, please add name and correct location, then remove this fixme.", "place": "hamlet", "source": "US Army Topo Map"}}, {"type": "node", "id": 2532483096, "lat": 10.9755559, "lon": 124.5028815, "tags": {"fixme": "Copied from topo map, please add name and correct location, then remove this fixme.", "place": "hamlet", "source": "US Army Topo Map"}}, {"type": "node", "id": 2532483097, "lat": 10.9768674, "lon": 124.454357, "tags": {"fixme": "Copied from topo map, please add name and correct location, then remove this fixme.", "place": "hamlet", "source": "US Army Topo Map"}}, {"type": "node", "id": 2532483098, "lat": 10.9785067, "lon": 124.5099854, "tags": {"fixme": "Copied from topo map, please add name and correct location, then remove this fixme.", "place": "hamlet", "source": "US Army Topo Map"}}, {"type": "node", "id": 2532483099, "lat": 10.9792718, "lon": 124.4650674, "tags": {"fixme": "Copied from topo map, please add name and correct location, then remove this fixme.", "place": "hamlet", "source": "US Army Topo Map"}}, {"type": "node", "id": 2532483101, "lat": 10.981239, "lon": 124.5011329, "tags": {"fixme": "Copied from topo map, please add name and correct location, then remove this fixme.", "place": "hamlet", "source": "US Army Topo Map"}}, {"type": "node", "id": 2532483102, "lat": 10.9859384, "lon": 124.4729362, "tags": {"fixme": "Copied from topo map, please add name and correct location, then remove this fixme.", "place": "hamlet", "source": "US Army Topo Map"}}, {"type": "node", "id": 2532483104, "lat": 10.9886707, "lon": 124.4605865, "tags": {"fixme": "Copied from topo map, please add name and correct location, then remove this fixme.", "place": "hamlet", "source": "US Army Topo Map"}}, {"type": "node", "id": 2532483105, "lat": 10.9891078, "lon": 124.5152312, "tags": {"fixme": "Copied from topo map, please add name and correct location, then remove this fixme.", "place": "hamlet", "source": "US Army Topo Map"}}, {"type": "node", "id": 2532483107, "lat": 10.9945723, "lon": 124.5232094, "tags": {"fixme": "Copied from topo map, please add name and correct location, then remove this fixme.", "place": "hamlet", "source": "US Army Topo Map"}}, {"type": "node", "id": 2532483108, "lat": 11.0228447, "lon": 124.4598305, "tags": {"name": "San Joaquin", "place": "village", "source": "US Army Topo Map"}}, {"type": "node", "id": 2532483119, "lat": 11.06095, "lon": 124.4367989, "tags": {"fixme": "Copied from topo map, please add name and correct location, then remove this fixme.", "place": "hamlet", "source": "US Army Topo Map"}}, {"type": "node", "id": 2532506424, "lat": 10.8689682, "lon": 124.478565, "tags": {"name": "Tolingon", "place": "village", "source": "US Army Topo Map"}}, {"type": "node", "id": 2532506429, "lat": 10.8703464, "lon": 124.4887672, "tags": {"admin_level": "10", "admin_type:PH": "barangay", "name": "Apale", "place": "village", "population": "1717", "population:2015": "1836", "ref": "083722003", "source": "US Army Topo Map"}}, {"type": "node", "id": 2532506431, "lat": 10.8711527, "lon": 124.5016657, "tags": {"admin_level": "10", "admin_type:PH": "barangay", "alt_name": "Benabaye", "is_in:town": "Merida", "name": "Binabaye", "place": "village", "population": "1376", "population:2015": "1253", "ref": "083736001", "source:population": "Philippine Statistics Authority"}}, {"type": "node", "id": 2532506438, "lat": 10.8779072, "lon": 124.471966, "tags": {"fixme": "Copied from topo map, please add name and correct location, then remove this fixme.", "place": "hamlet", "source": "US Army Topo Map"}}, {"type": "node", "id": 2532506445, "lat": 10.8843987, "lon": 124.4639289, "tags": {"fixme": "Copied from topo map, please add name and correct location, then remove this fixme.", "place": "hamlet", "source": "US Army Topo Map"}}, {"type": "node", "id": 2532506454, "lat": 10.8902719, "lon": 124.5252887, "tags": {"fixme": "Copied from topo map, please add name and correct location, then remove this fixme.", "place": "hamlet", "source": "US Army Topo Map"}}, {"type": "node", "id": 2532506474, "lat": 10.9089735, "lon": 124.485258, "tags": {"fixme": "Copied from topo map, please add name and correct location, then remove this fixme.", "place": "hamlet", "source": "US Army Topo Map"}}, {"type": "node", "id": 2532506484, "lat": 10.9139194, "lon": 124.4766027, "tags": {"fixme": "Copied from topo map, please add name and correct location, then remove this fixme.", "place": "hamlet", "source": "US Army Topo Map"}}, {"type": "node", "id": 2532506489, "lat": 10.9180924, "lon": 124.5410537, "tags": {"fixme": "Copied from topo map, please add name and correct location, then remove this fixme.", "place": "hamlet", "source": "US Army Topo Map"}}, {"type": "node", "id": 2532506491, "lat": 10.9222655, "lon": 124.5299254, "tags": {"fixme": "Copied from topo map, please add name and correct location, then remove this fixme.", "place": "hamlet", "source": "US Army Topo Map"}}, {"type": "node", "id": 2532506492, "lat": 10.922332, "lon": 124.4015703, "tags": {"fixme": "Copied from topo map, please add name and correct location, then remove this fixme.", "place": "hamlet", "source": "US Army Topo Map"}}, {"type": "node", "id": 2532506496, "lat": 10.9241202, "lon": 124.4868036, "tags": {"fixme": "Copied from topo map, please add name and correct location, then remove this fixme.", "place": "hamlet", "source": "US Army Topo Map"}}, {"type": "node", "id": 2532506498, "lat": 10.9261295, "lon": 124.5221975, "tags": {"fixme": "Copied from topo map, please add name and correct location, then remove this fixme.", "place": "hamlet", "source": "US Army Topo Map"}}, {"type": "node", "id": 2532506505, "lat": 10.9272114, "lon": 124.5373442, "tags": {"fixme": "Copied from topo map, please add name and correct location, then remove this fixme.", "place": "hamlet", "source": "US Army Topo Map"}}, {"type": "node", "id": 2532506510, "lat": 10.9284479, "lon": 124.5453813, "tags": {"fixme": "Copied from topo map, please add name and correct location, then remove this fixme.", "place": "hamlet", "source": "US Army Topo Map"}}, {"type": "node", "id": 2532506512, "lat": 10.9554467, "lon": 124.4981821, "tags": {"fixme": "Copied from topo map, please add name and correct location, then remove this fixme.", "place": "hamlet", "source": "US Army Topo Map"}}, {"type": "node", "id": 2537208556, "lat": 10.7620022, "lon": 124.5037261, "tags": {"admin_level": "10", "designation": "barangay", "name": "Lanao", "place": "village", "population": "947", "population:date": "2020-05-01", "ref": "072236005", "source:population": "Philippine Statistics Authority", "wikidata": "Q28936822"}}, {"type": "node", "id": 2954547271, "lat": 10.9333851, "lon": 124.5164449, "tags": {"name": "Mat-E", "place": "village"}}, {"type": "node", "id": 3430066028, "lat": 10.9260948, "lon": 124.4343966, "tags": {"admin_level": "6", "admin_type:PH": "municipality", "gns_classification": "ADM2", "name": "Isabel", "old_ref": "083722000", "place": "town", "population": "46781", "population:date": "2020-05-01", "ref": "0803722000", "source:population": "Philippine Statistics Authority", "wikidata": "Q213060", "wikimedia_commons": "Category:Isabel, Leyte", "wikipedia": "en:Isabel, Leyte"}}, {"type": "node", "id": 3676057074, "lat": 10.6568326, "lon": 124.4157248, "tags": {"admin_level": "10", "designation": "barangay", "is_in:town": "Poro", "name": "Pagsa", "place": "village", "population": "835", "population:date": "2020-05-01", "ref": "0702238012", "source:name": "way 363436934", "source:population": "Philippine Statistics Authority"}}, {"type": "node", "id": 4472547372, "lat": 10.6384759, "lon": 124.3835317, "tags": {"admin_level": "11", "designation": "purok", "is_in:village": "Southern Poblacion", "name": "Can-insing", "official_name": "Purok Can-insing", "place": "hamlet"}}, {"type": "node", "id": 4474870395, "lat": 10.6514014, "lon": 124.3802029, "tags": {"admin_level": "11", "designation": "purok", "is_in:village": "Northern Poblacion", "name": "Pamatasan", "place": "neighbourhood"}}, {"type": "node", "id": 4474870396, "lat": 10.6774195, "lon": 124.3983383, "tags": {"admin_level": "11", "designation": "sitio", "is_in:village": "Mercedes", "name": "Cansuting", "place": "hamlet"}}, {"type": "node", "id": 4474873587, "lat": 10.6824843, "lon": 124.3995709, "tags": {"admin_level": "11", "designation": "sitio", "is_in:village": "Mercedes", "name": "Carmen", "place": "hamlet"}}, {"type": "node", "id": 4474873742, "lat": 10.6746961, "lon": 124.3772549, "tags": {"designation": "purok", "is_in:village": "Santa Cruz", "name": "Canlayog", "place": "hamlet"}}, {"type": "node", "id": 4476434990, "lat": 10.7058624, "lon": 124.422821, "tags": {"designation": "purok", "is_in:town": "Poro", "is_in:village": "Esperanza", "name": "Cantaw-ang", "place": "neighbourhood"}}, {"type": "node", "id": 4476434992, "lat": 10.7139524, "lon": 124.4522797, "tags": {"admin_level": "11", "designation": "sitio", "is_in:village": "Cagcagan", "name": "River Side", "place": "hamlet"}}, {"type": "node", "id": 4476434993, "lat": 10.7011655, "lon": 124.4631252, "tags": {"admin_level": "11", "designation": "sitio", "is_in:village": "Paz", "name": "Mongpong", "place": "hamlet"}}, {"type": "node", "id": 4476435317, "lat": 10.7047583, "lon": 124.4697473, "tags": {"admin_level": "11", "designation": "sitio", "is_in:village": "Paz", "name": "Taglibas", "place": "hamlet"}}, {"type": "node", "id": 4476435396, "lat": 10.7053698, "lon": 124.4151151, "tags": {"designation": "sitio", "name": "Melendez", "place": "neighbourhood"}}, {"type": "node", "id": 4476435397, "lat": 10.7165096, "lon": 124.4297738, "tags": {"admin_level": "11", "designation": "sitio", "is_in:village": "Cagcagan", "name": "Canipaan", "place": "hamlet"}}, {"type": "node", "id": 4476435398, "lat": 10.7161762, "lon": 124.4437661, "tags": {"name": "Punta lo-\u00f2c", "place": "hamlet"}}, {"type": "node", "id": 4477984985, "lat": 10.6860449, "lon": 124.4065707, "tags": {"admin_level": "11", "designation": "sitio", "is_in:village": "Esperanza", "name": "Mactang", "place": "hamlet", "source:name": "extrapolated from OSMaPaaralan"}}, {"type": "node", "id": 4481559846, "lat": 10.6432876, "lon": 124.4892766, "tags": {"admin_level": "11", "designation": "sitio", "name": "Kaimito", "place": "neighbourhood"}}, {"type": "node", "id": 4481559847, "lat": 10.6351962, "lon": 124.4647654, "tags": {"admin_level": "11", "designation": "purok", "name": "Diharina", "place": "neighbourhood"}}, {"type": "node", "id": 4481559850, "lat": 10.6296541, "lon": 124.4165293, "tags": {"admin_level": "11", "designation": "sitio", "is_in:village": "Mabini", "name": "Timarong", "place": "hamlet"}}, {"type": "node", "id": 4481559979, "lat": 10.6295027, "lon": 124.4530335, "tags": {"admin_level": "11", "designation": "purok", "is_in:village": "Libertad", "name": "Lawis", "place": "neighbourhood"}}, {"type": "node", "id": 6082668119, "lat": 10.8040645, "lon": 124.5554603, "tags": {"admin_level": "10", "designation": "barangay", "name": "Villahermosa", "place": "village", "population": "1177", "population:date": "2020-05-01", "ref": "072236014", "source:population": "Philippine Statistics Authority", "wikidata": "Q28936861"}}, {"type": "node", "id": 6082668120, "lat": 10.7998654, "lon": 124.5364924, "tags": {"admin_level": "10", "designation": "barangay", "name": "Esperanza", "place": "village", "population": "855", "population:date": "2020-05-01", "ref": "072236004", "source:population": "Philippine Statistics Authority", "wikidata": "Q28936815"}}, {"type": "node", "id": 6082668131, "lat": 10.7733213, "lon": 124.5149135, "tags": {"admin_level": "10", "designation": "barangay", "name": "Imelda", "place": "village", "population": "577", "population:date": "2020-05-01", "ref": "072236015", "source:population": "Philippine Statistics Authority", "wikidata": "Q28936816"}}, {"type": "node", "id": 6082668134, "lat": 10.7784314, "lon": 124.5534853, "tags": {"admin_level": "10", "designation": "barangay", "name": "San Juan", "place": "village", "population": "796", "population:date": "2020-05-01", "ref": "072236012", "source:population": "Philippine Statistics Authority", "wikidata": "Q28936849"}}, {"type": "node", "id": 6082668135, "lat": 10.7696915, "lon": 124.5414635, "tags": {"admin_level": "10", "designation": "barangay", "name": "San Isidro", "place": "village", "population": "643", "population:date": "2020-05-01", "ref": "072236011", "source:population": "Philippine Statistics Authority", "wikidata": "Q28936840"}}, {"type": "node", "id": 6082668136, "lat": 10.7539021, "lon": 124.5391706, "tags": {"admin_level": "10", "designation": "barangay", "name": "Montserrat", "place": "village", "population": "1260", "population:date": "2020-05-01", "ref": "072236008", "source:population": "Philippine Statistics Authority", "wikidata": "Q28936835"}}, {"type": "node", "id": 6082668147, "lat": 10.7386223, "lon": 124.5219113, "tags": {"admin_level": "10", "designation": "barangay", "name": "Moabog", "place": "village", "population": "1172", "population:date": "2020-05-01", "ref": "072236007", "source:population": "Philippine Statistics Authority", "wikidata": "Q28936832"}}, {"type": "node", "id": 6082668157, "lat": 10.755873, "lon": 124.5176099, "tags": {"admin_level": "10", "designation": "barangay", "name": "Biasong", "place": "village", "population": "406", "population:date": "2020-05-01", "ref": "072236001", "source:population": "Philippine Statistics Authority", "wikidata": "Q28936808"}}, {"type": "node", "id": 6645099887, "lat": 10.9164637, "lon": 124.3854036, "tags": {"name": "Buenavista", "place": "village"}}, {"type": "node", "id": 6645113885, "lat": 10.924945, "lon": 124.4159536, "tags": {"admin_level": "10", "admin_type:PH": "barangay", "is_in:town": "Isabel", "name": "Bantigue", "place": "village", "population": "2454", "population:2015": "2339", "ref": "083722004", "source:name": "extrapolated from OSMaPaaralan, way/932254551", "source:population": "Philippine Statistics Authority"}}, {"type": "node", "id": 6645113985, "lat": 10.9345099, "lon": 124.3992388, "tags": {"name": "San Francisco", "place": "village"}}, {"type": "node", "id": 7150393158, "lat": 10.6927117, "lon": 124.4817254, "tags": {"admin_level": "11", "designation": "sitio", "is_in:village": "Puertobello", "name": "Maslog", "place": "hamlet"}}, {"type": "node", "id": 7645087470, "lat": 10.6577585, "lon": 124.4648864, "tags": {"admin_level": "10", "designation": "barangay", "is_in:town": "Tudela", "name": "Buenavista", "place": "village", "population": "452", "population:date": "2020-05-01", "ref": "0702253001", "source:population": "Philippine Statistics Authority", "wikidata": "Q28975172"}}, {"type": "node", "id": 7645568931, "lat": 10.8974627, "lon": 124.5295599, "tags": {"is_in:town": "Merida", "name": "Macario", "place": "village"}}, {"type": "node", "id": 7645577414, "lat": 10.8733015, "lon": 124.5126084, "tags": {"admin_level": "10", "admin_type:PH": "barangay", "is_in:town": "Merida", "name": "Calunangan", "place": "village", "population": "1072", "population:2015": "1076", "ref": "083736003"}}, {"type": "node", "id": 7679850782, "lat": 11.0113786, "lon": 124.515571, "tags": {"is_in:town": "Merida", "name": "Cabaliwan", "place": "village"}}, {"type": "node", "id": 8410203306, "lat": 10.7155399, "lon": 124.324739, "tags": {"admin_level": "11", "designation": "sitio", "is_in:village": "Esperanza", "name": "Tulang Diot", "place": "hamlet"}}, {"type": "node", "id": 8627725116, "lat": 11.0420332, "lon": 124.5017094, "tags": {"name": "Domonar", "place": "village"}}, {"type": "node", "id": 8627984809, "lat": 11.0266892, "lon": 124.5013571, "tags": {"name": "Mahayag", "place": "village"}}, {"type": "node", "id": 8627997450, "lat": 11.0116149, "lon": 124.4980543, "tags": {"name": "Masumbang", "place": "village"}}, {"type": "node", "id": 8628027623, "lat": 10.9129367, "lon": 124.5147664, "tags": {"name": "Cambalong", "place": "village"}}, {"type": "node", "id": 8628027624, "lat": 10.9105852, "lon": 124.5044084, "tags": {"name": "Tubod", "place": "village"}}, {"type": "node", "id": 8634224255, "lat": 10.8768905, "lon": 124.4747764, "tags": {"name": "Tubod", "place": "village"}}, {"type": "node", "id": 8634229869, "lat": 10.8828892, "lon": 124.4671197, "tags": {"name": "Bilwang", "place": "village"}}, {"type": "node", "id": 8634250983, "lat": 10.907705, "lon": 124.4510759, "tags": {"name": "Libertad", "place": "village"}}, {"type": "node", "id": 8634252836, "lat": 10.8861984, "lon": 124.472338, "tags": {"name": "Binog", "place": "village"}}, {"type": "node", "id": 8634256277, "lat": 10.9308423, "lon": 124.4580009, "tags": {"name": "Anislag", "place": "village"}}, {"type": "node", "id": 8634288716, "lat": 10.9469129, "lon": 124.4432735, "tags": {"name": "Monte Alegre", "place": "village"}}, {"type": "node", "id": 8642070843, "lat": 10.9620854, "lon": 124.4698181, "tags": {"name": "Cangag", "place": "village"}}, {"type": "node", "id": 8642078989, "lat": 10.9617434, "lon": 124.4567242, "tags": {"name": "Can-andan", "place": "village"}}, {"type": "node", "id": 8642080666, "lat": 10.9451559, "lon": 124.4093897, "tags": {"admin_level": "10", "admin_type:PH": "barangay", "name": "Antipolo", "place": "village", "population": "517", "population:2015": "611", "ref": "083722002"}}, {"type": "node", "id": 8642086485, "lat": 10.9616263, "lon": 124.4308842, "tags": {"name": "Tabunok", "place": "village"}}, {"type": "node", "id": 8642093906, "lat": 10.9680258, "lon": 124.4135363, "tags": {"name": "Crossing", "place": "hamlet"}}, {"type": "node", "id": 8642113353, "lat": 10.9653189, "lon": 124.3964956, "tags": {"name": "Plaridel", "nga:ufi": "-2446382", "place": "village", "source": "Bing;USGS, 2013-10-11;NGA"}}, {"type": "node", "id": 8642116809, "lat": 10.9795016, "lon": 124.4123105, "tags": {"name": "Baguinbin", "place": "village"}}, {"type": "node", "id": 8642138043, "lat": 10.9911365, "lon": 124.4096714, "tags": {"admin_level": "10", "admin_type:PH": "barangay", "name": "Parrilla", "place": "village"}}, {"type": "node", "id": 8642138052, "lat": 10.9945414, "lon": 124.4148461, "tags": {"name": "San Guillermo", "place": "village"}}, {"type": "node", "id": 8642146713, "lat": 11.0029331, "lon": 124.4410032, "tags": {"name": "Lat-osan", "place": "village"}}, {"type": "node", "id": 8642199548, "lat": 11.0208478, "lon": 124.4143392, "tags": {"admin_level": "10", "admin_type:PH": "barangay", "is_in:town": "Palompon", "name": "Cambinoy", "nga:ufi": "-2419637", "old_ref": "083740006", "place": "village", "population": "926", "ref": "0803740006", "source": "Bing;USGS, 2013-10-11;NGA", "source:population": "Philippine Statistics Authority"}}, {"type": "node", "id": 8642200367, "lat": 11.0129506, "lon": 124.4160769, "tags": {"name": "San Pedro", "place": "village"}}, {"type": "node", "id": 8642220552, "lat": 11.0402425, "lon": 124.4746566, "tags": {"name": "Cambacbac", "place": "village"}}, {"type": "node", "id": 8642469505, "lat": 11.0265903, "lon": 124.4217627, "tags": {"name": "Rizal", "nga:ufi": "-2447997", "place": "village", "source": "Bing;USGS, 2013-10-11;NGA"}}, {"type": "node", "id": 8642493530, "lat": 11.041569, "lon": 124.4147699, "tags": {"name": "Cantandoy", "place": "village"}}, {"type": "node", "id": 8642504845, "lat": 11.0612078, "lon": 124.4062758, "tags": {"name": "San Miguel", "place": "village"}}, {"type": "node", "id": 8645670507, "lat": 11.058346, "lon": 124.4686959, "tags": {"name": "Mabini", "place": "village"}}, {"type": "node", "id": 8645688146, "lat": 11.0585996, "lon": 124.446552, "tags": {"name": "Santiago", "place": "village"}}, {"type": "node", "id": 8871025474, "lat": 10.6941811, "lon": 124.4725744, "tags": {"admin_level": "10", "designation": "barangay", "is_in:town": "Poro", "name": "Daan Paz", "place": "village", "population": "807", "population:date": "2020-05-01", "ref": "0702238005", "source:name": "extrapolated from OSMaPaaralan", "source:population": "Philippine Statistics Authority"}}, {"type": "node", "id": 8871037648, "lat": 10.7071365, "lon": 124.456039, "tags": {"admin_level": "10", "designation": "barangay", "is_in:town": "Poro", "name": "Paz", "place": "village", "population": "1297", "population:date": "2020-05-01", "ref": "0702238013", "source:name": "extrapolated from OSMaPaaralan, way/958743733", "source:population": "Philippine Statistics Authority"}}, {"type": "node", "id": 8871123250, "lat": 10.6782206, "lon": 124.4211617, "tags": {"admin_level": "10", "designation": "barangay", "is_in:town": "Poro", "name": "Santa Rita", "place": "village", "population": "996", "population:2015": "705", "population:date": "2020-05-01", "ref": "0702238016", "source:population": "Philippine Statistics Authority"}}, {"type": "node", "id": 8871252571, "lat": 10.647165, "lon": 124.4024234, "tags": {"admin_level": "10", "designation": "barangay", "is_in:town": "Poro", "name": "Teguis", "place": "village", "population": "1765", "population:date": "2020-05-01", "ref": "0702238018", "source:name": "extrapolated from OSMaPaaralan", "source:population": "Philippine Statistics Authority"}}, {"type": "node", "id": 8871270478, "lat": 10.6699932, "lon": 124.3263474, "tags": {"description": "Nangka", "designation": "purok", "is_in:village": "Union", "name": "Nangka", "place": "neighbourhood", "source:name": "extrapolated from OSMaPaaralan"}}, {"type": "node", "id": 9196639984, "lat": 10.9461848, "lon": 124.4752747, "tags": {"fixme": "name", "place": "neighbourhood"}}, {"type": "node", "id": 9196677438, "lat": 10.9461189, "lon": 124.4675606, "tags": {"admin_level": "11", "admin_type:PH": "sitio", "is_in:quarter": "Puting Bato", "is_in:town": "Isabel", "name": "Simangan", "place": "hamlet", "source:name": "extrapolated from OSMaPaaralan, way/995972695"}}, {"type": "node", "id": 9338891613, "lat": 10.7854811, "lon": 124.5241861, "tags": {"admin_level": "10", "designation": "barangay", "name": "Dapdap", "place": "village", "population": "671", "population:date": "2020-05-01", "ref": "072236003", "source:population": "Philippine Statistics Authority", "wikidata": "Q28936814"}}, {"type": "node", "id": 9534250296, "lat": 10.9241963, "lon": 124.4157216, "tags": {"admin_level": "12", "admin_type:PH": "purok", "is_in:town": "Isabel", "is_in:village": "Bantigue", "name": "Poblacion", "place": "neighbourhood", "source:name": "extrapolated from OSMaPaaralan, way/932254551"}}, {"type": "node", "id": 10696403566, "lat": 11.0032868, "lon": 124.5395037, "tags": {"is_in:barangay": "San Juan", "is_in:city": "Ormoc", "name": "Kasantolan", "place": "neighbourhood"}}, {"type": "node", "id": 11072207520, "lat": 10.8892996, "lon": 124.4567201, "tags": {"admin_level": "10", "admin_type:PH": "barangay", "is_in:town": "Isabela", "name": "Matlang", "old_ref": "083722014", "place": "village", "population": "6502", "population:2015": "5972", "ref": "0803722014", "source:population": "Philippine Statistics Authority"}}, {"type": "node", "id": 11327720187, "lat": 10.9852617, "lon": 124.4145154, "tags": {"alt_name": "Kanggapac", "is_in": "Barangay Parilla", "name": "Kanggapak", "note": "Separated from Oguinsan by the bridge to the north", "place": "hamlet", "place:PH": "sitio", "source": "local knowledge;GNS"}}, {"type": "node", "id": 11678025799, "lat": 11.0590794, "lon": 124.3877, "tags": {"name": "Toril", "place": "hamlet", "place:PH": "sitio", "source": "local knowledge"}}, {"type": "node", "id": 12102615688, "lat": 11.0454601, "lon": 124.3850874, "tags": {"name": "Drydock", "note": "name of slum built over a former drydock", "place": "neighbourhood"}}, {"type": "node", "id": 12205226413, "lat": 10.9823999, "lon": 124.414304, "tags": {"is_in": "Barangay Baguinbin", "name": "Alimango", "place": "hamlet", "place:PH": "sitio", "source": "GNS;local knowledge"}}, {"type": "node", "id": 12206989672, "lat": 11.0720335, "lon": 124.4470812, "tags": {"fixme": "verify name", "name": "Colony", "place": "hamlet"}}, {"type": "node", "id": 12292703285, "lat": 10.9871445, "lon": 124.4132854, "tags": {"is_in": "Barangay Parilla", "name": "Oguinsan", "note": "Separated from Kanggapak by the bridge to the south", "place": "hamlet", "place:PH": "sitio", "source": "local knowledge"}}, {"type": "node", "id": 12324174565, "lat": 11.03144, "lon": 124.456354, "tags": {"name": "Sky Village", "place": "hamlet"}}, {"type": "node", "id": 12344448381, "lat": 10.9856649, "lon": 124.4434937, "tags": {"name": "Cangmoya", "place": "village"}}, {"type": "node", "id": 12344650887, "lat": 10.9698251, "lon": 124.4578588, "tags": {"name": "San Roque", "place": "village"}}, {"type": "node", "id": 12344657312, "lat": 10.9937618, "lon": 124.4597084, "tags": {"name": "Catigahan", "place": "village"}}, {"type": "node", "id": 12344669545, "lat": 10.9758671, "lon": 124.4666641, "tags": {"name": "San Pablo", "nga:ufi": "-2450834", "place": "village", "source": "Bing;USGS, 2013-10-11;NGA"}}, {"type": "node", "id": 12344707458, "lat": 10.9920228, "lon": 124.4713119, "tags": {"name": "Belen", "nga:ufi": "-2413712", "place": "village", "source": "Bing;USGS, 2013-10-11;NGA"}}]}