{"version": 0.6, "generator": "Overpass API 0.7.62.5 1bd436f1", "osm3s": {"timestamp_osm_base": "2025-05-24T18:01:29Z", "copyright": "The data included in this document is from www.openstreetmap.org. The data is made available under ODbL."}, "elements": [{"type": "node", "id": 198500820, "lat": 9.1962369, "lon": 123.6551893, "tags": {"admin_level": "6", "admin_type:PH": "municipality", "gns_classification": "ADM3", "name": "Maria", "name:en": "Maria", "name:es": "Mar\u00eda", "name:tl": "Maria", "old_ref": "076104000", "place": "town", "population": "14385", "population:date": "2020-05-01", "ref": "1806104000", "source:population": "Philippine Statistics Authority", "wikidata": "Q174343", "wikimedia_commons": "Category:Maria, Siquijor", "wikipedia": "en:Maria, Siquijor"}}, {"type": "node", "id": 1214414271, "lat": 9.2135904, "lon": 123.6645804, "tags": {"admin_level": "10", "designation": "barangay", "is_in:town": "Maria", "name": "Olang", "place": "village", "population": "701", "population:date": "2020-05-01", "ref": "076104016", "source:population": "Philippine Statistics Authority"}}, {"type": "node", "id": 1214414275, "lat": 9.1532499, "lon": 123.6500832, "tags": {"admin_level": "10", "designation": "barangay", "is_in:town": "Maria", "name": "Logucan", "place": "village", "population": "647", "population:date": "2020-05-01", "ref": "076104013", "source:population": "Philippine Statistics Authority"}}, {"type": "node", "id": 1214414277, "lat": 9.1445871, "lon": 123.6848547, "tags": {"admin_level": "10", "designation": "barangay", "is_in:town": "Maria", "name": "Lilo-an", "place": "village", "population": "1459", "population:date": "2020-05-01", "ref": "076104011", "source:population": "Philippine Statistics Authority"}}, {"type": "node", "id": 4551741933, "lat": 9.1235124, "lon": 123.6756141, "tags": {"admin_level": "10", "designation": "barangay", "is_in:town": "Maria", "name": "Minalulan", "place": "village", "population": "843", "population:2015": "797", "population:date": "2020-05-01", "ref": "076104014", "source:population": "Philippine Statistics Authority"}}, {"type": "node", "id": 6807281791, "lat": 9.1236846, "lon": 123.6547809, "tags": {"admin_level": "10", "designation": "barangay", "is_in:town": "Lazi", "name": "Simacolong", "place": "village", "population": "2120", "population:date": "2020-05-01", "ref": "076103012", "source:population": "Philippine Statistics Authority"}}, {"type": "node", "id": 6887450495, "lat": 9.1201216, "lon": 123.6666768, "tags": {"admin_level": "11", "name": "Ilihan", "place": "hamlet", "place:PH": "sitio"}}, {"type": "node", "id": 8243965644, "lat": 9.2372816, "lon": 123.6599019, "tags": {"admin_level": "10", "admin_type:PH": "barangay", "name": "Lotloton", "old_ref": "076101009", "place": "village", "population": "492", "population:date": "2020-05-01", "ref": "0706101009", "source:population": "Philippine Statistics Authority", "wikidata": "Q26722355"}}, {"type": "node", "id": 8243965645, "lat": 9.2452503, "lon": 123.6557767, "tags": {"admin_level": "10", "admin_type:PH": "barangay", "name": "Cangmangki", "old_ref": "076101006", "place": "village", "population": "449", "population:date": "2020-05-01", "ref": "0706101006", "source:population": "Philippine Statistics Authority", "wikidata": "Q26722337"}}, {"type": "node", "id": 8243965646, "lat": 9.2550745, "lon": 123.652322, "tags": {"admin_level": "10", "admin_type:PH": "barangay", "name": "Libo", "old_ref": "076101007", "place": "village", "population": "938", "population:date": "2020-05-01", "ref": "0706101007", "source:population": "Philippine Statistics Authority", "wikidata": "Q26722340"}}, {"type": "node", "id": 8243965669, "lat": 9.2630719, "lon": 123.6518942, "tags": {"admin_level": "10", "admin_type:PH": "barangay", "name": "Camogao", "old_ref": "076101005", "place": "village", "population": "352", "population:date": "2020-05-01", "ref": "0706101005", "source:population": "Philippine Statistics Authority", "wikidata": "Q26722335"}}, {"type": "node", "id": 8243965670, "lat": 9.2709764, "lon": 123.6497658, "tags": {"admin_level": "10", "admin_type:PH": "barangay", "name": "Bino-ongan", "old_ref": "076101002", "place": "neighbourhood", "population": "498", "population:date": "2020-05-01", "ref": "0706101002", "source:population": "Philippine Statistics Authority", "wikidata": "Q26722330"}}, {"type": "node", "id": 9983605864, "lat": 9.191798, "lon": 123.6552842, "tags": {"admin_level": "10", "admin_type:PH": "barangay", "gns_classification": "ADM3", "is_in:municipality": "Maria", "name": "Looc", "place": "hamlet", "population": "489", "population:date": "2020-05-01", "ref": "076104002", "source:population": "Philippine Statistics Authority"}}, {"type": "node", "id": 9983605877, "lat": 9.2330738, "lon": 123.6631474, "tags": {"admin_level": "10", "designation": "barangay", "is_in:town": "Maria", "name": "Bogo", "place": "village", "population": "851", "population:date": "2020-05-01", "ref": "076104001", "source:population": "Philippine Statistics Authority"}}, {"type": "node", "id": 9983605879, "lat": 9.2078479, "lon": 123.6517948, "tags": {"admin_level": "10", "designation": "barangay", "is_in:town": "Maria", "name": "Cabal-asan", "place": "hamlet", "population": "389", "population:date": "2020-05-01", "ref": "076104003", "source:population": "Philippine Statistics Authority"}}, {"type": "node", "id": 9990835756, "lat": 9.1413718, "lon": 123.6650713, "tags": {"admin_level": "10", "designation": "barangay", "is_in:town": "Maria", "name": "Saguing", "place": "village", "population": "803", "population:date": "2020-05-01", "ref": "076104021", "source:population": "Philippine Statistics Authority"}}, {"type": "node", "id": 9990835761, "lat": 9.1517578, "lon": 123.6749243, "tags": {"admin_level": "10", "designation": "barangay", "is_in:town": "Maria", "name": "Nabutay", "place": "village", "population": "1000", "population:date": "2020-05-01", "ref": "076104015", "source:population": "Philippine Statistics Authority"}}, {"type": "node", "id": 9990835785, "lat": 9.1592307, "lon": 123.6658726, "tags": {"admin_level": "10", "designation": "barangay", "is_in:town": "Maria", "name": "Candaping B", "place": "village", "population": "684", "population:date": "2020-05-01", "ref": "076104006", "source:population": "Philippine Statistics Authority"}}, {"type": "node", "id": 9990835803, "lat": 9.1704049, "lon": 123.6580503, "tags": {"admin_level": "10", "designation": "barangay", "is_in:town": "Maria", "name": "Candaping A", "place": "village", "population": "582", "population:date": "2020-05-01", "ref": "076104005", "source:population": "Philippine Statistics Authority"}}, {"type": "node", "id": 9990835804, "lat": 9.1763469, "lon": 123.661276, "tags": {"admin_level": "10", "designation": "barangay", "is_in:town": "Maria", "name": "Sawang", "place": "hamlet", "population": "444", "population:date": "2020-05-01", "ref": "076104022", "source:population": "Philippine Statistics Authority"}}, {"type": "node", "id": 9990835807, "lat": 9.1814399, "lon": 123.6575169, "tags": {"admin_level": "10", "designation": "barangay", "is_in:town": "Maria", "name": "Cantaroc B", "place": "village", "population": "501", "population:date": "2020-05-01", "ref": "076104008", "source:population": "Philippine Statistics Authority"}}, {"type": "node", "id": 9990835808, "lat": 9.1876713, "lon": 123.6559658, "tags": {"admin_level": "10", "designation": "barangay", "is_in:town": "Maria", "name": "Cantaroc A", "place": "hamlet", "population": "462", "population:date": "2020-05-01", "ref": "076104007", "source:population": "Philippine Statistics Authority"}}, {"type": "node", "id": 9990835814, "lat": 9.1921433, "lon": 123.6496207, "tags": {"admin_level": "10", "admin_type:PH": "barangay", "gns_classification": "ADM3", "is_in:municipality": "Maria", "name": "Calunasan", "place": "village", "population": "643", "population:date": "2020-05-01", "ref": "076104004", "source:population": "Philippine Statistics Authority"}}]}