{"version": 0.6, "generator": "Overpass API 0.7.62.5 1bd436f1", "osm3s": {"timestamp_osm_base": "2025-05-24T17:53:13Z", "copyright": "The data included in this document is from www.openstreetmap.org. The data is made available under ODbL."}, "elements": [{"type": "node", "id": 198490790, "lat": 5.9818846, "lon": 121.2140628, "tags": {"admin_level": "6", "gns_classification": "ADM2", "gns_uni": "-3367431", "is_in:province": "Sulu", "name": "Old Panamao", "place": "town", "place:PH": "municipality", "population": "40998", "population:date": "2015-08-01", "source": "GNS", "source:population": "Philippine Statistics Authority", "wikidata": "Q156107", "wikimedia_commons": "Category:Panamao", "wikipedia": "en:Old Panamao, Sulu"}}, {"type": "node", "id": 198491083, "lat": 6.1105436, "lon": 120.9665742, "tags": {"admin_level": "6", "designation": "municipality", "is_in:province": "Sulu", "name": "Hadji Panglima Tahil", "old_name": "Marunggas", "place": "town", "population": "6375", "population:date": "2015-08-01", "source:population": "Philippine Statistics Authority", "wikidata": "Q155983", "wikimedia_commons": "Category:Hadji Panglima Tahi", "wikipedia": "en:Hadji Panglima Tahil"}}, {"type": "node", "id": 198496540, "lat": 5.9327986, "lon": 121.0247434, "tags": {"admin_level": "6", "admin_type:PH": "municipality", "gns_classification": "ADM2", "gns_uni": "-3357752", "is_in:province": "Sulu", "name": "Maimbung", "place": "town", "population": "59597", "population:date": "2020", "source": "GNS", "source:population": "Philippine Statistics Authority", "wikidata": "Q156090", "wikimedia_commons": "Category:Maimbung", "wikipedia": "en:Maimbung, Sulu"}}, {"type": "node", "id": 198503088, "lat": 5.9680048, "lon": 121.3135327, "tags": {"admin_level": "6", "admin_type:PH": "municipality", "gns_classification": "ADM2", "gns_uni": "-3356105", "is_in:province": "Sulu", "name": "Luuk", "place": "town", "population": "32162", "population:date": "2015-08-01", "source": "GNS", "source:population": "Philippine Statistics Authority", "wikidata": "Q156071", "wikimedia_commons": "Category:Luuk, Sulu", "wikipedia": "en:Luuk, Sulu"}}, {"type": "node", "id": 198504677, "lat": 5.8457184, "lon": 121.1445068, "tags": {"admin_level": "6", "designation": "municipality", "is_in:province": "Sulu", "name": "Pata", "name:uk": "\u041f\u0430\u0442\u0430", "place": "town", "population": "22163", "population:date": "2015-08-01", "source:population": "Philippine Statistics Authority", "wikidata": "Q156225", "wikimedia_commons": "Category:Pata, Sulu", "wikipedia": "en:Pata, Sulu"}}, {"type": "node", "id": 198513267, "lat": 6.0889469, "lon": 121.1054959, "tags": {"admin_level": "6", "admin_type:PH": "municipality", "gns_classification": "ADM2", "gns_uni": "-3369022", "is_in:province": "Sulu", "name": "Patikul", "old_ref": "156611000", "place": "town", "population": "62287", "population:date": "2015-08-01", "ref": "1906611000", "source": "GNS", "source:population": "Philippine Statistics Authority", "wikidata": "Q156244", "wikimedia_commons": "Category:Patikul", "wikipedia": "en:Patikul"}}, {"type": "node", "id": 198514008, "lat": 5.9750727, "lon": 121.114474, "tags": {"admin_level": "6", "admin_type:PH": "municipality", "gns_classification": "ADM2", "gns_uni": "-3381653", "is_in:province": "Sulu", "name": "Talipao", "place": "town", "population": "80255", "population:date": "2015-08-01", "source": "GNS", "source:population": "Philippine Statistics Authority", "wikidata": "Q156285", "wikimedia_commons": "Category:Talipao", "wikipedia": "en:Talipao, Sulu"}}, {"type": "node", "id": 198520919, "lat": 5.9728882, "lon": 120.9702286, "tags": {"admin_level": "6", "gns_classification": "ADM2", "gns_uni": "10251515", "is_in:province": "Sulu", "name": "Indanan", "place": "town", "place:PH": "municipality", "population": "80883", "population:date": "2015-08-01", "source": "GNS", "source:population": "Philippine Statistics Authority", "wikidata": "Q156008", "wikimedia_commons": "Category:Indanan", "wikipedia": "en:Indanan, Sulu"}}, {"type": "node", "id": 198526614, "lat": 6.0531173, "lon": 121.0007633, "tags": {"admin_level": "6", "admin_type:PH": "municipality", "capital": "4", "gns_classification": "ADM2", "name": "Jolo", "name:ar": "\u062e\u0648\u0644\u0648", "name:azb": "\u062e\u0648\u0644\u0648", "name:en": "Jolo", "name:es": "Jol\u00f3", "name:fa": "\u062e\u0648\u0644\u0648", "name:ja": "\u30db\u30ed", "name:ks": "\u062e\u0648\u0644\u0648", "name:pnb": "\u062e\u0648\u0644\u0648", "name:tsg": "Tiyanggi", "name:ur": "\u062e\u0648\u0644\u0648", "official_name:en": "Municipality of Jolo", "official_name:es": "Municipio de Jol\u00f3", "official_name:tsg": "Kawman sin Tiyanggi", "old_ref": "156602000", "place": "town", "population": "137266", "population:date": "2020-05-01", "postal_code": "7400", "ref": "1906602000", "wikidata": "Q156024", "wikimedia_commons": "Category:Jolo, Sulu", "wikipedia": "en:Jolo, Sulu", "wikipedia:es": "Jol\u00f3"}}, {"type": "node", "id": 198526905, "lat": 5.8890311, "lon": 121.30945, "tags": {"admin_level": "6", "designation": "municipality", "is_in:province": "Sulu", "name": "Kalingalan Caluang", "place": "town", "population": "39549", "population:date": "2020-05-01", "source:population": "Philippine Statistics Authority", "wikidata": "Q156042", "wikimedia_commons": "Category:Kalingalan Caluang", "wikipedia": "en:Kalingalan Caluang"}}, {"type": "node", "id": 198530072, "lat": 5.9579396, "lon": 121.196327, "tags": {"admin_level": "6", "admin_type:PH": "municipality", "gns_classification": "ADM2", "gns_uni": "-3364868", "is_in:province": "Sulu", "name": "Panglima Estino", "place": "town", "population": "28817", "population:date": "2015-08-01", "source": "GNS", "source:population": "Philippine Statistics Authority", "wikidata": "Q156180", "wikimedia_commons": "Category:Panglima Estino", "wikipedia": "en:Panglima Estino, Sulu"}}, {"type": "node", "id": 2319111406, "lat": 6.0403557, "lon": 121.0057582}, {"type": "node", "id": 2319111407, "lat": 6.0458922, "lon": 121.0078481, "tags": {"alt_name": "Kasalaman Village", "name": "Kasalaman", "place": "neighbourhood"}}, {"type": "node", "id": 3797521538, "lat": 6.0459467, "lon": 121.0024331}, {"type": "node", "id": 3797521539, "lat": 6.0464242, "lon": 121.0024386}, {"type": "node", "id": 3797521540, "lat": 6.0464108, "lon": 121.0028622}, {"type": "node", "id": 3797521541, "lat": 6.0463921, "lon": 121.0029427}, {"type": "node", "id": 3797521542, "lat": 6.0463468, "lon": 121.0029615}, {"type": "node", "id": 3797521543, "lat": 6.0462774, "lon": 121.00294}, {"type": "node", "id": 3797521544, "lat": 6.045896, "lon": 121.002653}, {"type": "node", "id": 3797521545, "lat": 6.0458587, "lon": 121.0025564}, {"type": "node", "id": 3797521546, "lat": 6.045864, "lon": 121.0024787}, {"type": "node", "id": 4652901343, "lat": 6.0084369, "lon": 121.3877453, "tags": {"admin_level": "6", "admin_type:PH": "municipality", "gns_classification": "ADM2", "is_in:province": "Sulu", "name": "Omar", "place": "town", "population": "25116", "population:date": "2015-08-01", "source:population": "Philippine Statistics Authority", "wikidata": "Q156126", "wikimedia_commons": "Category:Omar, Sulu", "wikipedia": "en:Omar, Sulu"}}, {"type": "node", "id": 7682072330, "lat": 5.9423736, "lon": 121.2851357, "tags": {"admin_level": "10", "name": "Pang", "place": "village", "place:PH": "barangay"}}, {"type": "node", "id": 7682096321, "lat": 5.9416662, "lon": 121.3911544, "tags": {"admin_level": "10", "admin_type:PH": "barangay", "is_in:municipality": "Omar", "name": "Huwit-huwit", "old_ref": "156619004", "place": "village", "population": "2853", "population:2015": "2522", "population:date": "2020-05-01", "ref": "1906619004"}}, {"type": "node", "id": 7682099117, "lat": 6.0490804, "lon": 121.0295695, "tags": {"name": "Kawmpang", "place": "neighbourhood"}}, {"type": "node", "id": 8090312663, "lat": 5.9644355, "lon": 121.3716814, "tags": {"admin_level": "10", "name": "Andalan", "place": "village", "place:PH": "barangay"}}, {"type": "node", "id": 8092602560, "lat": 5.9589327, "lon": 121.3888221, "tags": {"admin_level": "10", "admin_type:PH": "barangay", "name": "Niangkaan", "old_ref": "156619006", "place": "village", "population": "4200", "population:2015": "4132", "population:date": "2020-05-01", "ref": "1906619006"}}, {"type": "node", "id": 8092615677, "lat": 5.9693368, "lon": 121.3428111, "tags": {"admin_level": "10", "name": "Tangkuan", "place": "village", "place:PH": "barangay"}}, {"type": "node", "id": 8092701377, "lat": 5.9857328, "lon": 121.3705477, "tags": {"name": "Patutul", "place": "neighbourhood"}}, {"type": "node", "id": 8092775551, "lat": 5.9164176, "lon": 121.350671, "tags": {"admin_level": "10", "admin_type:PH": "barangay", "is_in:municipality": "Omar", "name": "Sucuban", "old_ref": "156619007", "place": "village", "population": "3180", "population:2015": "2404", "population:date": "2020-05-01", "ref": "1906619007"}}, {"type": "node", "id": 8093177004, "lat": 5.9570266, "lon": 121.2722551, "tags": {"admin_level": "10", "admin_type:PH": "barangay", "alt_name": "Masjid Bayle", "name": "Masjid Bayli", "official_name": "Barangay Masjid Bayle", "old_ref": "156603017", "place": "village", "population": "3162", "population:2015": "2602", "population:date": "2020-05-01", "ref": "1906603017"}}, {"type": "node", "id": 8093206346, "lat": 5.9263558, "lon": 121.2943714, "tags": {"name": "Kanpagayoh", "place": "neighbourhood"}}, {"type": "node", "id": 8093251160, "lat": 5.9211631, "lon": 121.282335, "tags": {"admin_level": "10", "name": "Masjid Punjungan", "place": "village", "place:PH": "barangay"}}, {"type": "node", "id": 8093256437, "lat": 5.9094758, "lon": 121.2867289, "tags": {"name": "Mangal-mangal", "place": "village"}}, {"type": "node", "id": 8093262131, "lat": 5.9225278, "lon": 121.2535285, "tags": {"name": "Tunggol", "place": "village"}}, {"type": "node", "id": 8093268823, "lat": 5.9072739, "lon": 121.23675, "tags": {"admin_level": "10", "admin_type:PH": "barangay", "is_in:town": "Kalingalan Caluang", "name": "Pangdan-pangdan", "old_ref": "156603011", "place": "village", "place:PH": "barangay", "population": "2601", "population:2015": "2501", "ref": "1906603011", "source:population": "Philippine Statistics Authority"}}, {"type": "node", "id": 8093280341, "lat": 5.8934266, "lon": 121.2578666, "tags": {"admin_level": "10", "admin_type:PH": "barangay", "is_in:town": "Kalingalan Caluang", "name": "Kambing", "old_ref": "156603002", "place": "village", "population": "3430", "population:2015": "2386", "ref": "1906603002", "source:population": "Philippine Statistics Authority"}}, {"type": "node", "id": 8093301182, "lat": 5.8768575, "lon": 121.2916177, "tags": {"admin_level": "10", "admin_type:PH": "barangay", "is_in:town": "Kalingalan Caluang", "name": "Kanlagay", "old_ref": "156603004", "place": "village", "population": "2826", "population:2015": "2599", "ref": "1906603004"}}, {"type": "node", "id": 8889384764, "lat": 5.8838269, "lon": 121.2634076, "tags": {"admin_level": "10", "admin_type:PH": "barangay", "is_in:town": "Kalingalan Caluang", "name": "Karungdong", "old_ref": "156603013", "place": "village", "population": "5986", "population:2015": "5957", "ref": "1906603013"}}, {"type": "node", "id": 8889463641, "lat": 5.9052088, "lon": 121.3399977, "tags": {"admin_level": "10", "admin_type:PH": "barangay", "is_in:town": "Luuk", "name": "Guimbaun", "official_name": "Barangay Guimbaun", "old_ref": "156604029", "place": "village", "population": "1731", "population:2015": "1544", "population:date": "2020-05-01", "postal_code": "7404", "ref": "1906604029"}}, {"type": "node", "id": 8889471219, "lat": 6.0038023, "lon": 121.3644847, "tags": {"admin_level": "11", "name": "Sapang", "place": "hamlet"}}, {"type": "node", "id": 8889474896, "lat": 6.0014449, "lon": 121.3211462, "tags": {"admin_level": "11", "name": "Kan-mindus", "place": "hamlet"}}, {"type": "node", "id": 8889486040, "lat": 6.0174903, "lon": 121.3188603, "tags": {"admin_level": "10", "admin_type:PH": "barangay", "is_in:town": "Luuk", "name": "Tanjong Tulayan", "old_ref": "156604028", "place": "village", "population": "2236", "population:2015": "1944", "ref": "1906604028", "source:population": "Philippine Statistics Authority"}}, {"type": "node", "id": 8889511796, "lat": 6.0033952, "lon": 121.3074363, "tags": {"admin_level": "10", "admin_type:PH": "barangay", "alt_name": "Tandu-Bato", "is_in:municipality": "Luuk", "name": "Tandu Bato", "old_ref": "156604024", "place": "village", "population": "2650", "ref": "1906604024", "source:population": "Philippine Statistics Authority"}}, {"type": "node", "id": 8889531672, "lat": 5.9453005, "lon": 121.3019682, "tags": {"admin_level": "10", "name": "Niog-niog", "place": "village"}}, {"type": "node", "id": 8889540978, "lat": 5.9740656, "lon": 121.2793643, "tags": {"admin_level": "10", "admin_type:PH": "barangay", "is_in:municipality": "Luuk", "name": "Lambago", "old_ref": "156604012", "place": "village", "population": "2170", "ref": "1906604012", "source:population": "Philippine Statistics Authority"}}, {"type": "node", "id": 10910840648, "lat": 5.9493632, "lon": 121.0140824, "tags": {"admin_level": "10", "admin_type:PH": "barangay", "is_in:town": "Maimbung", "name": "Bualo Lipid", "old_ref": "156605004", "place": "village", "population": "2316", "population:2015": "1919", "ref": "1906605004", "source:population": "Philippine Statistics Authority"}}, {"type": "node", "id": 10910865756, "lat": 5.9459218, "lon": 121.0153028, "tags": {"admin_level": "10", "admin_type:PH": "barangay", "is_in:town": "Maimbung", "name": "Laum Maimbung", "old_ref": "156605017", "place": "village", "population": "9784", "population:2015": "2337", "ref": "1906605017", "source:population": "Philippine Statistics Authority"}}, {"type": "node", "id": 12389674523, "lat": 5.9159222, "lon": 121.000588, "tags": {"admin_level": "10", "admin_type:PH": "barangay", "is_in:municipality": "Maimbung", "name": "Bato Ugis", "old_ref": "156605002", "place": "village", "population": "1250", "ref": "1906605002", "source:population": "Philippine Statistics Authority"}}, {"type": "node", "id": 12389674947, "lat": 5.9130968, "lon": 120.98665, "tags": {"admin_level": "10", "admin_type:PH": "barangay", "is_in:municipality": "Maimbung", "name": "Lagasan Asibih", "old_ref": "156605014", "place": "village", "population": "1098", "ref": "1906605014", "source:population": "Philippine Statistics Authority"}}, {"type": "node", "id": 12389687827, "lat": 5.9528314, "lon": 121.0131561, "tags": {"admin_level": "10", "admin_type:PH": "barangay", "is_in:municipality": "Maimbung", "name": "Matatal", "old_ref": "156605021", "place": "village", "population": "2479", "ref": "1906605021", "source:population": "Philippine Statistics Authority"}}, {"type": "node", "id": 12389689144, "lat": 5.9265471, "lon": 121.0134332, "tags": {"admin_level": "10", "admin_type:PH": "barangay", "is_in:municipality": "Maimbung", "name": "Lapa", "old_ref": "156605020", "place": "village", "population": "651", "ref": "1906605020", "source:population": "Philippine Statistics Authority"}}, {"type": "node", "id": 12389741145, "lat": 5.9802213, "lon": 121.0463664, "tags": {"admin_level": "10", "admin_type:PH": "barangay", "is_in:municipality": "Talipao", "name": "Dalih", "old_ref": "156613010", "place": "village", "population": "1965", "ref": "1906613010", "source:population": "Philippine Statistics Authority"}}, {"type": "node", "id": 12389743952, "lat": 5.9866677, "lon": 121.0345535, "tags": {"admin_level": "10", "admin_type:PH": "barangay", "is_in:municipality": "Talipao", "name": "Pantao", "old_ref": "156613045", "place": "village", "population": "1763", "ref": "1906613045", "source:population": "Philippine Statistics Authority"}}, {"type": "node", "id": 12389744736, "lat": 5.9825954, "lon": 121.0227366, "tags": {"admin_level": "10", "admin_type:PH": "barangay", "is_in:municipality": "Maimbung", "name": "Ratag Limbon", "old_ref": "156605006", "place": "village", "population": "944", "ref": "1906605006", "source:population": "Philippine Statistics Authority"}}, {"type": "node", "id": 12392642876, "lat": 6.0433934, "lon": 121.0034964}, {"type": "node", "id": 12392642877, "lat": 6.043014, "lon": 121.0034082}, {"type": "node", "id": 12392642878, "lat": 6.0423255, "lon": 121.0031095}, {"type": "node", "id": 12392642879, "lat": 6.0419214, "lon": 121.0028279}, {"type": "node", "id": 12392642880, "lat": 6.0414086, "lon": 121.0021117}, {"type": "node", "id": 12392642881, "lat": 6.0403597, "lon": 121.0026549}, {"type": "node", "id": 12392642882, "lat": 6.0411825, "lon": 121.0037237}, {"type": "node", "id": 12392642883, "lat": 6.0406411, "lon": 121.0044774}, {"type": "node", "id": 12392642884, "lat": 6.0400409, "lon": 121.0068391}, {"type": "node", "id": 12392642885, "lat": 6.0394061, "lon": 121.0080904}, {"type": "node", "id": 12392642886, "lat": 6.0390967, "lon": 121.0081762}, {"type": "node", "id": 12392642887, "lat": 6.039006, "lon": 121.0083961}, {"type": "node", "id": 12392642888, "lat": 6.0435724, "lon": 121.0098137}, {"type": "node", "id": 12392642889, "lat": 6.0436765, "lon": 121.009587}, {"type": "node", "id": 12392642890, "lat": 6.0435804, "lon": 121.0082808}, {"type": "node", "id": 12392642891, "lat": 6.0436538, "lon": 121.0076492}, {"type": "node", "id": 12392642892, "lat": 6.0453048, "lon": 121.0033214}, {"type": "node", "id": 12392642893, "lat": 6.0451595, "lon": 121.0032503}, {"type": "node", "id": 12392642894, "lat": 6.0440392, "lon": 121.0037398}, {"type": "node", "id": 12392642895, "lat": 6.0450715, "lon": 121.0033616}, {"type": "node", "id": 12392646110, "lat": 6.0415079, "lon": 121.0021332, "tags": {"name": "Suwah-suwah", "place": "neighbourhood"}}, {"type": "node", "id": 12392980583, "lat": 6.0587103, "lon": 121.0067942, "tags": {"name": "Lambayong", "place": "neighbourhood"}}, {"type": "node", "id": 12393065135, "lat": 6.0576575, "lon": 121.0099961, "tags": {"designation": "subdivision", "name": "Kasulutan Village", "place": "neighbourhood"}}, {"type": "node", "id": 12393072028, "lat": 5.9962943, "lon": 121.1662241, "tags": {"admin_level": "10", "admin_type:PH": "barangay", "is_in:municipality": "Panglima Estino", "name": "Lihbug Kabaw", "old_ref": "156616004", "place": "village", "population": "2094", "ref": "1906616004", "source:population": "Philippine Statistics Authority"}}, {"type": "node", "id": 12393085320, "lat": 5.9872495, "lon": 121.1565303, "tags": {"admin_level": "10", "admin_type:PH": "barangay", "is_in:municipality": "Talipao", "name": "Lambanah", "old_ref": "156613026", "place": "village", "population": "2035", "ref": "1906613026", "source:population": "Philippine Statistics Authority"}}, {"type": "node", "id": 12393114134, "lat": 6.0784196, "lon": 121.1319843, "tags": {"admin_level": "10", "admin_type:PH": "barangay", "is_in:municipality": "Patikul", "name": "Taung", "old_ref": "156611026", "place": "village", "population": "1384", "ref": "1906611026", "source:population": "Philippine Statistics Authority"}}, {"type": "node", "id": 12393160369, "lat": 6.0878758, "lon": 121.0990186, "tags": {"admin_level": "10", "admin_type:PH": "barangay", "is_in:town": "Patikul", "name": "Igasan", "old_ref": "156611008", "place": "village", "population": "1475", "ref": "1906611008", "source:population": "Philippine Statistics Authority"}}, {"type": "node", "id": 12393160371, "lat": 6.0894081, "lon": 121.1188267, "tags": {"admin_level": "10", "admin_type:PH": "barangay", "is_in:municipality": "Patikul", "name": "Taglibi", "old_ref": "156611023", "place": "village", "population": "2240", "ref": "1906611023", "source:population": "Philippine Statistics Authority"}}, {"type": "node", "id": 12548590971, "lat": 5.9816702, "lon": 121.1171356, "tags": {"admin_level": "10", "admin_type:PH": "barangay", "gns_classification": "ADM3", "is_in:town": "Talipao", "name": "Mungit-mungit", "old_ref": "156613043", "place": "village", "population": "2042", "ref": "1906613043", "source:population": "Philippine Statistics Authority"}}, {"type": "node", "id": 12588804498, "lat": 6.0431883, "lon": 121.0029137, "tags": {"name": "Satag Village", "place": "neighbourhood"}}, {"type": "node", "id": 12588806507, "lat": 6.0491737, "lon": 121.0036004, "tags": {"name": "Lower San Raymundo", "place": "neighbourhood"}}, {"type": "way", "id": 547182666, "nodes": [3797521539, 3797521540, 3797521541, 3797521542, 3797521543, 3797521544, 3797521545, 3797521546, 3797521538, 3797521539], "tags": {"name": "Kakuyagan Village Phase I", "place": "village"}}, {"type": "way", "id": 1339704189, "nodes": [12392642894, 12392642876, 12392642877, 12392642878, 12392642879, 12392642880, 12392642881, 12392642882, 12392642883, 2319111406, 12392642884, 12392642885, 12392642886, 12392642887, 12392642888, 12392642889, 12392642890, 12392642891, 12392642892, 12392642893, 12392642895, 12392642894], "tags": {"landuse": "residential", "name": "Kasanyangan Village", "place": "neighbourhood", "residential": "detached"}}]}